[{"id":38592,"name":"Alaba Special Wereda","lat":7.45347,"lng":38.21189},{"id":38593,"name":"Arba Minch","lat":6.03333,"lng":37.55},{"id":38725,"name":"Āreka","lat":7.06667,"lng":37.7},{"id":38599,"name":"Bako","lat":5.78333,"lng":36.56667},{"id":38606,"name":"Bodītī","lat":6.96667,"lng":37.86667},{"id":38609,"name":"Butajīra","lat":8.11667,"lng":38.36667},{"id":38629,"name":"Felege Neway","lat":6.3,"lng":36.88333},{"id":38634,"name":"Gedeo Zone","lat":6.12727,"lng":38.27716},{"id":38647,"name":"Gīdolē","lat":5.65,"lng":37.36667},{"id":38645,"name":"Guraghe Zone","lat":8.25,"lng":38.0},{"id":38648,"name":"Hadiya Zone","lat":7.5,"lng":37.75},{"id":38652,"name":"Hosa’ina","lat":7.54978,"lng":37.85374},{"id":38662,"name":"Jinka","lat":5.65,"lng":36.65},{"id":38670,"name":"K’olīto","lat":7.31667,"lng":38.08333},{"id":38663,"name":"Kembata Alaba Tembaro Zone","lat":7.27039,"lng":37.77887},{"id":38668,"name":"Konso","lat":5.25,"lng":37.48333},{"id":38674,"name":"Lobuni","lat":4.83333,"lng":36.1},{"id":38700,"name":"Sodo","lat":6.86,"lng":37.76159},{"id":38707,"name":"Turmi","lat":4.96667,"lng":36.48333},{"id":38716,"name":"Wolayita Zone","lat":6.84312,"lng":37.70051},{"id":38718,"name":"Yem","lat":7.83333,"lng":37.5}]