[{"id":79040,"name":"Alvdal","lat":62.10854,"lng":10.63483},{"id":79679,"name":"Åmot","lat":61.13199,"lng":11.37328},{"id":79690,"name":"Åsnes","lat":60.61363,"lng":12.012},{"id":79059,"name":"Bagn","lat":60.82249,"lng":9.55207},{"id":79089,"name":"Brumunddal","lat":60.88095,"lng":10.93948},{"id":79101,"name":"Dokka","lat":60.835,"lng":10.07362},{"id":79102,"name":"Dombås","lat":62.07554,"lng":9.12785},{"id":79103,"name":"Dovre","lat":61.98582,"lng":9.24947},{"id":79114,"name":"Eidskog","lat":59.98556,"lng":12.12502},{"id":79122,"name":"Elverum","lat":60.88159,"lng":11.56314},{"id":79124,"name":"Engerdal","lat":61.75774,"lng":11.95966},{"id":79127,"name":"Etnedal","lat":60.88872,"lng":9.64031},{"id":79131,"name":"Fagernes","lat":60.98584,"lng":9.23236},{"id":79154,"name":"Folldal","lat":62.13329,"lng":9.9971},{"id":79157,"name":"Fossbergom","lat":61.83772,"lng":8.56842},{"id":79173,"name":"Gausdal","lat":61.22685,"lng":10.22145},{"id":79180,"name":"Gjøvik","lat":60.79472,"lng":10.69287},{"id":79185,"name":"Gran","lat":60.39293,"lng":10.56045},{"id":79191,"name":"Grua","lat":60.25701,"lng":10.66222},{"id":79192,"name":"Grue","lat":60.45133,"lng":12.05489},{"id":79201,"name":"Hamar","lat":60.7945,"lng":11.06798},{"id":79237,"name":"Hov","lat":60.6987,"lng":10.35193},{"id":79238,"name":"Hundorp","lat":61.55523,"lng":9.94069},{"id":79254,"name":"Innbygda","lat":61.31484,"lng":12.26374},{"id":79257,"name":"Jevnaker","lat":60.2406,"lng":10.38587},{"id":79271,"name":"Kirkenær","lat":60.4579,"lng":12.05855},{"id":79282,"name":"Kongsvinger","lat":60.19117,"lng":11.99916},{"id":79284,"name":"Koppang","lat":61.57219,"lng":11.04659},{"id":79315,"name":"Lena","lat":60.67391,"lng":10.81317},{"id":79318,"name":"Lesja","lat":62.11785,"lng":8.86262},{"id":79323,"name":"Lillehammer","lat":61.11464,"lng":10.46743},{"id":79327,"name":"Lom","lat":61.83639,"lng":8.56811},{"id":79347,"name":"Løten","lat":60.81771,"lng":11.34373},{"id":79333,"name":"Lunner","lat":60.29462,"lng":10.6086},{"id":79369,"name":"Moelv","lat":60.93333,"lng":10.7},{"id":79402,"name":"Nord-Aurdal","lat":60.98531,"lng":9.23661},{"id":79403,"name":"Nord-Fron","lat":61.59556,"lng":9.7483},{"id":79404,"name":"Nord-Odal","lat":60.39195,"lng":11.54151},{"id":79408,"name":"Nordre Land","lat":60.83471,"lng":10.07543},{"id":79422,"name":"Os","lat":62.49536,"lng":11.22807},{"id":79427,"name":"Otta","lat":61.7712,"lng":9.53529},{"id":79699,"name":"Østre Toten","lat":60.67659,"lng":10.81997},{"id":79701,"name":"Øyer","lat":61.26495,"lng":10.41297},{"id":79704,"name":"Øystre Slidre","lat":61.13377,"lng":9.07872},{"id":79439,"name":"Raufoss","lat":60.72604,"lng":10.6133},{"id":79443,"name":"Reinsvoll","lat":60.67977,"lng":10.62175},{"id":79444,"name":"Rena","lat":61.13222,"lng":11.37156},{"id":79445,"name":"Rendalen","lat":61.89004,"lng":11.07694},{"id":79450,"name":"Ringebu","lat":61.5298,"lng":10.1418},{"id":79452,"name":"Ringsaker","lat":60.88216,"lng":10.9503},{"id":79477,"name":"Sand","lat":60.3922,"lng":11.5403},{"id":79490,"name":"Sel","lat":61.77278,"lng":9.53415},{"id":79504,"name":"Skarnes","lat":60.25391,"lng":11.68485},{"id":79512,"name":"Skjåk","lat":61.88349,"lng":8.2649},{"id":79519,"name":"Skotterud","lat":59.98281,"lng":12.12825},{"id":79520,"name":"Skreia","lat":60.65257,"lng":10.93564},{"id":79578,"name":"Søndre Land","lat":60.69944,"lng":10.35086},{"id":79579,"name":"Sør-Aurdal","lat":60.82242,"lng":9.54836},{"id":79580,"name":"Sør-Fron","lat":61.55652,"lng":9.93949},{"id":79581,"name":"Sør-Odal","lat":60.25455,"lng":11.68246},{"id":79535,"name":"Spetalen","lat":60.18333,"lng":11.9},{"id":79537,"name":"Stange","lat":60.71576,"lng":11.19069},{"id":79547,"name":"Stor-Elvdal","lat":61.57198,"lng":11.04759},{"id":79599,"name":"Tolga","lat":62.40984,"lng":10.9977},{"id":79606,"name":"Tretten","lat":61.31423,"lng":10.30066},{"id":79610,"name":"Trysil","lat":61.31549,"lng":12.26422},{"id":79615,"name":"Tynset","lat":62.27387,"lng":10.77626},{"id":79665,"name":"Vågå","lat":61.87565,"lng":9.09572},{"id":79666,"name":"Vågåmo","lat":61.87505,"lng":9.09671},{"id":79667,"name":"Våler","lat":60.67845,"lng":11.83314},{"id":79630,"name":"Vang","lat":61.12564,"lng":8.57167},{"id":79645,"name":"Vestre Slidre","lat":61.08842,"lng":8.98196},{"id":79646,"name":"Vestre Toten","lat":60.72593,"lng":10.60764},{"id":79659,"name":"Vinstra","lat":61.59496,"lng":9.75134}]