[{"id":79063,"name":"Bamble","lat":59.00146,"lng":9.74573},{"id":79095,"name":"Bø","lat":59.41281,"lng":9.06618},{"id":79100,"name":"Dalen","lat":59.44499,"lng":8.00492},{"id":79105,"name":"Drangedal","lat":59.09655,"lng":9.0596},{"id":79167,"name":"Fyresdal","lat":59.18651,"lng":8.08953},{"id":79196,"name":"Gvarv","lat":59.38767,"lng":9.1724},{"id":79219,"name":"Herre","lat":59.10351,"lng":9.56195},{"id":79223,"name":"Hjartdal","lat":59.61276,"lng":8.94942},{"id":79286,"name":"Kragerø","lat":58.86792,"lng":9.41099},{"id":79294,"name":"Kviteseid","lat":59.40194,"lng":8.49459},{"id":79332,"name":"Lunde","lat":59.29832,"lng":9.10268},{"id":79398,"name":"Nissedal","lat":59.01958,"lng":8.52127},{"id":79401,"name":"Nome","lat":59.28136,"lng":9.25678},{"id":79414,"name":"Notodden","lat":59.55992,"lng":9.26046},{"id":79430,"name":"Porsgrunn","lat":59.1419,"lng":9.6568},{"id":79431,"name":"Prestestranda","lat":59.09773,"lng":9.05866},{"id":79441,"name":"Re","lat":59.35056,"lng":10.24763},{"id":79453,"name":"Rjukan","lat":59.87891,"lng":8.59411},{"id":79480,"name":"Sande","lat":59.59362,"lng":10.20757},{"id":79489,"name":"Sauherad","lat":59.39642,"lng":9.2491},{"id":79493,"name":"Seljord","lat":59.48274,"lng":8.62672},{"id":79498,"name":"Siljan","lat":59.28251,"lng":9.73368},{"id":79508,"name":"Skien","lat":59.20748,"lng":9.61052},{"id":79594,"name":"Tinn","lat":59.83486,"lng":9.13528},{"id":79598,"name":"Tokke","lat":59.44569,"lng":8.01388},{"id":79620,"name":"Ulefoss","lat":59.28245,"lng":9.26548},{"id":79658,"name":"Vinje","lat":59.56924,"lng":7.98896}]