[{"id":79038,"name":"Alstahaug","lat":65.97556,"lng":12.56836},{"id":79041,"name":"Andenes","lat":69.31428,"lng":16.11939},{"id":79042,"name":"Andøy","lat":69.08033,"lng":15.77637},{"id":79061,"name":"Ballangen","lat":68.34365,"lng":16.83317},{"id":79067,"name":"Beiarn","lat":67.00725,"lng":14.57304},{"id":79074,"name":"Bindal","lat":65.0878,"lng":12.37747},{"id":79076,"name":"Bjerkvik","lat":68.54917,"lng":17.55709},{"id":79081,"name":"Bodø","lat":67.28325,"lng":14.38319},{"id":79082,"name":"Bogen","lat":68.52647,"lng":16.9928},{"id":79096,"name":"Bø","lat":68.68823,"lng":14.47899},{"id":79091,"name":"Brønnøy","lat":65.46786,"lng":12.20626},{"id":79092,"name":"Brønnøysund","lat":65.47487,"lng":12.21285},{"id":79108,"name":"Dønna","lat":66.10606,"lng":12.48189},{"id":79128,"name":"Evenes","lat":68.52334,"lng":17.00888},{"id":79130,"name":"Evjen","lat":68.26667,"lng":13.73333},{"id":79135,"name":"Fauske","lat":67.25963,"lng":15.3941},{"id":79146,"name":"Flakstad","lat":68.09292,"lng":13.2331},{"id":79175,"name":"Gildeskål","lat":67.03394,"lng":14.02582},{"id":79181,"name":"Gladstad","lat":65.67683,"lng":11.96218},{"id":79182,"name":"Glomfjord","lat":66.81663,"lng":13.94404},{"id":79186,"name":"Grane","lat":65.53865,"lng":13.38499},{"id":79189,"name":"Gravdal","lat":68.11832,"lng":13.55339},{"id":79197,"name":"Hadsel","lat":68.56328,"lng":14.90835},{"id":79202,"name":"Hamarøy","lat":68.08381,"lng":15.61671},{"id":79210,"name":"Hattfjelldal","lat":65.59765,"lng":13.98948},{"id":79213,"name":"Hauknes","lat":66.28333,"lng":14.06667},{"id":79215,"name":"Hemnes","lat":66.07712,"lng":13.8135},{"id":79216,"name":"Hemnesberget","lat":66.22489,"lng":13.61643},{"id":79220,"name":"Herøy","lat":65.98427,"lng":12.28916},{"id":79255,"name":"Inndyr","lat":67.03353,"lng":14.02663},{"id":79263,"name":"Kabelvåg","lat":68.21066,"lng":14.47554},{"id":79273,"name":"Kjøpsvik","lat":68.09696,"lng":16.37416},{"id":79285,"name":"Korgen","lat":66.07662,"lng":13.8216},{"id":79309,"name":"Leirfjord","lat":66.06348,"lng":12.93667},{"id":79313,"name":"Leknes","lat":68.14746,"lng":13.61151},{"id":79314,"name":"Leland","lat":66.06406,"lng":12.94325},{"id":79343,"name":"Løding","lat":67.30055,"lng":14.73852},{"id":79344,"name":"Lødingen","lat":68.40998,"lng":15.99012},{"id":79345,"name":"Løpsmarka","lat":67.31343,"lng":14.44934},{"id":79334,"name":"Lurøy","lat":66.41887,"lng":12.84248},{"id":79358,"name":"Melbu","lat":68.50246,"lng":14.79962},{"id":79362,"name":"Meløy","lat":66.87204,"lng":13.70763},{"id":79366,"name":"Mo i Rana","lat":66.31278,"lng":14.14278},{"id":79373,"name":"Mosjøen","lat":65.83599,"lng":13.19076},{"id":79374,"name":"Moskenes","lat":67.93467,"lng":13.09109},{"id":79377,"name":"Myre","lat":68.914,"lng":15.07843},{"id":79386,"name":"Narvik","lat":68.43896,"lng":17.42775},{"id":79393,"name":"Nesna","lat":66.19796,"lng":13.02229},{"id":79692,"name":"Øksnes","lat":68.91463,"lng":15.08703},{"id":79696,"name":"Ørnes","lat":66.86878,"lng":13.70579},{"id":79436,"name":"Rana","lat":66.31122,"lng":14.13996},{"id":79442,"name":"Reine","lat":67.93249,"lng":13.08955},{"id":79455,"name":"Rognan","lat":67.10021,"lng":15.39086},{"id":79466,"name":"Rødøy","lat":66.71195,"lng":13.2853},{"id":79470,"name":"Røst","lat":67.51727,"lng":12.11564},{"id":79475,"name":"Saltdal","lat":67.10144,"lng":15.39458},{"id":79484,"name":"Sandnessjøen","lat":66.02166,"lng":12.63158},{"id":79534,"name":"Sortland","lat":68.69618,"lng":15.41174},{"id":79577,"name":"Sømna","lat":65.31379,"lng":12.16729},{"id":79583,"name":"Sørfold","lat":67.34803,"lng":15.59445},{"id":79584,"name":"Sørland","lat":67.66564,"lng":12.69784},{"id":79540,"name":"Steigen","lat":67.77625,"lng":15.01621},{"id":79546,"name":"Stokmarknes","lat":68.56462,"lng":14.91075},{"id":79557,"name":"Straume","lat":68.6888,"lng":14.47205},{"id":79560,"name":"Straumen","lat":67.34769,"lng":15.60493},{"id":79571,"name":"Svolvær","lat":68.23417,"lng":14.56834},{"id":79591,"name":"Terråk","lat":65.087,"lng":12.37148},{"id":79595,"name":"Tjeldsund","lat":68.55557,"lng":16.36172},{"id":79611,"name":"Træna","lat":66.50159,"lng":12.09645},{"id":79607,"name":"Trofors","lat":65.53335,"lng":13.40631},{"id":79616,"name":"Tysfjord","lat":68.09772,"lng":16.37591},{"id":79663,"name":"Vågan","lat":68.2322,"lng":14.56226},{"id":79669,"name":"Værøy","lat":67.66374,"lng":12.69337},{"id":79637,"name":"Vefsn","lat":65.84109,"lng":13.20024},{"id":79638,"name":"Vega","lat":65.67539,"lng":11.96456},{"id":79647,"name":"Vestvågøy","lat":68.1483,"lng":13.61119},{"id":79648,"name":"Vevelstad","lat":65.70002,"lng":12.43921},{"id":79651,"name":"Vik","lat":65.31254,"lng":12.16734}]