[{"id":55291,"name":"Báta","lat":46.12864,"lng":18.77027},{"id":55292,"name":"Bátaszék","lat":46.19373,"lng":18.72307},{"id":55251,"name":"Bogyiszló","lat":46.38638,"lng":18.82962},{"id":55308,"name":"Bölcske","lat":46.74102,"lng":18.96736},{"id":55255,"name":"Bonyhád","lat":46.29921,"lng":18.53024},{"id":55256,"name":"Bonyhádi Járás","lat":46.33998,"lng":18.49739},{"id":55355,"name":"Decs","lat":46.28428,"lng":18.76},{"id":55390,"name":"Döbrököz","lat":46.42178,"lng":18.23953},{"id":55368,"name":"Dombóvár","lat":46.37657,"lng":18.13696},{"id":55369,"name":"Dombóvári Járás","lat":46.45592,"lng":18.19076},{"id":55373,"name":"Dunaföldvár","lat":46.80713,"lng":18.92763},{"id":55379,"name":"Dunaszentgyörgy","lat":46.52852,"lng":18.81771},{"id":55415,"name":"Fadd","lat":46.46476,"lng":18.81925},{"id":55465,"name":"Gyönk","lat":46.55603,"lng":18.47694},{"id":55523,"name":"Hőgyész","lat":46.49697,"lng":18.41841},{"id":55528,"name":"Iregszemcse","lat":46.69286,"lng":18.18581},{"id":55673,"name":"Madocsa","lat":46.6879,"lng":18.95791},{"id":55745,"name":"Nagydorog","lat":46.62749,"lng":18.65565},{"id":55758,"name":"Nagymányok","lat":46.27911,"lng":18.45489},{"id":55795,"name":"Németkér","lat":46.71637,"lng":18.76311},{"id":56170,"name":"Őcsény","lat":46.3137,"lng":18.75749},{"id":55803,"name":"Ozora","lat":46.75133,"lng":18.4001},{"id":55805,"name":"Paks","lat":46.6221,"lng":18.85569},{"id":55806,"name":"Paksi Járás","lat":46.66035,"lng":18.78572},{"id":55825,"name":"Pincehely","lat":46.68095,"lng":18.43935},{"id":55899,"name":"Simontornya","lat":46.75462,"lng":18.5549},{"id":55924,"name":"Szedres","lat":46.47551,"lng":18.68305},{"id":55930,"name":"Szekszárd","lat":46.35014,"lng":18.70905},{"id":55931,"name":"Szekszárdi Járás","lat":46.33998,"lng":18.67893},{"id":55940,"name":"Szentgálpuszta","lat":46.37479,"lng":18.62601},{"id":56007,"name":"Tamási","lat":46.63333,"lng":18.28333},{"id":56008,"name":"Tamási Járás","lat":46.65424,"lng":18.35857},{"id":56019,"name":"Tengelic","lat":46.52878,"lng":18.71117},{"id":56053,"name":"Tolna","lat":46.42677,"lng":18.78248},{"id":56054,"name":"Tolnai Járás","lat":46.42541,"lng":18.82691},{"id":56129,"name":"Zomba","lat":46.41084,"lng":18.56577}]