[{"id":55234,"name":"Becsehely","lat":46.44755,"lng":16.7771},{"id":55334,"name":"Cserszegtomaj","lat":46.80165,"lng":17.22096},{"id":55450,"name":"Gyenesdiás","lat":46.77058,"lng":17.2866},{"id":55519,"name":"Hévíz","lat":46.79031,"lng":17.18408},{"id":55589,"name":"Keszthely","lat":46.76812,"lng":17.24317},{"id":55590,"name":"Keszthelyi Járás","lat":46.78356,"lng":17.22381},{"id":55657,"name":"Lenti","lat":46.62403,"lng":16.53863},{"id":55658,"name":"Lenti Járás","lat":46.65649,"lng":16.57443},{"id":55660,"name":"Letenye","lat":46.43301,"lng":16.72583},{"id":55661,"name":"Letenyei Járás","lat":46.50552,"lng":16.76503},{"id":55717,"name":"Murakeresztúr","lat":46.36422,"lng":16.88177},{"id":55748,"name":"Nagykanizsa","lat":46.45347,"lng":16.99104},{"id":55749,"name":"Nagykanizsai Járás","lat":46.51873,"lng":17.04433},{"id":55804,"name":"Pacsa","lat":46.71981,"lng":17.01401},{"id":55984,"name":"Sármellék","lat":46.71221,"lng":17.16865},{"id":56087,"name":"Türje","lat":46.98366,"lng":17.10742},{"id":56104,"name":"Vonyarcvashegy","lat":46.75742,"lng":17.31172},{"id":56120,"name":"Zalaegerszeg","lat":46.84,"lng":16.84389},{"id":56121,"name":"Zalaegerszegi Járás","lat":46.8,"lng":16.83},{"id":56122,"name":"Zalakomár","lat":46.53795,"lng":17.18094},{"id":56123,"name":"Zalalövő","lat":46.84802,"lng":16.5875},{"id":56124,"name":"Zalaszentgrót","lat":46.94474,"lng":17.07925},{"id":56125,"name":"Zalaszentgróti Járás","lat":46.9207,"lng":17.10095}]