[{"id":55238,"name":"Beremend","lat":45.79108,"lng":18.43263},{"id":55304,"name":"Bóly","lat":45.96722,"lng":18.51833},{"id":55305,"name":"Bólyi Járás","lat":45.98075,"lng":18.48449},{"id":55310,"name":"Bükkösd","lat":46.10751,"lng":17.9882},{"id":55378,"name":"Dunaszekcső","lat":46.0874,"lng":18.7587},{"id":55497,"name":"Harkány","lat":45.85002,"lng":18.23668},{"id":55502,"name":"Hegyháti Járás","lat":46.27247,"lng":18.13758},{"id":55512,"name":"Hidas","lat":46.2568,"lng":18.4954},{"id":55516,"name":"Hosszúhetény","lat":46.16414,"lng":18.35077},{"id":55618,"name":"Komló","lat":46.19278,"lng":18.26494},{"id":55619,"name":"Komlói Járás","lat":46.22019,"lng":18.2862},{"id":55625,"name":"Kozármisleny","lat":46.02967,"lng":18.2921},{"id":55667,"name":"Lánycsók","lat":46.00543,"lng":18.62526},{"id":55719,"name":"Mágocs","lat":46.34998,"lng":18.2324},{"id":55684,"name":"Mecseknádasd","lat":46.22468,"lng":18.47076},{"id":55708,"name":"Mohács","lat":45.9902,"lng":18.68621},{"id":55709,"name":"Mohácsi Járás","lat":46.02004,"lng":18.68},{"id":55850,"name":"Pécs","lat":46.08333,"lng":18.23333},{"id":55851,"name":"Pécsi Járás","lat":46.0799,"lng":18.25253},{"id":55852,"name":"Pécsvárad","lat":46.16033,"lng":18.42321},{"id":55853,"name":"Pécsváradi Járás","lat":46.16782,"lng":18.45456},{"id":55812,"name":"Pellérd","lat":46.03438,"lng":18.15403},{"id":55993,"name":"Sásd","lat":46.2552,"lng":18.10776},{"id":55894,"name":"Sellye","lat":45.87247,"lng":17.84711},{"id":55895,"name":"Sellyei Járás","lat":45.86955,"lng":17.89827},{"id":55897,"name":"Siklós","lat":45.85499,"lng":18.29752},{"id":55898,"name":"Siklósi Járás","lat":45.84981,"lng":18.31052},{"id":55970,"name":"Szászvár","lat":46.27673,"lng":18.37566},{"id":55944,"name":"Szentlőrinc","lat":46.04016,"lng":17.98719},{"id":55945,"name":"Szentlőrinci Járás","lat":46.04694,"lng":18.01528},{"id":55954,"name":"Szigetvár","lat":46.04865,"lng":17.80554},{"id":55955,"name":"Szigetvári Járás","lat":46.07336,"lng":17.80391},{"id":56089,"name":"Vajszló","lat":45.85957,"lng":17.98406},{"id":56102,"name":"Villány","lat":45.86889,"lng":18.45389}]