[{"id":55202,"name":"Bagamér","lat":47.44882,"lng":21.989},{"id":55226,"name":"Balmazújváros","lat":47.61667,"lng":21.35},{"id":55227,"name":"Balmazújvárosi Járás","lat":47.6184,"lng":21.14882},{"id":55290,"name":"Báránd","lat":47.3,"lng":21.23333},{"id":55239,"name":"Berettyóújfalu","lat":47.21667,"lng":21.55},{"id":55240,"name":"Berettyóújfalui Járás","lat":47.14109,"lng":21.55233},{"id":55248,"name":"Biharkeresztes","lat":47.13333,"lng":21.71667},{"id":55249,"name":"Biharnagybajom","lat":47.21667,"lng":21.23333},{"id":55349,"name":"Csökmő","lat":47.03333,"lng":21.3},{"id":55353,"name":"Debrecen","lat":47.53333,"lng":21.63333},{"id":55354,"name":"Debreceni Járás","lat":47.52706,"lng":21.66869},{"id":55357,"name":"Derecske","lat":47.35,"lng":21.56667},{"id":55358,"name":"Derecskei Járás","lat":47.38194,"lng":21.74836},{"id":55393,"name":"Ebes","lat":47.46667,"lng":21.5},{"id":55401,"name":"Egyek","lat":47.63333,"lng":20.9},{"id":55437,"name":"Földes","lat":47.3,"lng":21.36667},{"id":55479,"name":"Görbeháza","lat":47.83333,"lng":21.23333},{"id":55480,"name":"Hadjúszoboszlói Járás","lat":47.4811,"lng":21.31},{"id":55481,"name":"Hajdúbagos","lat":47.39295,"lng":21.66551},{"id":55482,"name":"Hajdúböszörmény","lat":47.66667,"lng":21.51667},{"id":55483,"name":"Hajdúböszörményi Járás","lat":47.74,"lng":21.5},{"id":55484,"name":"Hajdúdorog","lat":47.81667,"lng":21.5},{"id":55485,"name":"Hajdúhadház","lat":47.68333,"lng":21.66667},{"id":55486,"name":"Hajdúhadházi Járás","lat":47.67,"lng":21.7},{"id":55487,"name":"Hajdúnánás","lat":47.85,"lng":21.43333},{"id":55488,"name":"Hajdúnánási Járás","lat":47.8335,"lng":21.25256},{"id":55491,"name":"Hajdúsámson","lat":47.6,"lng":21.76667},{"id":55489,"name":"Hajdúszoboszló","lat":47.45,"lng":21.4},{"id":55490,"name":"Hajdúszovát","lat":47.38333,"lng":21.48333},{"id":55515,"name":"Hortobágy","lat":47.58278,"lng":21.15108},{"id":55517,"name":"Hosszúpályi","lat":47.39303,"lng":21.7328},{"id":55555,"name":"Kaba","lat":47.35,"lng":21.28333},{"id":55621,"name":"Komádi","lat":47.0,"lng":21.5},{"id":55623,"name":"Konyár","lat":47.31667,"lng":21.66667},{"id":55669,"name":"Létavértes","lat":47.38333,"lng":21.9},{"id":55703,"name":"Mikepércs","lat":47.45,"lng":21.63333},{"id":55713,"name":"Monostorpályi","lat":47.4,"lng":21.78333},{"id":55794,"name":"Nádudvar","lat":47.41667,"lng":21.16667},{"id":55760,"name":"Nagyrábé","lat":47.2,"lng":21.33333},{"id":55792,"name":"Nyírábrány","lat":47.55311,"lng":22.02401},{"id":55770,"name":"Nyíracsád","lat":47.6033,"lng":21.97208},{"id":55771,"name":"Nyíradony","lat":47.69746,"lng":21.91878},{"id":55772,"name":"Nyíradonyi Járás","lat":47.57873,"lng":22.01381},{"id":55787,"name":"Nyírmártonfalva","lat":47.58333,"lng":21.9},{"id":55826,"name":"Pocsaj","lat":47.28333,"lng":21.81667},{"id":55827,"name":"Polgár","lat":47.86667,"lng":21.11667},{"id":55859,"name":"Püspökladány","lat":47.31667,"lng":21.11667},{"id":55860,"name":"Püspökladányi Járás","lat":47.31279,"lng":21.21177},{"id":55992,"name":"Sáránd","lat":47.4,"lng":21.63333},{"id":55988,"name":"Sárrétudvari","lat":47.23333,"lng":21.2},{"id":56073,"name":"Téglás","lat":47.71667,"lng":21.68333},{"id":56026,"name":"Tiszacsege","lat":47.7,"lng":21.0},{"id":56110,"name":"Vámospércs","lat":47.53333,"lng":21.9}]