[{"id":31472,"name":"’Aïn Deheb","lat":34.84218,"lng":1.54697},{"id":31317,"name":"Djebilet Rosfa","lat":34.86375,"lng":0.83496},{"id":31346,"name":"Frenda","lat":35.06544,"lng":1.04945},{"id":31365,"name":"Ksar Chellala","lat":35.21222,"lng":2.31889},{"id":31379,"name":"Mehdia daira de meghila","lat":35.43058,"lng":1.75714},{"id":31436,"name":"Sougueur","lat":35.18568,"lng":1.49612},{"id":31449,"name":"Tiaret","lat":35.37103,"lng":1.31699}]