[{"id":31243,"name":"Aïn Defla","lat":36.26405,"lng":1.9679},{"id":31325,"name":"El Abadia","lat":36.26951,"lng":1.68609},{"id":31331,"name":"El Attaf","lat":36.22393,"lng":1.67187},{"id":31361,"name":"Khemis Miliana","lat":36.26104,"lng":2.22015},{"id":31448,"name":"Theniet el Had","lat":35.87111,"lng":2.02806}]