[{"id":31250,"name":"Aïn Temouchent","lat":35.29749,"lng":-1.14037},{"id":31265,"name":"Beni Saf","lat":35.30099,"lng":-1.38226},{"id":31329,"name":"El Amria","lat":35.52439,"lng":-1.01577},{"id":31340,"name":"El Malah","lat":35.39137,"lng":-1.09238},{"id":31351,"name":"Hammam Bou Hadjar","lat":35.37889,"lng":-0.96778}]