[{"id":31229,"name":"Akbou","lat":36.4575,"lng":4.53494},{"id":31231,"name":"Amizour","lat":36.64022,"lng":4.90131},{"id":31256,"name":"Barbacha","lat":36.56667,"lng":4.96667},{"id":31259,"name":"Bejaïa","lat":36.75587,"lng":5.08433},{"id":31467,"name":"el hed","lat":36.65,"lng":4.77361},{"id":31339,"name":"El Kseur","lat":36.67942,"lng":4.8555},{"id":31344,"name":"Feraoun","lat":36.56041,"lng":4.85454},{"id":31421,"name":"Seddouk","lat":36.54722,"lng":4.68611}]