[{"id":31473,"name":"’Aïn Merane","lat":36.16277,"lng":0.97037},{"id":31232,"name":"Ammi Moussa","lat":35.86781,"lng":1.11143},{"id":31319,"name":"Djidiouia","lat":35.92989,"lng":0.82871},{"id":31376,"name":"Mazouna","lat":36.12232,"lng":0.89865},{"id":31398,"name":"Oued Rhiou","lat":35.96124,"lng":0.91896},{"id":31409,"name":"Relizane","lat":35.73734,"lng":0.55599},{"id":31435,"name":"Smala","lat":35.71652,"lng":0.75437},{"id":31464,"name":"Zemoura","lat":35.72251,"lng":0.75509}]