[{"id":31249,"name":"Aïn Taya","lat":36.79333,"lng":3.28694},{"id":31230,"name":"Algiers","lat":36.73225,"lng":3.08746},{"id":31254,"name":"Bab Ezzouar","lat":36.72615,"lng":3.18291},{"id":31274,"name":"Birkhadem","lat":36.71499,"lng":3.05002},{"id":31281,"name":"Bordj el Kiffan","lat":36.74871,"lng":3.19249},{"id":31312,"name":"Dar el Beïda","lat":36.71333,"lng":3.2125},{"id":31413,"name":"Rouiba","lat":36.73829,"lng":3.28079}]