[{"id":31902,"name":"Abajas","lat":42.6231,"lng":-3.58086},{"id":31937,"name":"Adrada de Haza","lat":41.59454,"lng":-3.82327},{"id":152289,"name":"Aguas Cándidas","lat":42.7161738,"lng":-3.5031881},{"id":31959,"name":"Aguilar de Bureba","lat":42.58974,"lng":-3.32913},{"id":32045,"name":"Albillos","lat":42.2768,"lng":-3.78908},{"id":32100,"name":"Alcocero de Mola","lat":42.47222,"lng":-3.3579},{"id":152290,"name":"Alfoz de Bricia","lat":42.8880557,"lng":-3.8146526},{"id":152367,"name":"Alfoz de Quintanadueñas","lat":42.384803,"lng":-3.7350645},{"id":152291,"name":"Alfoz de Santa Gadea","lat":42.9561948,"lng":-3.9515931},{"id":32337,"name":"Altable","lat":42.60276,"lng":-3.07719},{"id":152292,"name":"Altos Los","lat":42.807841,"lng":-3.6333387},{"id":32353,"name":"Ameyugo","lat":42.65617,"lng":-3.0617},{"id":32383,"name":"Anguix","lat":41.75331,"lng":-3.93125},{"id":32407,"name":"Aranda de Duero","lat":41.67041,"lng":-3.6892},{"id":32409,"name":"Arandilla","lat":41.73778,"lng":-3.42914},{"id":32417,"name":"Arauzo de Miel","lat":41.85878,"lng":-3.38773},{"id":32418,"name":"Arauzo de Salce","lat":41.81919,"lng":-3.41191},{"id":32419,"name":"Arauzo de Torre","lat":41.79818,"lng":-3.42314},{"id":32435,"name":"Arcos","lat":42.26664,"lng":-3.75458},{"id":152293,"name":"Arenillas de Riopisuerga","lat":42.3457704,"lng":-4.2230836},{"id":32479,"name":"Arija","lat":42.9935,"lng":-3.94497},{"id":32484,"name":"Arlanzón","lat":42.32267,"lng":-3.45784},{"id":32503,"name":"Arraya de Oca","lat":42.41488,"lng":-3.39781},{"id":32548,"name":"Atapuerca","lat":42.37757,"lng":-3.5079},{"id":152294,"name":"Ausines Los","lat":42.2274193,"lng":-3.5983558},{"id":32567,"name":"Avellanosa de Muñó","lat":41.98349,"lng":-3.82553},{"id":32612,"name":"Bahabón de Esgueva","lat":41.86162,"lng":-3.7298},{"id":152295,"name":"Balbases Los","lat":42.2143266,"lng":-4.0650739},{"id":32708,"name":"Baños de Valdearados","lat":41.7701,"lng":-3.55589},{"id":32711,"name":"Bañuelos de Bureba","lat":42.50258,"lng":-3.27957},{"id":32641,"name":"Barbadillo de Herreros","lat":42.14974,"lng":-3.17702},{"id":32642,"name":"Barbadillo del Mercado","lat":42.03858,"lng":-3.35669},{"id":32643,"name":"Barbadillo del Pez","lat":42.11879,"lng":-3.22803},{"id":32676,"name":"Barrio de Muñó","lat":42.17584,"lng":-4.00715},{"id":152296,"name":"Barrios de Bureba Los","lat":42.6459584,"lng":-3.3911803},{"id":32679,"name":"Barrios de Colina","lat":42.39595,"lng":-3.46001},{"id":32689,"name":"Basconcillos del Tozo","lat":42.70236,"lng":-3.98937},{"id":32690,"name":"Bascuñana","lat":42.42548,"lng":-3.08231},{"id":32736,"name":"Belbimbre","lat":42.16873,"lng":-4.0128},{"id":32752,"name":"Belorado","lat":42.42048,"lng":-3.19133},{"id":32835,"name":"Berberana","lat":42.91784,"lng":-3.06063},{"id":32857,"name":"Berlangas de Roa","lat":41.68913,"lng":-3.87284},{"id":32874,"name":"Berzosa de Bureba","lat":42.62678,"lng":-3.26652},{"id":152297,"name":"Bozoó","lat":42.7269033,"lng":-3.0867387},{"id":32970,"name":"Brazacorta","lat":41.71737,"lng":-3.36711},{"id":32989,"name":"Briviesca","lat":42.54993,"lng":-3.32315},{"id":33011,"name":"Bugedo","lat":42.64912,"lng":-3.01786},{"id":33019,"name":"Buniel","lat":42.31197,"lng":-3.8223},{"id":33026,"name":"Burgos","lat":42.34106,"lng":-3.70184},{"id":33044,"name":"Busto de Bureba","lat":42.6591,"lng":-3.26512},{"id":33076,"name":"Cabañes de Esgueva","lat":41.83023,"lng":-3.78824},{"id":33095,"name":"Cabezón de la Sierra","lat":41.93434,"lng":-3.24153},{"id":33142,"name":"Caleruega","lat":41.82548,"lng":-3.48593},{"id":33188,"name":"Campillo de Aranda","lat":41.61015,"lng":-3.73017},{"id":33205,"name":"Campolara","lat":42.11953,"lng":-3.4274},{"id":33238,"name":"Canicosa de la Sierra","lat":41.93673,"lng":-3.04089},{"id":33248,"name":"Cantabrana","lat":42.73422,"lng":-3.46704},{"id":33278,"name":"Carazo","lat":41.96832,"lng":-3.3531},{"id":33293,"name":"Carcedo de Bureba","lat":42.57818,"lng":-3.49831},{"id":33294,"name":"Carcedo de Burgos","lat":42.28696,"lng":-3.62274},{"id":33299,"name":"Cardeñadijo","lat":42.30217,"lng":-3.66779},{"id":33300,"name":"Cardeñajimeno","lat":42.33038,"lng":-3.62103},{"id":152299,"name":"Cardeñuela Riopico","lat":42.3590405,"lng":-3.5591286},{"id":33326,"name":"Carrias","lat":42.48141,"lng":-3.28319},{"id":33384,"name":"Cascajares de Bureba","lat":42.67884,"lng":-3.23768},{"id":33385,"name":"Cascajares de la Sierra","lat":42.06177,"lng":-3.39936},{"id":33414,"name":"Castellanos de Castro","lat":42.32806,"lng":-4.03417},{"id":33444,"name":"Castil de Peones","lat":42.48347,"lng":-3.38461},{"id":33448,"name":"Castildelgado","lat":42.43756,"lng":-3.08389},{"id":33481,"name":"Castrillo de la Reina","lat":41.98714,"lng":-3.2356},{"id":33483,"name":"Castrillo de la Vega","lat":41.65166,"lng":-3.78089},{"id":152300,"name":"Castrillo de Riopisuerga","lat":42.5149644,"lng":-4.2524121},{"id":33484,"name":"Castrillo del Val","lat":42.31401,"lng":-3.58501},{"id":152301,"name":"Castrillo Matajudíos","lat":42.3076816,"lng":-4.1724943},{"id":152302,"name":"Castrojeriz","lat":42.3323911,"lng":-3.7059981},{"id":152298,"name":"Cavia","lat":42.2835519,"lng":-3.8453559},{"id":33520,"name":"Cayuela","lat":42.27223,"lng":-3.81895},{"id":33550,"name":"Cebrecos","lat":41.98408,"lng":-3.59661},{"id":33562,"name":"Celada del Camino","lat":42.26359,"lng":-3.93362},{"id":152303,"name":"Cerezo de Río Tirón","lat":42.4912815,"lng":-3.1353903},{"id":33592,"name":"Cerratón de Juarros","lat":42.42227,"lng":-3.37347},{"id":33655,"name":"Ciadoncha","lat":42.15814,"lng":-3.93235},{"id":152304,"name":"Cillaperlata","lat":42.7824321,"lng":-3.3571549},{"id":33669,"name":"Cilleruelo de Abajo","lat":41.88405,"lng":-3.79723},{"id":33670,"name":"Cilleruelo de Arriba","lat":41.90487,"lng":-3.66102},{"id":33687,"name":"Ciruelos de Cervera","lat":41.90562,"lng":-3.53015},{"id":33722,"name":"Cogollos","lat":42.19982,"lng":-3.70005},{"id":152305,"name":"Condado de Treviño","lat":42.7341379,"lng":-2.7466041},{"id":33770,"name":"Contreras","lat":42.02004,"lng":-3.41084},{"id":33814,"name":"Coruña del Conde","lat":41.76566,"lng":-3.39059},{"id":33827,"name":"Covarrubias","lat":42.05927,"lng":-3.51956},{"id":33855,"name":"Cubillo del Campo","lat":42.16854,"lng":-3.61025},{"id":33860,"name":"Cubo de Bureba","lat":42.64011,"lng":-3.20626},{"id":33873,"name":"Cuevas de San Clemente","lat":42.13009,"lng":-3.5684},{"id":34056,"name":"Encío","lat":42.67115,"lng":-3.0868},{"id":34119,"name":"Espinosa de Cervera","lat":41.89683,"lng":-3.46858},{"id":34122,"name":"Espinosa de los Monteros","lat":43.07754,"lng":-3.55365},{"id":34123,"name":"Espinosa del Camino","lat":42.4059,"lng":-3.28019},{"id":34150,"name":"Estépar","lat":42.27731,"lng":-3.89946},{"id":34216,"name":"Fontioso","lat":41.94273,"lng":-3.73872},{"id":34239,"name":"Frandovínez","lat":42.31032,"lng":-3.83783},{"id":34247,"name":"Fresneda de la Sierra Tirón","lat":42.31535,"lng":-3.13596},{"id":34252,"name":"Fresneña","lat":42.41366,"lng":-3.13453},{"id":34253,"name":"Fresnillo de las Dueñas","lat":41.647,"lng":-3.64558},{"id":152307,"name":"Fresno de Río Tirón","lat":42.4599174,"lng":-3.1748281},{"id":34257,"name":"Fresno de Rodilla","lat":42.42054,"lng":-3.48507},{"id":34271,"name":"Frías","lat":42.76225,"lng":-3.29394},{"id":34311,"name":"Fuentebureba","lat":42.634,"lng":-3.2351},{"id":34314,"name":"Fuentecén","lat":41.62852,"lng":-3.86867},{"id":34319,"name":"Fuentelcésped","lat":41.59162,"lng":-3.64064},{"id":34323,"name":"Fuentelisendo","lat":41.62274,"lng":-3.90129},{"id":34327,"name":"Fuentemolinos","lat":41.60477,"lng":-3.85005},{"id":34328,"name":"Fuentenebro","lat":41.52873,"lng":-3.75449},{"id":34357,"name":"Fuentespina","lat":41.63079,"lng":-3.68475},{"id":34376,"name":"Galbarros","lat":42.52729,"lng":-3.43827},{"id":34511,"name":"Grijalba","lat":42.43002,"lng":-4.11896},{"id":34513,"name":"Grisaleña","lat":42.59122,"lng":-3.26416},{"id":152309,"name":"Gumiel de Izán","lat":41.7706584,"lng":-3.6870462},{"id":152310,"name":"Gumiel de Mercado","lat":41.7554995,"lng":-3.8024534},{"id":34571,"name":"Hacinas","lat":41.98514,"lng":-3.28709},{"id":34574,"name":"Haza","lat":41.61667,"lng":-3.81667},{"id":34641,"name":"Hontanas","lat":42.31312,"lng":-4.04529},{"id":34643,"name":"Hontangas","lat":41.58216,"lng":-3.7955},{"id":34648,"name":"Hontoria de la Cantera","lat":42.18879,"lng":-3.64251},{"id":34647,"name":"Hontoria de Valdearados","lat":41.74488,"lng":-3.51983},{"id":34649,"name":"Hontoria del Pinar","lat":41.84838,"lng":-3.16245},{"id":34663,"name":"Hornillos del Camino","lat":42.33863,"lng":-3.9256},{"id":34668,"name":"Hortigüela","lat":42.06842,"lng":-3.42578},{"id":34673,"name":"Hoyales de Roa","lat":41.65893,"lng":-3.86202},{"id":34715,"name":"Huérmeces","lat":42.5225,"lng":-3.77072},{"id":34687,"name":"Huerta de Arriba","lat":42.11672,"lng":-3.08211},{"id":152313,"name":"Huerta de Rey","lat":41.8393915,"lng":-3.3470778},{"id":34699,"name":"Humada","lat":42.66667,"lng":-4.08333},{"id":34703,"name":"Hurones","lat":42.40571,"lng":-3.61588},{"id":34726,"name":"Ibeas de Juarros","lat":42.33088,"lng":-3.53519},{"id":34730,"name":"Ibrillos","lat":42.45431,"lng":-3.08238},{"id":34736,"name":"Iglesiarrubia","lat":41.97383,"lng":-3.84701},{"id":34737,"name":"Iglesias","lat":42.29807,"lng":-3.98932},{"id":34764,"name":"Isar","lat":42.3614,"lng":-3.9304},{"id":34771,"name":"Itero del Castillo","lat":42.28988,"lng":-4.24441},{"id":34800,"name":"Jaramillo de la Fuente","lat":42.11472,"lng":-3.31239},{"id":34799,"name":"Jaramillo Quemado","lat":42.08568,"lng":-3.35868},{"id":152314,"name":"Junta de Traslaloma","lat":43.0407136,"lng":-3.389851},{"id":152315,"name":"Junta de Villalba de Losa","lat":42.9353782,"lng":-3.0879432},{"id":152316,"name":"Jurisdicción de Lara","lat":42.135193,"lng":-3.4498346},{"id":152317,"name":"Jurisdicción de San Zadornil","lat":42.841522,"lng":-3.1585416},{"id":152306,"name":"La Cueva de Roa","lat":41.6677989,"lng":-3.9400298},{"id":152308,"name":"La Gallega","lat":41.8988254,"lng":-3.2640205},{"id":152312,"name":"La Horra","lat":41.7452071,"lng":-3.8757119},{"id":152330,"name":"La Puebla de Arganzón","lat":42.7754762,"lng":-2.8228124},{"id":152334,"name":"La Revilla y Ahedo","lat":42.0048842,"lng":-3.3439291},{"id":152339,"name":"La Sequera de Haza","lat":41.5626304,"lng":-3.8175131},{"id":152354,"name":"La Vid de Bureba","lat":42.6305621,"lng":-3.3008126},{"id":152353,"name":"La Vid y Barrios","lat":41.6181834,"lng":-3.4902391},{"id":152311,"name":"Las Hormazas","lat":42.5143271,"lng":-3.8960811},{"id":152331,"name":"Las Quintanillas","lat":42.3719153,"lng":-3.8458092},{"id":35032,"name":"Lerma","lat":42.02609,"lng":-3.75978},{"id":35068,"name":"Llano de Bureba","lat":42.62435,"lng":-3.4589},{"id":35191,"name":"Madrigal del Monte","lat":42.14464,"lng":-3.67571},{"id":35193,"name":"Madrigalejo del Monte","lat":42.12442,"lng":-3.72509},{"id":35206,"name":"Mahamud","lat":42.11981,"lng":-3.9406},{"id":35236,"name":"Mambrilla de Castrejón","lat":41.66634,"lng":-3.98448},{"id":35237,"name":"Mambrillas de Lara","lat":42.09446,"lng":-3.46195},{"id":35238,"name":"Mamolar","lat":41.92762,"lng":-3.36228},{"id":35245,"name":"Manciles","lat":42.45728,"lng":-3.94461},{"id":35360,"name":"Mazuela","lat":42.20767,"lng":-3.9192},{"id":35365,"name":"Mecerreyes","lat":42.09536,"lng":-3.57393},{"id":35370,"name":"Medina de Pomar","lat":42.92938,"lng":-3.48804},{"id":35387,"name":"Melgar de Fernamental","lat":42.40445,"lng":-4.24484},{"id":152318,"name":"Merindad de Cuesta-Urria","lat":42.8456427,"lng":-3.4539367},{"id":152319,"name":"Merindad de Montija","lat":43.1025735,"lng":-3.4801349},{"id":152366,"name":"Merindad de Río Ubierna","lat":42.5507563,"lng":-3.682608},{"id":152320,"name":"Merindad de Sotoscueva","lat":43.0587747,"lng":-3.642048},{"id":152321,"name":"Merindad de Valdeporres","lat":43.0548431,"lng":-3.7638256},{"id":152322,"name":"Merindad de Valdivielso","lat":42.8199888,"lng":-3.5366817},{"id":35429,"name":"Milagros","lat":41.575,"lng":-3.69907},{"id":35450,"name":"Miranda de Ebro","lat":42.6865,"lng":-2.94695},{"id":35453,"name":"Miraveche","lat":42.67396,"lng":-3.19947},{"id":35464,"name":"Modúbar de la Emparedada","lat":42.26118,"lng":-3.65965},{"id":35498,"name":"Monasterio de la Sierra","lat":42.0518,"lng":-3.19314},{"id":35496,"name":"Monasterio de Rodilla","lat":42.45775,"lng":-3.46965},{"id":35500,"name":"Moncalvillo","lat":41.95413,"lng":-3.19886},{"id":152323,"name":"Monterrubio de la Demanda","lat":42.148476,"lng":-3.1139948},{"id":35581,"name":"Montorio","lat":42.58469,"lng":-3.77724},{"id":35595,"name":"Moradillo de Roa","lat":41.55164,"lng":-3.79118},{"id":35724,"name":"Nava de Roa","lat":41.61326,"lng":-3.96442},{"id":35777,"name":"Navas de Bureba","lat":42.6809,"lng":-3.32698},{"id":35795,"name":"Nebreda","lat":41.96881,"lng":-3.6343},{"id":35799,"name":"Neila","lat":42.06016,"lng":-2.99691},{"id":35900,"name":"Olmedillo de Roa","lat":41.78362,"lng":-3.93419},{"id":35904,"name":"Olmillos de Muñó","lat":42.20322,"lng":-3.93911},{"id":35988,"name":"Oña","lat":42.734,"lng":-3.41459},{"id":35931,"name":"Oquillas","lat":41.83085,"lng":-3.70564},{"id":152324,"name":"Orbaneja Riopico","lat":42.3607114,"lng":-3.584433},{"id":35991,"name":"Padilla de Abajo","lat":42.40774,"lng":-4.17652},{"id":35992,"name":"Padilla de Arriba","lat":42.43803,"lng":-4.19094},{"id":35994,"name":"Padrones de Bureba","lat":42.70582,"lng":-3.53296},{"id":36008,"name":"Palacios de la Sierra","lat":41.96392,"lng":-3.12788},{"id":152325,"name":"Palacios de Riopisuerga","lat":42.3435835,"lng":-4.2573711},{"id":36021,"name":"Palazuelos de la Sierra","lat":42.21162,"lng":-3.46014},{"id":36020,"name":"Palazuelos de Muñó","lat":42.19692,"lng":-3.98984},{"id":36044,"name":"Pampliega","lat":42.20582,"lng":-3.98666},{"id":36046,"name":"Pancorbo","lat":42.63418,"lng":-3.1118},{"id":36063,"name":"Pardilla","lat":41.55183,"lng":-3.71089},{"id":152326,"name":"Partido de la Sierra en Tobalina","lat":42.7256183,"lng":-3.2332244},{"id":36104,"name":"Pedrosa de Duero","lat":41.71289,"lng":-3.98804},{"id":152327,"name":"Pedrosa de Río Úrbel","lat":42.4098485,"lng":-3.8219632},{"id":36107,"name":"Pedrosa del Páramo","lat":42.44208,"lng":-3.9719},{"id":36106,"name":"Pedrosa del Príncipe","lat":42.24918,"lng":-4.19849},{"id":36172,"name":"Peñaranda de Duero","lat":41.68849,"lng":-3.47863},{"id":36131,"name":"Peral de Arlanza","lat":42.07612,"lng":-4.07733},{"id":36226,"name":"Piérnigas","lat":42.5903,"lng":-3.41337},{"id":36198,"name":"Pineda de la Sierra","lat":42.2156,"lng":-3.2969},{"id":152328,"name":"Pineda Trasmonte","lat":41.9088882,"lng":-3.6956761},{"id":36204,"name":"Pinilla de los Barruecos","lat":41.91791,"lng":-3.30371},{"id":36205,"name":"Pinilla de los Moros","lat":42.06815,"lng":-3.32706},{"id":152329,"name":"Pinilla Trasmonte","lat":41.8736476,"lng":-3.6187948},{"id":36311,"name":"Poza de la Sal","lat":42.66542,"lng":-3.5014},{"id":36402,"name":"Prádanos de Bureba","lat":42.50264,"lng":-3.34752},{"id":36347,"name":"Pradoluengo","lat":42.32484,"lng":-3.20284},{"id":36351,"name":"Presencio","lat":42.18656,"lng":-3.90135},{"id":36442,"name":"Puentedura","lat":42.04134,"lng":-3.58227},{"id":36493,"name":"Quemada","lat":41.70073,"lng":-3.57476},{"id":36505,"name":"Quintana del Pidio","lat":41.75886,"lng":-3.75121},{"id":36508,"name":"Quintanabureba","lat":42.58665,"lng":-3.36685},{"id":36516,"name":"Quintanaélez","lat":42.66921,"lng":-3.29877},{"id":36509,"name":"Quintanaortuño","lat":42.45,"lng":-3.68333},{"id":36510,"name":"Quintanapalla","lat":42.40914,"lng":-3.53296},{"id":36512,"name":"Quintanar de la Sierra","lat":41.98288,"lng":-3.03765},{"id":36515,"name":"Quintanavides","lat":42.48084,"lng":-3.42449},{"id":36522,"name":"Quintanilla de la Mata","lat":41.98855,"lng":-3.76756},{"id":152361,"name":"Quintanilla del Agua y Tordueles","lat":42.0499154,"lng":-3.6521849},{"id":36523,"name":"Quintanilla del Coco","lat":41.98333,"lng":-3.51667},{"id":152332,"name":"Quintanilla San García","lat":42.5488624,"lng":-3.193658},{"id":152333,"name":"Quintanilla Vivar","lat":42.4139098,"lng":-3.6883143},{"id":36535,"name":"Rabanera del Pinar","lat":41.89375,"lng":-3.19665},{"id":36710,"name":"Rábanos","lat":42.31971,"lng":-3.27029},{"id":36536,"name":"Rabé de las Calzadas","lat":42.34065,"lng":-3.83414},{"id":36554,"name":"Rebolledo de la Torre","lat":42.68931,"lng":-4.22693},{"id":36559,"name":"Redecilla del Camino","lat":42.43804,"lng":-3.06547},{"id":36560,"name":"Redecilla del Campo","lat":42.46675,"lng":-3.11531},{"id":36566,"name":"Regumiel de la Sierra","lat":41.95623,"lng":-2.98843},{"id":36569,"name":"Reinoso","lat":42.50915,"lng":-3.38466},{"id":36590,"name":"Retuerta","lat":42.02945,"lng":-3.50679},{"id":36596,"name":"Revilla del Campo","lat":42.21081,"lng":-3.54289},{"id":152335,"name":"Revilla Vallejera","lat":42.1468479,"lng":-4.1344243},{"id":36597,"name":"Revillarruz","lat":42.23006,"lng":-3.65246},{"id":36599,"name":"Rezmondo","lat":42.51565,"lng":-4.23877},{"id":36628,"name":"Riocavado de la Sierra","lat":42.15209,"lng":-3.19759},{"id":36643,"name":"Roa","lat":41.69699,"lng":-3.92782},{"id":36666,"name":"Rojas","lat":42.57781,"lng":-3.44195},{"id":36684,"name":"Royuela de Río Franco","lat":42.00217,"lng":-3.95547},{"id":36688,"name":"Rubena","lat":42.38746,"lng":-3.57485},{"id":36693,"name":"Rublacedo de Abajo","lat":42.55332,"lng":-3.50236},{"id":36696,"name":"Rucandio","lat":42.75111,"lng":-3.54166},{"id":36750,"name":"Salas de Bureba","lat":42.6919,"lng":-3.47359},{"id":36751,"name":"Salas de los Infantes","lat":42.02242,"lng":-3.28631},{"id":36755,"name":"Saldaña de Burgos","lat":42.25838,"lng":-3.69707},{"id":36767,"name":"Salinillas de Bureba","lat":42.55243,"lng":-3.38753},{"id":36796,"name":"San Adrián de Juarros","lat":42.27427,"lng":-3.47551},{"id":36851,"name":"San Juan del Monte","lat":41.68313,"lng":-3.52337},{"id":36861,"name":"San Mamés de Burgos","lat":42.33685,"lng":-3.79397},{"id":36867,"name":"San Martín de Rubiales","lat":41.64191,"lng":-3.99134},{"id":36889,"name":"San Millán de Lara","lat":42.13621,"lng":-3.34515},{"id":36932,"name":"San Vicente del Valle","lat":42.33756,"lng":-3.1621},{"id":37010,"name":"Santa Cecilia","lat":42.05225,"lng":-3.80345},{"id":37039,"name":"Santa Cruz de la Salceda","lat":41.59591,"lng":-3.59317},{"id":37046,"name":"Santa Cruz del Valle Urbión","lat":42.30558,"lng":-3.2214},{"id":37060,"name":"Santa Gadea del Cid","lat":42.71531,"lng":-3.05885},{"id":37061,"name":"Santa Inés","lat":42.04013,"lng":-3.70322},{"id":37085,"name":"Santa María del Campo","lat":42.13304,"lng":-3.97283},{"id":37087,"name":"Santa María del Invierno","lat":42.44288,"lng":-3.43782},{"id":152336,"name":"Santa María del Mercadillo","lat":41.8598278,"lng":-3.5592844},{"id":152337,"name":"Santa María Rivarredonda","lat":42.6398869,"lng":-3.1802629},{"id":37093,"name":"Santa Olalla de Bureba","lat":42.47721,"lng":-3.44109},{"id":152338,"name":"Santibáñez de Esgueva","lat":41.8328722,"lng":-3.7593806},{"id":37127,"name":"Santibáñez del Val","lat":41.97354,"lng":-3.48142},{"id":37140,"name":"Santo Domingo de Silos","lat":41.964,"lng":-3.4174},{"id":37161,"name":"Sargentes de la Lora","lat":42.76917,"lng":-3.87278},{"id":37165,"name":"Sarracín","lat":42.25813,"lng":-3.68608},{"id":37176,"name":"Sasamón","lat":42.41687,"lng":-4.04288},{"id":37281,"name":"Solarana","lat":41.97168,"lng":-3.65876},{"id":37299,"name":"Sordillos","lat":42.46197,"lng":-4.10726},{"id":37314,"name":"Sotillo de la Ribera","lat":41.77717,"lng":-3.82525},{"id":37325,"name":"Sotragero","lat":42.40996,"lng":-3.71312},{"id":37326,"name":"Sotresgudo","lat":42.57935,"lng":-4.17725},{"id":37333,"name":"Susinos del Páramo","lat":42.47108,"lng":-3.92555},{"id":37366,"name":"Tamarón","lat":42.27386,"lng":-3.99154},{"id":37377,"name":"Tardajos","lat":42.34909,"lng":-3.817},{"id":37394,"name":"Tejada","lat":41.95249,"lng":-3.53514},{"id":37408,"name":"Terradillos de Esgueva","lat":41.81885,"lng":-3.84318},{"id":152340,"name":"Tinieblas de la Sierra","lat":42.1726088,"lng":-3.3631391},{"id":37435,"name":"Tobar","lat":42.48384,"lng":-3.93984},{"id":37462,"name":"Tordómar","lat":42.0463,"lng":-3.86514},{"id":37521,"name":"Torrecilla del Monte","lat":42.0949,"lng":-3.69356},{"id":37532,"name":"Torregalindo","lat":41.58299,"lng":-3.75222},{"id":37545,"name":"Torrelara","lat":42.16673,"lng":-3.51689},{"id":152341,"name":"Torrepadre","lat":42.0435931,"lng":-3.9374811},{"id":37580,"name":"Torresandino","lat":41.8292,"lng":-3.90981},{"id":152342,"name":"Tórtoles de Esgueva","lat":41.8159216,"lng":-4.0222953},{"id":37602,"name":"Tosantos","lat":42.41368,"lng":-3.24286},{"id":37632,"name":"Trespaderne","lat":42.80221,"lng":-3.38989},{"id":37646,"name":"Tubilla del Agua","lat":42.70932,"lng":-3.80116},{"id":37647,"name":"Tubilla del Lago","lat":41.80154,"lng":-3.58625},{"id":152343,"name":"Úrbel del Castillo","lat":42.6176561,"lng":-3.8461251},{"id":37718,"name":"Vadocondes","lat":41.63925,"lng":-3.57378},{"id":37730,"name":"Valdeande","lat":41.83302,"lng":-3.52792},{"id":37808,"name":"Valdezate","lat":41.60231,"lng":-3.93045},{"id":37811,"name":"Valdorros","lat":42.17232,"lng":-3.70938},{"id":37838,"name":"Vallarta de Bureba","lat":42.58864,"lng":-3.20457},{"id":152364,"name":"Valle de las Navas","lat":42.4761892,"lng":-3.561026},{"id":152368,"name":"Valle de Losa","lat":42.9932494,"lng":-3.238251},{"id":152344,"name":"Valle de Manzanedo","lat":42.8988498,"lng":-3.6916743},{"id":152345,"name":"Valle de Mena","lat":43.1085141,"lng":-3.2784825},{"id":152346,"name":"Valle de Oca","lat":42.4340901,"lng":-3.3288183},{"id":152362,"name":"Valle de Santibáñez","lat":42.4683847,"lng":-3.8044831},{"id":152365,"name":"Valle de Sedano","lat":42.7058935,"lng":-3.7232005},{"id":152347,"name":"Valle de Tobalina","lat":42.7986443,"lng":-3.238251},{"id":152348,"name":"Valle de Valdebezana","lat":42.9758703,"lng":-3.8044831},{"id":152349,"name":"Valle de Valdelaguna","lat":42.10435,"lng":-3.1478514},{"id":152350,"name":"Valle de Valdelucio","lat":42.7338962,"lng":-4.0491077},{"id":152351,"name":"Valle de Zamanzas","lat":42.8561738,"lng":-3.7485874},{"id":152352,"name":"Vallejera","lat":42.1828389,"lng":-4.1532959},{"id":37855,"name":"Valles de Palenzuela","lat":42.12019,"lng":-4.0775},{"id":37864,"name":"Valluércanes","lat":42.5722,"lng":-3.12113},{"id":37868,"name":"Valmala","lat":42.3059,"lng":-3.25456},{"id":38007,"name":"Vileña","lat":42.62227,"lng":-3.32293},{"id":38041,"name":"Villadiego","lat":42.51589,"lng":-4.00958},{"id":38046,"name":"Villaescusa de Roa","lat":41.72727,"lng":-4.0172},{"id":38047,"name":"Villaescusa la Sombría","lat":42.41518,"lng":-3.4184},{"id":38048,"name":"Villaespasa","lat":42.09991,"lng":-3.40436},{"id":152355,"name":"Villafranca Montes de Oca","lat":42.3873885,"lng":-3.3093071},{"id":38066,"name":"Villafruela","lat":41.91647,"lng":-3.91371},{"id":38070,"name":"Villagalijo","lat":42.34872,"lng":-3.19203},{"id":152356,"name":"Villagonzalo Pedernales","lat":42.3005926,"lng":-3.7352577},{"id":38086,"name":"Villahoz","lat":42.07587,"lng":-3.9129},{"id":38092,"name":"Villalba de Duero","lat":41.68243,"lng":-3.74443},{"id":38106,"name":"Villalbilla de Burgos","lat":42.34757,"lng":-3.78101},{"id":38107,"name":"Villalbilla de Gumiel","lat":41.80621,"lng":-3.62584},{"id":38111,"name":"Villaldemiro","lat":42.24719,"lng":-3.98534},{"id":38114,"name":"Villalmanzo","lat":42.0484,"lng":-3.74195},{"id":38146,"name":"Villamayor de los Montes","lat":42.10565,"lng":-3.76542},{"id":38145,"name":"Villamayor de Treviño","lat":42.46048,"lng":-4.11923},{"id":152357,"name":"Villambistia","lat":42.4047193,"lng":-3.2615058},{"id":38150,"name":"Villamedianilla","lat":42.1607,"lng":-4.14592},{"id":38156,"name":"Villamiel de la Sierra","lat":42.19124,"lng":-3.41771},{"id":38167,"name":"Villangómez","lat":42.17961,"lng":-3.77419},{"id":38172,"name":"Villanueva de Argaño","lat":42.38045,"lng":-3.93353},{"id":38178,"name":"Villanueva de Carazo","lat":41.98275,"lng":-3.32428},{"id":38183,"name":"Villanueva de Gumiel","lat":41.73778,"lng":-3.62658},{"id":38193,"name":"Villanueva de Teba","lat":42.6489,"lng":-3.16313},{"id":38233,"name":"Villaquirán de la Puebla","lat":42.28287,"lng":-4.10037},{"id":38234,"name":"Villaquirán de los Infantes","lat":42.22744,"lng":-4.00864},{"id":152363,"name":"Villarcayo de Merindad de Castilla la Vieja","lat":42.944825,"lng":-3.561026},{"id":38284,"name":"Villariezo","lat":42.26965,"lng":-3.73272},{"id":38312,"name":"Villasandino","lat":42.37072,"lng":-4.10975},{"id":152358,"name":"Villasur de Herreros","lat":42.3077734,"lng":-3.3946472},{"id":38333,"name":"Villatuelda","lat":41.81499,"lng":-3.88054},{"id":38349,"name":"Villaverde del Monte","lat":42.16075,"lng":-3.81421},{"id":38352,"name":"Villaverde-Mogina","lat":42.16041,"lng":-4.05024},{"id":152359,"name":"Villayerno Morquillas","lat":42.3961225,"lng":-3.6398308},{"id":38364,"name":"Villazopeque","lat":42.19845,"lng":-4.01688},{"id":38365,"name":"Villegas","lat":42.46866,"lng":-4.01759},{"id":38374,"name":"Villoruebo","lat":42.16874,"lng":-3.44159},{"id":38384,"name":"Viloria de Rioja","lat":42.42608,"lng":-3.10056},{"id":38386,"name":"Vilviestre del Pinar","lat":41.95033,"lng":-3.07803},{"id":38407,"name":"Vizcaínos","lat":42.10359,"lng":-3.26698},{"id":38448,"name":"Zael","lat":42.10587,"lng":-3.82623},{"id":152360,"name":"Zarzosa de Río Pisuerga","lat":42.5363653,"lng":-4.2683062},{"id":38489,"name":"Zazuar","lat":41.69528,"lng":-3.55451},{"id":38511,"name":"Zuñeda","lat":42.60501,"lng":-3.22632}]