[{"id":152559,"name":"Abarca de Campos","lat":42.0624964,"lng":-4.8413696},{"id":31912,"name":"Abia de las Torres","lat":42.42016,"lng":-4.42131},{"id":31960,"name":"Aguilar de Campoo","lat":42.79452,"lng":-4.25892},{"id":32002,"name":"Alar del Rey","lat":42.66037,"lng":-4.31271},{"id":32010,"name":"Alba de Cerrato","lat":41.81276,"lng":-4.3647},{"id":32349,"name":"Amayuelas de Arriba","lat":42.21108,"lng":-4.4888},{"id":32359,"name":"Ampudia","lat":41.91608,"lng":-4.78033},{"id":32362,"name":"Amusco","lat":42.17306,"lng":-4.47018},{"id":32394,"name":"Antigüedad","lat":41.94681,"lng":-4.12058},{"id":32433,"name":"Arconada","lat":42.32774,"lng":-4.49617},{"id":32541,"name":"Astudillo","lat":42.1933,"lng":-4.29394},{"id":32560,"name":"Autilla del Pino","lat":41.99207,"lng":-4.63393},{"id":32561,"name":"Autillo de Campos","lat":42.08725,"lng":-4.83376},{"id":32578,"name":"Ayuela","lat":42.62618,"lng":-4.65979},{"id":32629,"name":"Baltanás","lat":41.93775,"lng":-4.24656},{"id":32635,"name":"Baquerín de Campos","lat":42.016,"lng":-4.78185},{"id":33052,"name":"Bárcena de Campos","lat":42.48428,"lng":-4.49875},{"id":32682,"name":"Barruelo de Santullán","lat":42.90641,"lng":-4.28593},{"id":33055,"name":"Báscones de Ojeda","lat":42.67064,"lng":-4.52693},{"id":32724,"name":"Becerril de Campos","lat":42.10841,"lng":-4.64152},{"id":32749,"name":"Belmonte de Campos","lat":41.94255,"lng":-4.98659},{"id":32876,"name":"Berzosilla","lat":42.78053,"lng":-4.03753},{"id":32915,"name":"Boada de Campos","lat":41.98957,"lng":-4.8773},{"id":152560,"name":"Boadilla de Rioseco","lat":42.1800006,"lng":-4.9695085},{"id":32916,"name":"Boadilla del Camino","lat":42.25934,"lng":-4.34525},{"id":32973,"name":"Brañosera","lat":42.9362,"lng":-4.30833},{"id":33004,"name":"Buenavista de Valdavia","lat":42.63788,"lng":-4.61446},{"id":33040,"name":"Bustillo de la Vega","lat":42.45605,"lng":-4.74115},{"id":33043,"name":"Bustillo del Páramo de Carrión","lat":42.35509,"lng":-4.7398},{"id":33127,"name":"Calahorra de Boedo","lat":42.57409,"lng":-4.38485},{"id":33159,"name":"Calzada de los Molinos","lat":42.32724,"lng":-4.65293},{"id":33270,"name":"Capillas","lat":42.01362,"lng":-4.89051},{"id":33302,"name":"Cardeñosa de Volpejera","lat":42.23214,"lng":-4.70197},{"id":33332,"name":"Carrión de los Condes","lat":42.3413,"lng":-4.60071},{"id":33445,"name":"Castil de Vela","lat":41.98461,"lng":-4.9592},{"id":33472,"name":"Castrejón de la Peña","lat":42.80795,"lng":-4.59901},{"id":33476,"name":"Castrillo de Don Juan","lat":41.79086,"lng":-4.07031},{"id":33478,"name":"Castrillo de Onielo","lat":41.8582,"lng":-4.30125},{"id":33479,"name":"Castrillo de Villavega","lat":42.45463,"lng":-4.48069},{"id":33500,"name":"Castromocho","lat":42.03104,"lng":-4.82404},{"id":33593,"name":"Cervatos de la Cueza","lat":42.29054,"lng":-4.76947},{"id":33597,"name":"Cervera de Pisuerga","lat":42.86676,"lng":-4.49796},{"id":33612,"name":"Cevico de la Torre","lat":41.85113,"lng":-4.40973},{"id":33611,"name":"Cevico Navero","lat":41.86112,"lng":-4.18498},{"id":33691,"name":"Cisneros","lat":42.22046,"lng":-4.85807},{"id":33711,"name":"Cobos de Cerrato","lat":42.02808,"lng":-4.00251},{"id":33737,"name":"Collazos de Boedo","lat":42.62009,"lng":-4.48294},{"id":33759,"name":"Congosto de Valdavia","lat":42.71584,"lng":-4.63366},{"id":33782,"name":"Cordovilla la Real","lat":42.07961,"lng":-4.25988},{"id":33850,"name":"Cubillas de Cerrato","lat":41.79844,"lng":-4.4672},{"id":33918,"name":"Dehesa de Montejo","lat":42.81939,"lng":-4.51019},{"id":33919,"name":"Dehesa de Romanos","lat":42.63876,"lng":-4.43518},{"id":33959,"name":"Dueñas","lat":41.87717,"lng":-4.54714},{"id":34118,"name":"Espinosa de Cerrato","lat":41.96679,"lng":-3.95346},{"id":34121,"name":"Espinosa de Villagonzalo","lat":42.47949,"lng":-4.37218},{"id":34240,"name":"Frechilla","lat":42.13768,"lng":-4.84112},{"id":34264,"name":"Fresno del Río","lat":42.68176,"lng":-4.81734},{"id":34273,"name":"Frómista","lat":42.26667,"lng":-4.40546},{"id":34347,"name":"Fuentes de Nava","lat":42.08333,"lng":-4.78333},{"id":34351,"name":"Fuentes de Valdepero","lat":42.07532,"lng":-4.5005},{"id":34512,"name":"Grijota","lat":42.05289,"lng":-4.58309},{"id":34536,"name":"Guardo","lat":42.78966,"lng":-4.84823},{"id":34540,"name":"Guaza de Campos","lat":42.13365,"lng":-4.90949},{"id":34721,"name":"Hérmedes de Cerrato","lat":41.81972,"lng":-4.17361},{"id":34595,"name":"Herrera de Pisuerga","lat":42.59492,"lng":-4.33034},{"id":34597,"name":"Herrera de Valdecañas","lat":42.04828,"lng":-4.20004},{"id":34646,"name":"Hontoria de Cerrato","lat":41.91061,"lng":-4.44209},{"id":34662,"name":"Hornillos de Cerrato","lat":41.98772,"lng":-4.27207},{"id":34705,"name":"Husillos","lat":42.09054,"lng":-4.52709},{"id":34770,"name":"Itero de la Vega","lat":42.28804,"lng":-4.25677},{"id":152573,"name":"La Pernía","lat":42.9894927,"lng":-4.5005808},{"id":152563,"name":"La Puebla de Valdavia","lat":42.6794497,"lng":-4.5882392},{"id":152564,"name":"La Serna","lat":42.4161526,"lng":-4.6640878},{"id":152561,"name":"La Vid de Ojeda","lat":42.6599195,"lng":-4.3854241},{"id":34940,"name":"Lagartos","lat":42.40578,"lng":-4.90454},{"id":34968,"name":"Lantadilla","lat":42.34078,"lng":-4.27866},{"id":35018,"name":"Ledigos","lat":42.3548,"lng":-4.8648},{"id":152572,"name":"Loma de Ucieza","lat":42.4697734,"lng":-4.5727598},{"id":35103,"name":"Lomas","lat":42.27362,"lng":-4.55095},{"id":152562,"name":"Magaz de Pisuerga","lat":41.9826254,"lng":-4.427561},{"id":35255,"name":"Manquillos","lat":42.20518,"lng":-4.56841},{"id":35260,"name":"Mantinos","lat":42.75259,"lng":-4.84213},{"id":35287,"name":"Marcilla de Campos","lat":42.3177,"lng":-4.3967},{"id":35355,"name":"Mazariegos","lat":42.02691,"lng":-4.71542},{"id":35359,"name":"Mazuecos de Valdeginate","lat":42.16814,"lng":-4.84059},{"id":35389,"name":"Melgar de Yuso","lat":42.25381,"lng":-4.25394},{"id":35402,"name":"Meneses de Campos","lat":41.94142,"lng":-4.91927},{"id":35419,"name":"Micieces de Ojeda","lat":42.69078,"lng":-4.46166},{"id":35591,"name":"Monzón de Campos","lat":42.11604,"lng":-4.49283},{"id":35620,"name":"Moratinos","lat":42.36191,"lng":-4.92831},{"id":35654,"name":"Mudá","lat":42.8753,"lng":-4.39426},{"id":35815,"name":"Nogal de las Huertas","lat":42.39255,"lng":-4.64156},{"id":35875,"name":"Olea de Boedo","lat":42.6099,"lng":-4.4504},{"id":35906,"name":"Olmos de Ojeda","lat":42.72274,"lng":-4.42446},{"id":35972,"name":"Osornillo","lat":42.37047,"lng":-4.29153},{"id":152570,"name":"Osorno la Mayor","lat":42.369478,"lng":-4.3770704},{"id":36022,"name":"Palencia","lat":42.00955,"lng":-4.52406},{"id":36025,"name":"Palenzuela","lat":42.09518,"lng":-4.13039},{"id":36482,"name":"Páramo de Boedo","lat":42.57842,"lng":-4.40042},{"id":36066,"name":"Paredes de Nava","lat":42.15367,"lng":-4.69193},{"id":36086,"name":"Payo de Ojeda","lat":42.71859,"lng":-4.47752},{"id":36094,"name":"Pedraza de Campos","lat":41.98419,"lng":-4.73524},{"id":36105,"name":"Pedrosa de la Vega","lat":42.48159,"lng":-4.74678},{"id":36138,"name":"Perales","lat":42.19398,"lng":-4.58105},{"id":36227,"name":"Piña de Campos","lat":42.21326,"lng":-4.43657},{"id":36209,"name":"Pino del Río","lat":42.64504,"lng":-4.80795},{"id":36247,"name":"Población de Arroyo","lat":42.33675,"lng":-4.87398},{"id":36248,"name":"Población de Campos","lat":42.26994,"lng":-4.44744},{"id":36249,"name":"Población de Cerrato","lat":41.79298,"lng":-4.42874},{"id":36258,"name":"Polentinos","lat":42.93932,"lng":-4.52887},{"id":36268,"name":"Pomar de Valdivia","lat":42.77437,"lng":-4.16756},{"id":36312,"name":"Poza de la Vega","lat":42.57823,"lng":-4.79845},{"id":36319,"name":"Pozo de Urama","lat":42.25438,"lng":-4.89389},{"id":36403,"name":"Prádanos de Ojeda","lat":42.68156,"lng":-4.34659},{"id":36506,"name":"Quintana del Puente","lat":42.08471,"lng":-4.20649},{"id":36518,"name":"Quintanilla de Onsoña","lat":42.46937,"lng":-4.66385},{"id":36570,"name":"Reinoso de Cerrato","lat":41.97624,"lng":-4.38337},{"id":36577,"name":"Renedo de la Vega","lat":42.45348,"lng":-4.70298},{"id":36582,"name":"Requena de Campos","lat":42.30796,"lng":-4.34304},{"id":36583,"name":"Respenda de la Peña","lat":42.76512,"lng":-4.6854},{"id":36594,"name":"Revenga de Campos","lat":42.28401,"lng":-4.48218},{"id":36595,"name":"Revilla de Collazos","lat":42.6296,"lng":-4.50343},{"id":36612,"name":"Ribas de Campos","lat":42.15249,"lng":-4.51649},{"id":36616,"name":"Riberos de la Cueza","lat":42.27881,"lng":-4.72503},{"id":36754,"name":"Saldaña","lat":42.52146,"lng":-4.73605},{"id":36765,"name":"Salinas de Pisuerga","lat":42.85046,"lng":-4.37783},{"id":36814,"name":"San Cebrián de Campos","lat":42.20063,"lng":-4.53127},{"id":36817,"name":"San Cebrián de Mudá","lat":42.89261,"lng":-4.38719},{"id":36819,"name":"San Cristóbal de Boedo","lat":42.54194,"lng":-4.35325},{"id":36862,"name":"San Mamés de Campos","lat":42.35512,"lng":-4.56565},{"id":36918,"name":"San Román de la Cuba","lat":42.26257,"lng":-4.85724},{"id":37011,"name":"Santa Cecilia del Alcor","lat":41.93227,"lng":-4.65546},{"id":37028,"name":"Santa Cruz de Boedo","lat":42.52531,"lng":-4.37398},{"id":37111,"name":"Santervás de la Vega","lat":42.50677,"lng":-4.80002},{"id":37121,"name":"Santibáñez de Ecla","lat":42.70784,"lng":-4.37263},{"id":37125,"name":"Santibáñez de la Peña","lat":42.80929,"lng":-4.73026},{"id":37149,"name":"Santoyo","lat":42.21473,"lng":-4.34296},{"id":37317,"name":"Soto de Cerrato","lat":41.95312,"lng":-4.42998},{"id":37321,"name":"Sotobañado y Priorato","lat":42.58987,"lng":-4.44185},{"id":37339,"name":"Tabanera de Cerrato","lat":42.02469,"lng":-4.12361},{"id":37340,"name":"Tabanera de Valdavia","lat":42.64728,"lng":-4.69414},{"id":152565,"name":"Támara de Campos","lat":42.2034861,"lng":-4.3931363},{"id":152566,"name":"Tariego de Cerrato","lat":41.9036807,"lng":-4.4819074},{"id":37477,"name":"Torquemada","lat":42.0349,"lng":-4.31841},{"id":37563,"name":"Torremormojón","lat":41.96018,"lng":-4.77765},{"id":37641,"name":"Triollo","lat":42.92456,"lng":-4.6813},{"id":37724,"name":"Valbuena de Pisuerga","lat":42.14584,"lng":-4.2401},{"id":152567,"name":"Valde-Ucieza","lat":42.3913078,"lng":-4.5727598},{"id":37780,"name":"Valdeolmillos","lat":42.04123,"lng":-4.40015},{"id":37798,"name":"Valderrábano","lat":42.60674,"lng":-4.65584},{"id":37844,"name":"Valle de Cerrato","lat":41.88045,"lng":-4.36243},{"id":152571,"name":"Valle del Retortillo","lat":42.2350207,"lng":-4.7898731},{"id":37933,"name":"Velilla del Río Carrión","lat":42.82611,"lng":-4.84626},{"id":37937,"name":"Venta de Baños","lat":41.9211,"lng":-4.49089},{"id":37954,"name":"Vertavillo","lat":41.83281,"lng":-4.32707},{"id":152568,"name":"Villabasta de Valdavia","lat":42.5607461,"lng":-4.6026287},{"id":38030,"name":"Villacidaler","lat":42.22168,"lng":-4.97668},{"id":38033,"name":"Villaconancio","lat":41.87174,"lng":-4.22379},{"id":38036,"name":"Villada","lat":42.25111,"lng":-4.96708},{"id":38043,"name":"Villaeles de Valdavia","lat":42.56556,"lng":-4.58318},{"id":38087,"name":"Villahán","lat":42.05031,"lng":-4.13104},{"id":38085,"name":"Villaherreros","lat":42.38964,"lng":-4.46254},{"id":38089,"name":"Villalaco","lat":42.15569,"lng":-4.2594},{"id":38093,"name":"Villalba de Guardo","lat":42.72229,"lng":-4.82328},{"id":38109,"name":"Villalcázar de Sirga","lat":42.31662,"lng":-4.54278},{"id":38110,"name":"Villalcón","lat":42.29287,"lng":-4.85527},{"id":38117,"name":"Villalobón","lat":42.03037,"lng":-4.5034},{"id":38123,"name":"Villaluenga de la Vega","lat":42.52386,"lng":-4.76489},{"id":38137,"name":"Villamartín de Campos","lat":42.01598,"lng":-4.66414},{"id":38148,"name":"Villamediana","lat":42.05024,"lng":-4.36115},{"id":38152,"name":"Villameriel","lat":42.52822,"lng":-4.47572},{"id":38162,"name":"Villamoronta","lat":42.40337,"lng":-4.69899},{"id":38164,"name":"Villamuera de la Cueza","lat":42.25843,"lng":-4.6886},{"id":38166,"name":"Villamuriel de Cerrato","lat":41.94935,"lng":-4.51584},{"id":38220,"name":"Villanueva del Rebollar","lat":42.24114,"lng":-4.74288},{"id":38225,"name":"Villanuño de Valdavia","lat":42.50775,"lng":-4.51887},{"id":38230,"name":"Villaprovedo","lat":42.51674,"lng":-4.39645},{"id":38288,"name":"Villarmentero de Campos","lat":42.29777,"lng":-4.49992},{"id":38292,"name":"Villarrabé","lat":42.4209,"lng":-4.78445},{"id":38293,"name":"Villarramiel","lat":42.04301,"lng":-4.91215},{"id":38313,"name":"Villasarracino","lat":42.41207,"lng":-4.49633},{"id":38327,"name":"Villasila de Valdavia","lat":42.53192,"lng":-4.55884},{"id":38335,"name":"Villaturde","lat":42.37769,"lng":-4.67085},{"id":38337,"name":"Villaumbrales","lat":42.08873,"lng":-4.61384},{"id":38361,"name":"Villaviudas","lat":41.96227,"lng":-4.342},{"id":152569,"name":"Villerías de Campos","lat":41.9441612,"lng":-4.856601},{"id":38370,"name":"Villodre","lat":42.21161,"lng":-4.24484},{"id":38371,"name":"Villodrigo","lat":42.14436,"lng":-4.09527},{"id":38372,"name":"Villoldo","lat":42.24782,"lng":-4.59592},{"id":38378,"name":"Villota del Páramo","lat":42.55234,"lng":-4.84893},{"id":38379,"name":"Villovieco","lat":42.29478,"lng":-4.48122}]