[{"id":31985,"name":"Ajalvir","lat":40.53205,"lng":-3.47841},{"id":31995,"name":"Alameda del Valle","lat":40.9187,"lng":-3.84243},{"id":32072,"name":"Alcalá de Henares","lat":40.48205,"lng":-3.35996},{"id":32097,"name":"Alcobendas","lat":40.54746,"lng":-3.64197},{"id":32119,"name":"Alcorcón","lat":40.34582,"lng":-3.82487},{"id":32144,"name":"Aldea del Fresno","lat":40.3236,"lng":-4.20319},{"id":32219,"name":"Algete","lat":40.59711,"lng":-3.49743},{"id":32327,"name":"Alpedrete","lat":40.65889,"lng":-4.02512},{"id":32351,"name":"Ambite","lat":40.3319,"lng":-3.18034},{"id":32368,"name":"Anchuelo","lat":40.46527,"lng":-3.26838},{"id":32412,"name":"Aranjuez","lat":40.03108,"lng":-3.60246},{"id":32462,"name":"Arganda","lat":40.30076,"lng":-3.43722},{"id":152810,"name":"Arganda del Rey","lat":40.3064308,"lng":-3.4471715},{"id":32464,"name":"Arganzuela","lat":40.40021,"lng":-3.69618},{"id":32513,"name":"Arroyomolinos","lat":40.26951,"lng":-3.91946},{"id":32636,"name":"Barajas de Madrid","lat":40.47366,"lng":-3.57777},{"id":32695,"name":"Batres","lat":40.20981,"lng":-3.92331},{"id":32725,"name":"Becerril de la Sierra","lat":40.71699,"lng":-3.98858},{"id":32750,"name":"Belmonte de Tajo","lat":40.13162,"lng":-3.3358},{"id":32875,"name":"Berzosa del Lozoya","lat":40.9732,"lng":-3.52009},{"id":32917,"name":"Boadilla del Monte","lat":40.405,"lng":-3.87835},{"id":32918,"name":"Boalo","lat":40.71603,"lng":-3.91656},{"id":32969,"name":"Braojos","lat":41.0404,"lng":-3.64329},{"id":32975,"name":"Brea de Tajo","lat":40.23333,"lng":-3.1},{"id":32994,"name":"Brunete","lat":40.40532,"lng":-3.9985},{"id":33013,"name":"Buitrago del Lozoya","lat":40.9909,"lng":-3.63365},{"id":33038,"name":"Bustarviejo","lat":40.8572,"lng":-3.70766},{"id":33068,"name":"Cabanillas de la Sierra","lat":40.82009,"lng":-3.62438},{"id":33115,"name":"Cadalso de los Vidrios","lat":40.30067,"lng":-4.43348},{"id":33170,"name":"Camarma de Esteruelas","lat":40.55032,"lng":-3.37295},{"id":33201,"name":"Campo Real","lat":40.33333,"lng":-3.38333},{"id":33232,"name":"Canencia","lat":40.90728,"lng":-3.73523},{"id":33274,"name":"Carabaña","lat":40.25424,"lng":-3.23572},{"id":33272,"name":"Carabanchel","lat":40.39094,"lng":-3.7242},{"id":33354,"name":"Casarrubuelos","lat":40.17146,"lng":-3.83105},{"id":33570,"name":"Cenicientos","lat":40.26459,"lng":-4.46683},{"id":33579,"name":"Cercedilla","lat":40.74101,"lng":-4.05644},{"id":33596,"name":"Cervera de Buitrago","lat":40.91988,"lng":-3.52702},{"id":33616,"name":"Chamberí","lat":40.43404,"lng":-3.70379},{"id":33618,"name":"Chapinería","lat":40.37891,"lng":-4.21009},{"id":33640,"name":"Chinchón","lat":40.1402,"lng":-3.42267},{"id":33658,"name":"Ciempozuelos","lat":40.15913,"lng":-3.62103},{"id":33695,"name":"City Center","lat":40.41831,"lng":-3.70275},{"id":33696,"name":"Ciudad Lineal","lat":40.44505,"lng":-3.65132},{"id":33709,"name":"Cobeña","lat":40.56667,"lng":-3.5},{"id":33733,"name":"Collado Mediano","lat":40.69326,"lng":-4.0228},{"id":152815,"name":"Collado Villalba","lat":40.6308675,"lng":-4.0054458},{"id":33744,"name":"Colmenar de Oreja","lat":40.10675,"lng":-3.38547},{"id":33745,"name":"Colmenar del Arroyo","lat":40.41897,"lng":-4.19845},{"id":33742,"name":"Colmenar Viejo","lat":40.65909,"lng":-3.76762},{"id":33746,"name":"Colmenarejo","lat":40.56063,"lng":-4.01713},{"id":33796,"name":"Corpa","lat":40.42327,"lng":-3.26003},{"id":33817,"name":"Coslada","lat":40.42378,"lng":-3.56129},{"id":33845,"name":"Cubas","lat":40.189,"lng":-3.83526},{"id":152816,"name":"Cubas de la Sagra","lat":40.1910568,"lng":-3.8372005},{"id":33908,"name":"Daganzo de Arriba","lat":40.54293,"lng":-3.45457},{"id":34029,"name":"El Álamo","lat":40.23066,"lng":-3.99447},{"id":152809,"name":"El Álamo","lat":40.2312091,"lng":-3.9942211},{"id":152811,"name":"El Atazar","lat":40.9340533,"lng":-3.4709797},{"id":152812,"name":"El Berrueco","lat":40.8893089,"lng":-3.5629234},{"id":152813,"name":"El Boalo","lat":40.7198031,"lng":-3.9196432},{"id":152817,"name":"El Escorial","lat":40.5842657,"lng":-4.1280468},{"id":33997,"name":"El Escorial","lat":40.58254,"lng":-4.12846},{"id":34002,"name":"El Molar","lat":40.73215,"lng":-3.57969},{"id":152824,"name":"El Molar","lat":40.7351603,"lng":-3.5825347},{"id":34003,"name":"El Pardo","lat":40.51454,"lng":-3.77253},{"id":34024,"name":"El Vellón","lat":40.76495,"lng":-3.57969},{"id":152839,"name":"El Vellón","lat":40.7674389,"lng":-3.581902},{"id":34147,"name":"Estremera","lat":40.18333,"lng":-3.1},{"id":34249,"name":"Fresnedillas","lat":40.48704,"lng":-4.17146},{"id":152818,"name":"Fresnedillas de la Oliva","lat":40.4864017,"lng":-4.1722255},{"id":34259,"name":"Fresno de Torote","lat":40.5904,"lng":-3.41003},{"id":34277,"name":"Fuencarral-El Pardo","lat":40.4984,"lng":-3.7314},{"id":34283,"name":"Fuenlabrada","lat":40.28419,"lng":-3.79415},{"id":34302,"name":"Fuente el Saz","lat":40.63215,"lng":-3.51146},{"id":152819,"name":"Fuente el Saz de Jarama","lat":40.6352139,"lng":-3.5107894},{"id":34361,"name":"Fuentidueña de Tajo","lat":40.11574,"lng":-3.15718},{"id":34373,"name":"Galapagar","lat":40.5783,"lng":-4.00426},{"id":34415,"name":"Garganta de los Montes","lat":40.91992,"lng":-3.68375},{"id":152820,"name":"Gargantilla del Lozoya y Pinilla de Buitrago","lat":40.9648298,"lng":-3.7079745},{"id":34430,"name":"Gascones","lat":41.01843,"lng":-3.64217},{"id":34459,"name":"Getafe","lat":40.30571,"lng":-3.73295},{"id":34516,"name":"Griñón","lat":40.21249,"lng":-3.85482},{"id":34524,"name":"Guadalix de la Sierra","lat":40.78496,"lng":-3.69347},{"id":34528,"name":"Guadarrama","lat":40.6727,"lng":-4.08949},{"id":34652,"name":"Horcajo de la Sierra","lat":41.06723,"lng":-3.58534},{"id":152822,"name":"Horcajo de la Sierra-Aoslos","lat":41.0672334,"lng":-3.5854235},{"id":34654,"name":"Horcajuelo de la Sierra","lat":41.06019,"lng":-3.5464},{"id":34667,"name":"Hortaleza","lat":40.47444,"lng":-3.6411},{"id":34674,"name":"Hoyo de Manzanares","lat":40.62265,"lng":-3.90733},{"id":34701,"name":"Humanes de Madrid","lat":40.25038,"lng":-3.83062},{"id":152808,"name":"La Acebeda","lat":41.0863791,"lng":-3.623849},{"id":152814,"name":"La Cabrera","lat":40.8655887,"lng":-3.6154482},{"id":34860,"name":"La Cabrera","lat":40.86386,"lng":-3.61265},{"id":152821,"name":"La Hiruela","lat":41.0774848,"lng":-3.4551989},{"id":152834,"name":"La Serna del Monte","lat":41.0307464,"lng":-3.6252632},{"id":34985,"name":"Las Matas","lat":40.55779,"lng":-3.89173},{"id":34991,"name":"Las Rozas de Madrid","lat":40.49292,"lng":-3.87371},{"id":152832,"name":"Las Rozas de Madrid","lat":40.4953138,"lng":-3.8784732},{"id":34992,"name":"Las Tablas","lat":40.50649,"lng":-3.67235},{"id":35002,"name":"Latina","lat":40.38897,"lng":-3.74569},{"id":35021,"name":"Leganés","lat":40.32718,"lng":-3.7635},{"id":35099,"name":"Loeches","lat":40.38343,"lng":-3.4146},{"id":35127,"name":"Los Molinos","lat":40.71578,"lng":-4.07402},{"id":35134,"name":"Los Santos de la Humosa","lat":40.49968,"lng":-3.25332},{"id":35145,"name":"Lozoya","lat":40.94949,"lng":-3.79086},{"id":152840,"name":"Lozoyuela-Navas-Sieteiglesias","lat":40.9270441,"lng":-3.6183504},{"id":152823,"name":"Madarcos","lat":40.4620994,"lng":-3.6515256},{"id":35186,"name":"Madrid","lat":40.4165,"lng":-3.70256},{"id":35214,"name":"Majadahonda","lat":40.47353,"lng":-3.87182},{"id":35267,"name":"Manzanares el Real","lat":40.72627,"lng":-3.86265},{"id":35366,"name":"Meco","lat":40.55274,"lng":-3.32894},{"id":35384,"name":"Mejorada del Campo","lat":40.39283,"lng":-3.48194},{"id":35442,"name":"Miraflores de la Sierra","lat":40.8155,"lng":-3.76213},{"id":152825,"name":"Molinos Los","lat":40.7194197,"lng":-4.0951038},{"id":35501,"name":"Moncloa-Aravaca","lat":40.43547,"lng":-3.7317},{"id":35555,"name":"Montejo de la Sierra","lat":41.05955,"lng":-3.52993},{"id":35602,"name":"Moraleja de Enmedio","lat":40.26125,"lng":-3.85963},{"id":35612,"name":"Moralzarzal","lat":40.67816,"lng":-3.9707},{"id":35616,"name":"Morata de Tajuña","lat":40.2268,"lng":-3.43269},{"id":35617,"name":"Moratalaz","lat":40.40742,"lng":-3.64935},{"id":35708,"name":"Móstoles","lat":40.32234,"lng":-3.86496},{"id":35731,"name":"Navacerrada","lat":40.72905,"lng":-4.01696},{"id":35742,"name":"Navalafuente","lat":40.82063,"lng":-3.67266},{"id":35743,"name":"Navalagamella","lat":40.46894,"lng":-4.12334},{"id":35744,"name":"Navalcarnero","lat":40.28908,"lng":-4.01197},{"id":35758,"name":"Navalquejigo","lat":40.60705,"lng":-4.04966},{"id":152826,"name":"Navarredonda y San Mamés","lat":40.9906493,"lng":-3.7260317},{"id":35783,"name":"Navas del Rey","lat":40.3861,"lng":-4.25117},{"id":35835,"name":"Nuevo Baztán","lat":40.36731,"lng":-3.24125},{"id":152827,"name":"Olmeda de las Fuentes","lat":40.3693459,"lng":-3.2212883},{"id":152828,"name":"Orusco de Tajuña","lat":40.2861,"lng":-3.2114207},{"id":36053,"name":"Paracuellos de Jarama","lat":40.50353,"lng":-3.52775},{"id":36070,"name":"Parla","lat":40.23604,"lng":-3.76752},{"id":36082,"name":"Patones","lat":40.85563,"lng":-3.4849},{"id":36097,"name":"Pedrezuela","lat":40.74277,"lng":-3.5998},{"id":36122,"name":"Pelayos de la Presa","lat":40.36051,"lng":-4.33462},{"id":36139,"name":"Perales de Tajuña","lat":40.2313,"lng":-3.35021},{"id":36160,"name":"Pezuela de las Torres","lat":40.41613,"lng":-3.17363},{"id":36192,"name":"Pinar de Chamartín","lat":40.47903,"lng":-3.66836},{"id":36207,"name":"Pinilla del Valle","lat":40.92448,"lng":-3.81688},{"id":36215,"name":"Pinto","lat":40.24147,"lng":-3.69999},{"id":152829,"name":"Piñuécar-Gandullas","lat":41.0126127,"lng":-3.6012042},{"id":36331,"name":"Pozuelo de Alarcón","lat":40.43293,"lng":-3.81338},{"id":36338,"name":"Pozuelo del Rey","lat":40.36463,"lng":-3.31699},{"id":36406,"name":"Prádena del Rincón","lat":41.04414,"lng":-3.54075},{"id":36379,"name":"Provincia de Madrid","lat":40.40225,"lng":-3.71029},{"id":152830,"name":"Puebla de la Sierra","lat":41.0117046,"lng":-3.4451018},{"id":36437,"name":"Puente de Vallecas","lat":40.39354,"lng":-3.662},{"id":152841,"name":"Puentes Viejas","lat":40.964983,"lng":-3.583199},{"id":36500,"name":"Quijorna","lat":40.42763,"lng":-4.05683},{"id":36547,"name":"Rascafría","lat":40.90407,"lng":-3.87898},{"id":36563,"name":"Redueña","lat":40.81685,"lng":-3.59837},{"id":36587,"name":"Retiro","lat":40.41317,"lng":-3.68307},{"id":36613,"name":"Ribatejada","lat":40.6642,"lng":-3.38976},{"id":36639,"name":"Rivas-Vaciamadrid","lat":40.32605,"lng":-3.51089},{"id":36651,"name":"Robledillo de la Jara","lat":40.95054,"lng":-3.52181},{"id":36654,"name":"Robledo de Chavela","lat":40.50062,"lng":-4.23635},{"id":152831,"name":"Robregordo","lat":41.10675,"lng":-3.5934508},{"id":36686,"name":"Rozas de Puerto Real","lat":40.31667,"lng":-4.48333},{"id":36799,"name":"San Agustín del Guadalix","lat":40.67882,"lng":-3.61639},{"id":36812,"name":"San Blas-Canillejas","lat":40.43893,"lng":-3.61537},{"id":36836,"name":"San Fernando de Henares","lat":40.42386,"lng":-3.53261},{"id":36858,"name":"San Lorenzo de El Escorial","lat":40.59144,"lng":-4.14738},{"id":36873,"name":"San Martín de la Vega","lat":40.20735,"lng":-3.57063},{"id":36870,"name":"San Martín de Valdeiglesias","lat":40.36185,"lng":-4.39831},{"id":36922,"name":"San Sebastián de los Reyes","lat":40.55555,"lng":-3.62733},{"id":37079,"name":"Santa María de la Alameda","lat":40.59492,"lng":-4.25772},{"id":37146,"name":"Santorcaz","lat":40.47176,"lng":-3.23462},{"id":152833,"name":"Santos de la Humosa Los","lat":40.5012941,"lng":-3.2571054},{"id":37225,"name":"Serranillos del Valle","lat":40.20211,"lng":-3.88187},{"id":37240,"name":"Sevilla La Nueva","lat":40.34775,"lng":-4.02727},{"id":152835,"name":"Somosierra","lat":41.1352503,"lng":-3.5711466},{"id":152836,"name":"Soto del Real","lat":40.7543795,"lng":-3.7832172},{"id":37354,"name":"Talamanca de Jarama","lat":40.74325,"lng":-3.50889},{"id":37417,"name":"Tetuán de las Victorias","lat":40.45975,"lng":-3.6975},{"id":37422,"name":"Tielmes","lat":40.24652,"lng":-3.31461},{"id":37431,"name":"Titulcia","lat":40.13537,"lng":-3.56763},{"id":37538,"name":"Torrejón de Ardoz","lat":40.45535,"lng":-3.46973},{"id":37540,"name":"Torrejón de la Calzada","lat":40.19886,"lng":-3.797},{"id":37539,"name":"Torrejón de Velasco","lat":40.18746,"lng":-3.77681},{"id":37543,"name":"Torrelaguna","lat":40.82764,"lng":-3.53683},{"id":37551,"name":"Torrelodones","lat":40.57654,"lng":-3.92658},{"id":37557,"name":"Torremocha de Jarama","lat":40.84148,"lng":-3.49666},{"id":37577,"name":"Torres de la Alameda","lat":40.40264,"lng":-3.35767},{"id":37629,"name":"Tres Cantos","lat":40.60092,"lng":-3.70806},{"id":37705,"name":"Usera","lat":40.38866,"lng":-3.70035},{"id":37726,"name":"Valdaracete","lat":40.2077,"lng":-3.19101},{"id":37735,"name":"Valdeavero","lat":40.6298,"lng":-3.33001},{"id":152837,"name":"Valdelaguna","lat":40.1616853,"lng":-3.3678641},{"id":37765,"name":"Valdemanco","lat":40.87039,"lng":-3.65873},{"id":37767,"name":"Valdemaqueda","lat":40.51201,"lng":-4.29722},{"id":37772,"name":"Valdemorillo","lat":40.50064,"lng":-4.0671},{"id":37774,"name":"Valdemoro","lat":40.19081,"lng":-3.67887},{"id":37781,"name":"Valdeolmos","lat":40.63708,"lng":-3.45064},{"id":152838,"name":"Valdeolmos-Alalpardo","lat":40.6385042,"lng":-3.4531644},{"id":37786,"name":"Valdepiélagos","lat":40.75842,"lng":-3.46163},{"id":37804,"name":"Valdetorres de Jarama","lat":40.69366,"lng":-3.51156},{"id":37810,"name":"Valdilecha","lat":40.2953,"lng":-3.30233},{"id":37882,"name":"Valverde de Alcalá","lat":40.41667,"lng":-3.29631},{"id":37931,"name":"Velilla de San Antonio","lat":40.36516,"lng":-3.48484},{"id":37946,"name":"Venturada","lat":40.79717,"lng":-3.61974},{"id":37963,"name":"Vicálvaro","lat":40.4,"lng":-3.6},{"id":38009,"name":"Villa de Vallecas","lat":40.36695,"lng":-3.60146},{"id":38012,"name":"Villa del Prado","lat":40.27852,"lng":-4.30534},{"id":38034,"name":"Villaconejos","lat":40.10139,"lng":-3.48258},{"id":38105,"name":"Villalbilla","lat":40.43044,"lng":-3.29904},{"id":38131,"name":"Villamanrique de Tajo","lat":40.06617,"lng":-3.23668},{"id":38133,"name":"Villamanta","lat":40.29858,"lng":-4.1088},{"id":38134,"name":"Villamantilla","lat":40.33846,"lng":-4.12986},{"id":38196,"name":"Villanueva de la Cañada","lat":40.44689,"lng":-4.00428},{"id":38187,"name":"Villanueva de Perales","lat":40.34541,"lng":-4.09891},{"id":38219,"name":"Villanueva del Pardillo","lat":40.49014,"lng":-3.96383},{"id":38257,"name":"Villar del Olmo","lat":40.33468,"lng":-3.23399},{"id":38273,"name":"Villarejo de Salvanés","lat":40.16663,"lng":-3.27277},{"id":38343,"name":"Villaverde","lat":40.35,"lng":-3.7},{"id":38357,"name":"Villaviciosa de Odón","lat":40.3581,"lng":-3.9043},{"id":38360,"name":"Villavieja del Lozoya","lat":41.00396,"lng":-3.6687},{"id":38482,"name":"Zarzalejo","lat":40.54811,"lng":-4.18176}]