[{"id":152842,"name":"Alfoz de Lloredo","lat":43.378583,"lng":-4.1820961},{"id":32360,"name":"Ampuero","lat":43.34268,"lng":-3.41667},{"id":152843,"name":"Anievas","lat":43.1921536,"lng":-3.9980485},{"id":32445,"name":"Arenas de Iguña","lat":43.18293,"lng":-4.04729},{"id":32472,"name":"Argoños","lat":43.4574,"lng":-3.49013},{"id":32495,"name":"Arnuero","lat":43.47756,"lng":-3.56959},{"id":32505,"name":"Arredondo","lat":43.27325,"lng":-3.60031},{"id":33053,"name":"Bárcena de Cicero","lat":43.4216,"lng":-3.5103},{"id":33054,"name":"Bárcena de Pie de Concha","lat":43.1258,"lng":-4.05662},{"id":32661,"name":"Bareyo","lat":43.46686,"lng":-3.60083},{"id":33094,"name":"Cabezón de la Sal","lat":43.30824,"lng":-4.23571},{"id":33092,"name":"Cabezón de Liébana","lat":43.13437,"lng":-4.5763},{"id":152845,"name":"Cabuérniga","lat":43.2196884,"lng":-4.3051542},{"id":152846,"name":"Camaleño","lat":43.151194,"lng":-4.6937268},{"id":33167,"name":"Camargo","lat":43.40744,"lng":-3.88498},{"id":152852,"name":"Campoo de Enmedio","lat":42.9948045,"lng":-4.100217},{"id":152847,"name":"Campoo de Yuso","lat":43.0160479,"lng":-4.0050784},{"id":33340,"name":"Cartes","lat":43.32596,"lng":-4.06893},{"id":152848,"name":"Castañeda","lat":43.3101611,"lng":-3.9368439},{"id":33492,"name":"Castro-Urdiales","lat":43.38285,"lng":-3.22043},{"id":152849,"name":"Cillorigo de Liébana","lat":43.2076661,"lng":-4.6140481},{"id":33728,"name":"Colindres","lat":43.39667,"lng":-3.45361},{"id":33753,"name":"Comillas","lat":43.38603,"lng":-4.29162},{"id":152850,"name":"Corrales de Buelna Los","lat":43.2597761,"lng":-4.0669902},{"id":152851,"name":"Corvera de Toranzo","lat":43.2129031,"lng":-3.9572374},{"id":33978,"name":"El Astillero","lat":43.40094,"lng":-3.82051},{"id":152844,"name":"El Astillero","lat":43.3983734,"lng":-3.822281},{"id":152853,"name":"Entrambasaguas","lat":43.3756036,"lng":-3.6767129},{"id":34076,"name":"Escalante","lat":43.43678,"lng":-3.51347},{"id":152854,"name":"Guriezo","lat":43.3393676,"lng":-3.318747},{"id":34575,"name":"Hazas de Cesto","lat":43.39653,"lng":-3.58916},{"id":152855,"name":"Hermandad de Campoo de Suso","lat":43.0377122,"lng":-4.2538452},{"id":152856,"name":"Herrerías","lat":43.3099039,"lng":-4.4696765},{"id":152857,"name":"Lamasón","lat":43.2218393,"lng":-4.5005808},{"id":34976,"name":"Laredo","lat":43.4098,"lng":-3.41613},{"id":152874,"name":"Las Rozas de Valdearroyo","lat":42.9723512,"lng":-4.0318696},{"id":152858,"name":"Liendo","lat":43.3976648,"lng":-3.3751098},{"id":152859,"name":"Liérganes","lat":43.3429642,"lng":-3.744658},{"id":35051,"name":"Limpias","lat":43.36402,"lng":-3.41778},{"id":35120,"name":"Los Corrales de Buelna","lat":43.26358,"lng":-4.07262},{"id":152860,"name":"Luena","lat":43.0988854,"lng":-3.8960811},{"id":35172,"name":"Luzmela","lat":43.29685,"lng":-4.20884},{"id":152861,"name":"Marina de Cudeyo","lat":43.413341,"lng":-3.7333537},{"id":35337,"name":"Mataporquera","lat":42.87486,"lng":-4.16276},{"id":152862,"name":"Mazcuerras","lat":43.2975057,"lng":-4.2099848},{"id":152863,"name":"Medio Cudeyo","lat":43.3861436,"lng":-3.7433497},{"id":152864,"name":"Meruelo","lat":43.4371294,"lng":-3.5913939},{"id":35421,"name":"Miengo","lat":43.42861,"lng":-3.99866},{"id":152865,"name":"Miera","lat":43.2790287,"lng":-3.7130493},{"id":35485,"name":"Molledo","lat":43.14974,"lng":-4.04239},{"id":35820,"name":"Noja","lat":43.48917,"lng":-3.52306},{"id":36127,"name":"Penagos","lat":43.35216,"lng":-3.81382},{"id":152866,"name":"Peñarrubia","lat":43.2571893,"lng":-4.5830789},{"id":152867,"name":"Pesaguero","lat":43.0761575,"lng":-4.5436158},{"id":36155,"name":"Pesquera","lat":43.08223,"lng":-4.07932},{"id":152868,"name":"Piélagos","lat":43.3872719,"lng":-3.9368439},{"id":152869,"name":"Polaciones","lat":43.1090044,"lng":-4.4182089},{"id":36257,"name":"Polanco","lat":43.38524,"lng":-4.01642},{"id":36304,"name":"Potes","lat":43.15457,"lng":-4.62055},{"id":36365,"name":"Provincia de Cantabria","lat":43.16667,"lng":-4.0},{"id":36434,"name":"Puente Viesgo","lat":43.29815,"lng":-3.96817},{"id":36544,"name":"Ramales de la Victoria","lat":43.2572,"lng":-3.46516},{"id":36548,"name":"Rasines","lat":43.30505,"lng":-3.42919},{"id":36568,"name":"Reinosa","lat":42.99959,"lng":-4.13801},{"id":36580,"name":"Reocín","lat":43.33915,"lng":-4.09403},{"id":152870,"name":"Ribamontán al Mar","lat":43.4531529,"lng":-3.6927531},{"id":152871,"name":"Ribamontán al Monte","lat":43.4066501,"lng":-3.642048},{"id":152872,"name":"Rionansa","lat":43.2250451,"lng":-4.4182089},{"id":152873,"name":"Riotuerto","lat":43.3375741,"lng":-3.6927531},{"id":36699,"name":"Ruente","lat":43.25826,"lng":-4.26791},{"id":152875,"name":"Ruiloba","lat":43.3750124,"lng":-4.2586489},{"id":152876,"name":"San Felices de Buelna","lat":43.2680105,"lng":-4.0388918},{"id":36864,"name":"San Martín de Elines","lat":42.82864,"lng":-3.86865},{"id":36880,"name":"San Miguel de Aguayo","lat":43.05383,"lng":-4.0255},{"id":36882,"name":"San Miguel de Meruelo","lat":43.46211,"lng":-3.58877},{"id":36911,"name":"San Pedro del Romeral","lat":43.11514,"lng":-3.8186},{"id":152877,"name":"San Roque de Riomiera","lat":43.2354479,"lng":-3.7027416},{"id":36928,"name":"San Vicente de la Barquera","lat":43.38509,"lng":-4.39934},{"id":37027,"name":"Santa Cruz de Bezana","lat":43.4437,"lng":-3.90324},{"id":37074,"name":"Santa María de Cayón","lat":43.30849,"lng":-3.8368},{"id":37106,"name":"Santander","lat":43.46472,"lng":-3.80444},{"id":37130,"name":"Santillana","lat":43.38903,"lng":-4.10844},{"id":152878,"name":"Santillana del Mar","lat":43.3873327,"lng":-4.1066092},{"id":37134,"name":"Santiurde de Reinosa","lat":43.06144,"lng":-4.08351},{"id":37135,"name":"Santiurde de Toranzo","lat":43.23819,"lng":-3.93947},{"id":37150,"name":"Santoña","lat":43.44386,"lng":-3.45757},{"id":37164,"name":"Saro","lat":43.25961,"lng":-3.84283},{"id":37202,"name":"Selaya","lat":43.21376,"lng":-3.80563},{"id":152879,"name":"Soba","lat":43.1775454,"lng":-3.561026},{"id":37286,"name":"Solórzano","lat":43.38233,"lng":-3.58785},{"id":37327,"name":"Suances","lat":43.43341,"lng":-4.04338},{"id":152880,"name":"Tojos Los","lat":43.154223,"lng":-4.2541657},{"id":37546,"name":"Torrelavega","lat":43.34943,"lng":-4.04785},{"id":152881,"name":"Tresviso","lat":43.2570793,"lng":-4.6679637},{"id":152882,"name":"Tudanca","lat":43.1521484,"lng":-4.3735365},{"id":152883,"name":"Udías","lat":43.3377822,"lng":-4.2435893},{"id":152888,"name":"Val de San Vicente","lat":43.3677236,"lng":-4.4696765},{"id":152884,"name":"Valdáliga","lat":43.3053994,"lng":-4.3359635},{"id":152885,"name":"Valdeolea","lat":42.9141448,"lng":-4.1820961},{"id":152886,"name":"Valdeprado del Río","lat":42.8739624,"lng":-4.0955832},{"id":152887,"name":"Valderredible","lat":42.8536822,"lng":-3.9674371},{"id":152890,"name":"Valle de Villaverde","lat":43.2468083,"lng":-3.2602337},{"id":152889,"name":"Vega de Liébana","lat":43.0604569,"lng":-4.6657027},{"id":37905,"name":"Vega de Pas","lat":43.15692,"lng":-3.78316},{"id":38025,"name":"Villacarriedo","lat":43.22851,"lng":-3.81057},{"id":38068,"name":"Villafufre","lat":43.26557,"lng":-3.8937},{"id":152891,"name":"Voto","lat":43.3333479,"lng":-3.5205641}]