[{"id":31903,"name":"Abanilla","lat":38.20537,"lng":-1.04153},{"id":31905,"name":"Abarán","lat":38.20551,"lng":-1.39907},{"id":38574,"name":"Águilas","lat":37.4063,"lng":-1.58289},{"id":32057,"name":"Albudeite","lat":38.02895,"lng":-1.38664},{"id":32084,"name":"Alcantarilla","lat":37.96939,"lng":-1.21714},{"id":152976,"name":"Alcázares Los","lat":37.7481843,"lng":-0.8480655},{"id":32182,"name":"Aledo","lat":37.79341,"lng":-1.57356},{"id":32229,"name":"Alguazas","lat":38.05356,"lng":-1.25051},{"id":32236,"name":"Alhama de Murcia","lat":37.85103,"lng":-1.42507},{"id":32430,"name":"Archena","lat":38.11631,"lng":-1.30043},{"id":32546,"name":"Atamaría","lat":37.59989,"lng":-0.80682},{"id":32677,"name":"Barrio de la Concepción","lat":37.6,"lng":-1.0},{"id":32800,"name":"Beniel","lat":38.04636,"lng":-1.00233},{"id":32905,"name":"Blanca","lat":38.1791,"lng":-1.37473},{"id":33018,"name":"Bullas","lat":38.04667,"lng":-1.67227},{"id":33131,"name":"Calasparra","lat":38.22997,"lng":-1.69986},{"id":33211,"name":"Campos del Río","lat":38.03966,"lng":-1.35306},{"id":33277,"name":"Caravaca","lat":38.10558,"lng":-1.86343},{"id":152971,"name":"Caravaca de la Cruz","lat":38.1041892,"lng":-1.8609152},{"id":33336,"name":"Cartagena","lat":37.60512,"lng":-0.98623},{"id":33560,"name":"Cehegín","lat":38.09242,"lng":-1.7985},{"id":33610,"name":"Ceuti","lat":38.07859,"lng":-1.27467},{"id":33659,"name":"Cieza","lat":38.23998,"lng":-1.41987},{"id":33706,"name":"Cobatillas","lat":38.05545,"lng":-1.07683},{"id":34009,"name":"El Plan","lat":37.65,"lng":-1.01667},{"id":34104,"name":"Esparragal","lat":38.03333,"lng":-1.08333},{"id":34231,"name":"Fortuna","lat":38.1814,"lng":-1.1259},{"id":152972,"name":"Fuente Álamo de Murcia","lat":37.7217494,"lng":-1.1719422},{"id":34828,"name":"Jumilla","lat":38.47917,"lng":-1.325},{"id":34893,"name":"La Manga del Mar Menor","lat":37.64129,"lng":-0.71651},{"id":34931,"name":"La Torrecilla","lat":37.62363,"lng":-1.72785},{"id":152974,"name":"La Unión","lat":37.6219141,"lng":-0.8859898},{"id":34932,"name":"La Unión","lat":37.61915,"lng":-0.87799},{"id":152973,"name":"Las Torres de Cotillas","lat":38.0274986,"lng":-1.2433848},{"id":34993,"name":"Las Torres de Cotillas","lat":38.02822,"lng":-1.24188},{"id":35046,"name":"Librilla","lat":37.88642,"lng":-1.35557},{"id":35092,"name":"Lo Pagán","lat":37.81761,"lng":-0.78832},{"id":35113,"name":"Lorca","lat":37.67119,"lng":-1.7017},{"id":35115,"name":"Lorquí","lat":38.08261,"lng":-1.25103},{"id":35116,"name":"Los Alcázares","lat":37.74425,"lng":-0.85041},{"id":35121,"name":"Los Gabatos","lat":37.63333,"lng":-1.0},{"id":35125,"name":"Los Martínez","lat":37.81841,"lng":-1.0788},{"id":35356,"name":"Mazarrón","lat":37.5992,"lng":-1.31493},{"id":35478,"name":"Molina de Segura","lat":38.05456,"lng":-1.20763},{"id":35618,"name":"Moratalla","lat":38.18928,"lng":-1.89183},{"id":35661,"name":"Mula","lat":38.04095,"lng":-1.49014},{"id":35671,"name":"Murcia","lat":37.98662,"lng":-1.14146},{"id":35871,"name":"Ojós","lat":38.147,"lng":-1.34261},{"id":36245,"name":"Pliego","lat":37.98946,"lng":-1.50444},{"id":36445,"name":"Puerto Lumbreras","lat":37.56329,"lng":-1.80974},{"id":36621,"name":"Ricote","lat":38.15338,"lng":-1.36557},{"id":36840,"name":"San Javier","lat":37.80626,"lng":-0.83736},{"id":36910,"name":"San Pedro del Pinatar","lat":37.83568,"lng":-0.79102},{"id":36945,"name":"Sangonera la Verde","lat":37.92862,"lng":-1.20794},{"id":37026,"name":"Santa Cruz","lat":38.0218,"lng":-1.05749},{"id":37116,"name":"Santiago de la Ribera","lat":37.79681,"lng":-0.80544},{"id":37145,"name":"Santomera","lat":38.06147,"lng":-1.04877},{"id":37507,"name":"Torre-Pacheco","lat":37.74293,"lng":-0.95396},{"id":37606,"name":"Totana","lat":37.7688,"lng":-1.50229},{"id":37678,"name":"Ulea","lat":38.14045,"lng":-1.33007},{"id":152975,"name":"Villanueva del Río Segura","lat":38.135666,"lng":-1.3246301},{"id":38431,"name":"Yecla","lat":38.61365,"lng":-1.11468}]