[{"id":31913,"name":"Abiego","lat":42.12094,"lng":-0.06873},{"id":31914,"name":"Abizanda","lat":42.24236,"lng":0.19717},{"id":31927,"name":"Adahuesca","lat":42.1461,"lng":-0.00804},{"id":31972,"name":"Agüero","lat":42.35505,"lng":-0.79324},{"id":32594,"name":"Aínsa","lat":42.41547,"lng":0.14008},{"id":153193,"name":"Aínsa-Sobrarbe","lat":42.4146941,"lng":0.1403811},{"id":153135,"name":"Aisa","lat":42.7158612,"lng":-0.5920027},{"id":32022,"name":"Albalate de Cinca","lat":41.72521,"lng":0.15244},{"id":32026,"name":"Albalatillo","lat":41.73527,"lng":-0.15115},{"id":32033,"name":"Albelda","lat":41.86542,"lng":0.45999},{"id":32040,"name":"Albero Alto","lat":42.05031,"lng":-0.3371},{"id":32041,"name":"Albero Bajo","lat":42.0238,"lng":-0.38018},{"id":32042,"name":"Alberuela de Tubo","lat":41.90846,"lng":-0.21418},{"id":32071,"name":"Alcalá de Gurrea","lat":42.06653,"lng":-0.68534},{"id":32078,"name":"Alcalá del Obispo","lat":42.0773,"lng":-0.2912},{"id":153136,"name":"Alcampell","lat":41.9058078,"lng":0.433141},{"id":32105,"name":"Alcolea de Cinca","lat":41.71944,"lng":0.11716},{"id":32124,"name":"Alcubierre","lat":41.80757,"lng":-0.45291},{"id":32185,"name":"Alerre","lat":42.16468,"lng":-0.46369},{"id":32206,"name":"Alfántega","lat":41.82832,"lng":0.14823},{"id":32309,"name":"Almozara","lat":41.66124,"lng":-0.90169},{"id":32311,"name":"Almudévar","lat":42.04255,"lng":-0.58141},{"id":153137,"name":"Almunia de San Juan","lat":41.9348915,"lng":0.2438172},{"id":32312,"name":"Almuniente","lat":41.94949,"lng":-0.41173},{"id":32335,"name":"Alquézar","lat":42.17268,"lng":0.02586},{"id":153138,"name":"Altorricón","lat":41.7897232,"lng":0.4219444},{"id":32384,"name":"Angüés","lat":42.11109,"lng":-0.15298},{"id":32389,"name":"Ansó","lat":42.75785,"lng":-0.82947},{"id":32395,"name":"Antillón","lat":42.03639,"lng":-0.16239},{"id":32401,"name":"Aragüés del Puerto","lat":42.70641,"lng":-0.66999},{"id":153139,"name":"Arén","lat":42.2935137,"lng":0.658333},{"id":32450,"name":"Arenys de Lledó / Arens de Lledó","lat":40.99244,"lng":0.27092},{"id":32465,"name":"Argavieso","lat":42.05275,"lng":-0.27834},{"id":32474,"name":"Arguis","lat":42.31476,"lng":-0.43967},{"id":32573,"name":"Ayerbe","lat":42.27267,"lng":-0.68844},{"id":153140,"name":"Azanuy-Alins","lat":41.9729658,"lng":0.3113098},{"id":32581,"name":"Azara","lat":42.07033,"lng":-0.02921},{"id":32583,"name":"Azlor","lat":42.09427,"lng":-0.04594},{"id":32606,"name":"Baells","lat":41.95325,"lng":0.45956},{"id":32614,"name":"Bailo","lat":42.50906,"lng":-0.81136},{"id":153141,"name":"Baldellou","lat":41.9174199,"lng":0.5467599},{"id":32625,"name":"Ballobar","lat":41.62106,"lng":0.192},{"id":32631,"name":"Banastás","lat":42.18089,"lng":-0.45191},{"id":32645,"name":"Barbastro","lat":42.03565,"lng":0.12686},{"id":32649,"name":"Barbués","lat":41.98085,"lng":-0.41949},{"id":32650,"name":"Barbuñales","lat":42.02563,"lng":-0.08659},{"id":33051,"name":"Bárcabo","lat":42.24219,"lng":0.06934},{"id":32753,"name":"Belver de Cinca","lat":41.69272,"lng":0.17827},{"id":153142,"name":"Benabarre","lat":42.1087048,"lng":0.4803197},{"id":32777,"name":"Benasque","lat":42.60528,"lng":0.52305},{"id":32780,"name":"Benavarri / Benabarre","lat":42.10586,"lng":0.48211},{"id":153184,"name":"Beranuy","lat":42.3669415,"lng":0.5942218},{"id":32834,"name":"Berbegal","lat":41.95959,"lng":-0.00326},{"id":32888,"name":"Bielsa","lat":42.63347,"lng":0.21858},{"id":32891,"name":"Bierge","lat":42.16216,"lng":-0.08326},{"id":153143,"name":"Biescas","lat":42.6286287,"lng":-0.3224793},{"id":32896,"name":"Binaced","lat":41.82564,"lng":0.20084},{"id":32898,"name":"Binéfar","lat":41.85141,"lng":0.29433},{"id":32900,"name":"Bisaurri","lat":42.49677,"lng":0.50647},{"id":32901,"name":"Biscarrués","lat":42.22867,"lng":-0.74967},{"id":153144,"name":"Blecua y Torres","lat":42.087905,"lng":-0.1963364},{"id":32940,"name":"Boltaña","lat":42.4455,"lng":0.06802},{"id":32943,"name":"Bonansa","lat":42.42691,"lng":0.66692},{"id":32950,"name":"Borau","lat":42.65858,"lng":-0.58846},{"id":32992,"name":"Broto","lat":42.60434,"lng":-0.12351},{"id":153145,"name":"Caldearenas","lat":42.3973581,"lng":-0.5006829},{"id":153146,"name":"Campo","lat":42.4085228,"lng":0.3954387},{"id":33208,"name":"Camporrells","lat":41.95856,"lng":0.52136},{"id":153147,"name":"Canal de Berdún","lat":42.6066294,"lng":-0.8484524},{"id":33225,"name":"Candasnos","lat":41.50213,"lng":0.06425},{"id":33236,"name":"Canfranc","lat":42.71628,"lng":-0.52563},{"id":33265,"name":"Capdesaso","lat":41.84287,"lng":-0.18316},{"id":33266,"name":"Capella","lat":42.19635,"lng":0.39637},{"id":33383,"name":"Casbas de Huesca","lat":42.1555,"lng":-0.1399},{"id":33402,"name":"Castejón de Monegros","lat":41.61802,"lng":-0.24013},{"id":33403,"name":"Castejón de Sos","lat":42.51235,"lng":0.49241},{"id":33407,"name":"Castejón del Puente","lat":41.96179,"lng":0.15883},{"id":33409,"name":"Castelflorite","lat":41.80273,"lng":-0.02169},{"id":33442,"name":"Castiello de Jaca","lat":42.62964,"lng":-0.5502},{"id":33443,"name":"Castigaleu","lat":42.20374,"lng":0.57944},{"id":33453,"name":"Castillazuelo","lat":42.06774,"lng":0.06491},{"id":153148,"name":"Castillonroy","lat":41.8856242,"lng":0.5133783},{"id":33613,"name":"Chalamera","lat":41.66567,"lng":0.16299},{"id":33653,"name":"Chía","lat":42.5208,"lng":0.46563},{"id":33638,"name":"Chimillas","lat":42.17033,"lng":-0.45168},{"id":33748,"name":"Colungo","lat":42.17125,"lng":0.06812},{"id":33924,"name":"Delicias","lat":41.64928,"lng":-0.90757},{"id":33971,"name":"Echo","lat":42.73844,"lng":-0.75016},{"id":33982,"name":"El Burgo de Ebro","lat":41.57157,"lng":-0.74128},{"id":33990,"name":"El Castellar","lat":40.36531,"lng":-0.81734},{"id":153153,"name":"El Grado","lat":42.1373248,"lng":0.2057108},{"id":153168,"name":"El Pueyo de Araguás","lat":42.4526908,"lng":0.1682271},{"id":38530,"name":"el Torricó / Altorricon","lat":41.8028,"lng":0.4139},{"id":34128,"name":"Esplús","lat":41.7987,"lng":0.27586},{"id":34137,"name":"Estada","lat":42.07201,"lng":0.23219},{"id":34138,"name":"Estadilla","lat":42.05657,"lng":0.24343},{"id":153149,"name":"Estopiñán del Castillo","lat":41.9964626,"lng":0.5434741},{"id":34157,"name":"Fago","lat":42.7344,"lng":-0.88131},{"id":153150,"name":"Fanlo","lat":42.5874095,"lng":-0.0212797},{"id":34191,"name":"Fiscal","lat":42.49561,"lng":-0.12094},{"id":34218,"name":"Fonz","lat":42.01015,"lng":0.25878},{"id":153151,"name":"Foradada del Toscar","lat":42.4108176,"lng":0.351008},{"id":34237,"name":"Fraga","lat":41.52294,"lng":0.34894},{"id":34472,"name":"Gistaín","lat":42.5911,"lng":0.33478},{"id":34508,"name":"Grañén","lat":41.94104,"lng":-0.36941},{"id":34506,"name":"Graus","lat":42.18885,"lng":0.33749},{"id":34554,"name":"Gurrea de Gállego","lat":42.01541,"lng":-0.7615},{"id":34681,"name":"Hoz de Jaca","lat":42.69045,"lng":-0.3065},{"id":153194,"name":"Hoz y Costean","lat":42.1473263,"lng":0.1214235},{"id":34693,"name":"Huerto","lat":41.93128,"lng":-0.16684},{"id":34696,"name":"Huesca","lat":42.13615,"lng":-0.4087},{"id":34728,"name":"Ibieca","lat":42.16079,"lng":-0.20855},{"id":34738,"name":"Igriés","lat":42.21443,"lng":-0.43201},{"id":34743,"name":"Ilche","lat":41.95702,"lng":0.05728},{"id":153154,"name":"Isábena","lat":42.2941076,"lng":0.5446912},{"id":34787,"name":"Jaca","lat":42.56898,"lng":-0.54987},{"id":34805,"name":"Jasa","lat":42.6948,"lng":-0.66605},{"id":34854,"name":"La Almunia de Doña Godina","lat":41.4767,"lng":-1.37451},{"id":153152,"name":"La Fueva","lat":42.4524712,"lng":0.2807868},{"id":34877,"name":"La Ginebrosa","lat":40.86991,"lng":-0.13525},{"id":34885,"name":"La Iglesuela del Cid","lat":40.48312,"lng":-0.31938},{"id":153166,"name":"La Puebla de Castro","lat":42.1272594,"lng":0.2901815},{"id":153190,"name":"La Sotonera","lat":42.2546799,"lng":-0.5446912},{"id":34937,"name":"Labuerda","lat":42.45234,"lng":0.13561},{"id":34954,"name":"Laluenga","lat":42.00703,"lng":-0.04715},{"id":34955,"name":"Lalueza","lat":41.83967,"lng":-0.25493},{"id":34958,"name":"Lanaja","lat":41.77063,"lng":-0.33095},{"id":34971,"name":"Laperdiguera","lat":41.99053,"lng":-0.04657},{"id":153162,"name":"Las Peñas de Riglos","lat":42.3485414,"lng":-0.7264394},{"id":153155,"name":"Lascellas-Ponzano","lat":42.0660479,"lng":-0.0764508},{"id":34997,"name":"Lascuarre","lat":42.19611,"lng":0.5201},{"id":34998,"name":"Laspaúles","lat":42.47136,"lng":0.59698},{"id":34999,"name":"Laspuña","lat":42.50374,"lng":0.15441},{"id":35093,"name":"Loarre","lat":42.31432,"lng":-0.62588},{"id":35109,"name":"Loporzano","lat":42.16137,"lng":-0.32337},{"id":35142,"name":"Loscorrales","lat":42.25451,"lng":-0.64296},{"id":153191,"name":"Lupiñén-Ortilla","lat":42.1621211,"lng":-0.6254447},{"id":35406,"name":"Mequinensa / Mequinenza","lat":41.37211,"lng":0.30169},{"id":153156,"name":"Monesma y Cajigar","lat":42.2247573,"lng":0.610943},{"id":153157,"name":"Monflorite-Lascasas","lat":42.0943278,"lng":-0.354243},{"id":153158,"name":"Montanuy","lat":42.4657598,"lng":0.6942088},{"id":35546,"name":"Montecanal","lat":41.62965,"lng":-0.93873},{"id":35590,"name":"Monzón","lat":41.91084,"lng":0.19406},{"id":35740,"name":"Naval","lat":42.19503,"lng":0.15183},{"id":35826,"name":"Novales","lat":42.03201,"lng":-0.287},{"id":35832,"name":"Nueno","lat":42.26697,"lng":-0.43906},{"id":35893,"name":"Oliver-Valdefierro","lat":41.64454,"lng":-0.93349},{"id":153159,"name":"Olvena","lat":42.1025993,"lng":0.266699},{"id":35927,"name":"Ontiñena","lat":41.67663,"lng":0.08858},{"id":153160,"name":"Osso de Cinca","lat":41.6664853,"lng":0.1910644},{"id":36033,"name":"Palo","lat":42.3227,"lng":0.24376},{"id":153161,"name":"Panticosa","lat":42.7269014,"lng":-0.2432307},{"id":36165,"name":"Peñalba","lat":41.50087,"lng":-0.03798},{"id":153163,"name":"Peralta de Alcofea","lat":41.9314097,"lng":-0.0670857},{"id":153164,"name":"Peralta de Calasanz","lat":42.0181122,"lng":0.3936722},{"id":36143,"name":"Peraltilla","lat":42.05407,"lng":-0.0184},{"id":153165,"name":"Perarrúa","lat":42.2674479,"lng":0.3515962},{"id":36153,"name":"Pertusa","lat":42.00214,"lng":-0.12732},{"id":36220,"name":"Piracés","lat":42.00448,"lng":-0.31769},{"id":36233,"name":"Plan","lat":42.58126,"lng":0.33742},{"id":36259,"name":"Poleñino","lat":41.86972,"lng":-0.31009},{"id":36339,"name":"Pozán de Vero","lat":42.08219,"lng":0.03066},{"id":36373,"name":"Provincia de Huesca","lat":42.16667,"lng":-0.16667},{"id":36390,"name":"Provincia de Teruel","lat":40.66667,"lng":-0.66667},{"id":36393,"name":"Provincia de Zaragoza","lat":41.58333,"lng":-1.0},{"id":36410,"name":"Puebla de Alfindén","lat":41.63188,"lng":-0.75154},{"id":153167,"name":"Puente de Montañana","lat":42.1508466,"lng":0.695692},{"id":36440,"name":"Puente la Reina de Jaca","lat":42.55908,"lng":-0.78759},{"id":36479,"name":"Puértolas","lat":42.54748,"lng":0.13214},{"id":36460,"name":"Pueyo de Santa Cruz","lat":41.85799,"lng":0.1566},{"id":36499,"name":"Quicena","lat":42.14797,"lng":-0.36049},{"id":36658,"name":"Robres","lat":41.86746,"lng":-0.46094},{"id":36725,"name":"Sabiñánigo","lat":42.51924,"lng":-0.36607},{"id":36742,"name":"Sahún","lat":42.5759,"lng":0.46546},{"id":36748,"name":"Salas Altas","lat":42.11407,"lng":0.06821},{"id":36749,"name":"Salas Bajas","lat":42.10046,"lng":0.08349},{"id":36761,"name":"Salillas","lat":41.99498,"lng":-0.22278},{"id":36769,"name":"Sallent de Gállego","lat":42.77127,"lng":-0.33448},{"id":153169,"name":"San Esteban de Litera","lat":41.9052276,"lng":0.3269012},{"id":153170,"name":"San Juan de Plan","lat":42.588729,"lng":0.345715},{"id":153189,"name":"San Miguel del Cinca","lat":41.820289,"lng":0.0933686},{"id":36944,"name":"Sangarrén","lat":42.01921,"lng":-0.43323},{"id":153171,"name":"Santa Cilia","lat":42.5600449,"lng":-0.714257},{"id":37040,"name":"Santa Cruz de la Serós","lat":42.52271,"lng":-0.67515},{"id":153192,"name":"Santa María de Dulcis","lat":42.1226802,"lng":0.0233208},{"id":153172,"name":"Santaliestra y San Quílez","lat":42.3066053,"lng":0.3644611},{"id":37163,"name":"Sariñena","lat":41.79128,"lng":-0.15804},{"id":37186,"name":"Secastilla","lat":42.18112,"lng":0.26736},{"id":37200,"name":"Seira","lat":42.47696,"lng":0.43127},{"id":153173,"name":"Sena","lat":41.6709743,"lng":-0.0840215},{"id":37214,"name":"Senés de Alcubierre","lat":41.90731,"lng":-0.48906},{"id":37230,"name":"Sesa","lat":41.99484,"lng":-0.24511},{"id":37235,"name":"Sesué","lat":42.55131,"lng":0.47212},{"id":37269,"name":"Siétamo","lat":42.12392,"lng":-0.28066},{"id":153174,"name":"Sopeira","lat":42.31668,"lng":0.7464491},{"id":37364,"name":"Tamarit de Llitera / Tamarite de Litera","lat":41.8691,"lng":0.42214},{"id":153175,"name":"Tamarite de Litera","lat":41.8673774,"lng":0.4213552},{"id":37379,"name":"Tardienta","lat":41.97781,"lng":-0.53731},{"id":153176,"name":"Tella-Sin","lat":42.5745563,"lng":0.183304},{"id":37423,"name":"Tierz","lat":42.13356,"lng":-0.35489},{"id":153177,"name":"Tolva","lat":42.1148114,"lng":0.564496},{"id":153178,"name":"Torla","lat":42.6286775,"lng":-0.1126542},{"id":37479,"name":"Torralba de Aragón","lat":41.93487,"lng":-0.51053},{"id":153179,"name":"Torre la Ribera","lat":42.3721935,"lng":0.52593},{"id":153180,"name":"Torrente de Cinca","lat":41.4726619,"lng":0.3354251},{"id":37573,"name":"Torres de Alcanadre","lat":41.96727,"lng":-0.11096},{"id":37574,"name":"Torres de Barbués","lat":41.9605,"lng":-0.4335},{"id":37618,"name":"Tramaced","lat":41.97318,"lng":-0.29752},{"id":37826,"name":"Valfarta","lat":41.55726,"lng":-0.13304},{"id":153181,"name":"Valle de Bardají","lat":42.4224157,"lng":0.4596721},{"id":153188,"name":"Valle de Hecho","lat":42.7248135,"lng":-0.7342734},{"id":153182,"name":"Valle de Lierp","lat":42.3855951,"lng":0.485644},{"id":153183,"name":"Velilla de Cinca","lat":41.5865382,"lng":0.2602438},{"id":153195,"name":"Vencillón","lat":41.7048033,"lng":0.324844},{"id":153185,"name":"Viacamp y Litera","lat":42.0960818,"lng":0.658333},{"id":153186,"name":"Vicién","lat":42.131845,"lng":-0.4078058},{"id":153187,"name":"Villanova","lat":42.5549629,"lng":0.4549542},{"id":38227,"name":"Villanúa","lat":42.6797,"lng":-0.53769},{"id":38191,"name":"Villanueva de Sigena","lat":41.71576,"lng":-0.00897},{"id":38430,"name":"Yebra de Basa","lat":42.48647,"lng":-0.28178},{"id":38447,"name":"Yésero","lat":42.61911,"lng":-0.2502},{"id":38457,"name":"Zaidín","lat":41.60402,"lng":0.26429}]