[{"id":31928,"name":"Adalia","lat":41.64894,"lng":-5.12107},{"id":31953,"name":"Aguasal","lat":41.27495,"lng":-4.6529},{"id":31961,"name":"Aguilar de Campos","lat":41.98375,"lng":-5.18117},{"id":31990,"name":"Alaejos","lat":41.30732,"lng":-5.21567},{"id":32092,"name":"Alcazarén","lat":41.37061,"lng":-4.67262},{"id":32142,"name":"Aldea de San Miguel","lat":41.46098,"lng":-4.6158},{"id":32156,"name":"Aldeamayor de San Martín","lat":41.51256,"lng":-4.63955},{"id":32283,"name":"Almenara de Adaja","lat":41.21406,"lng":-4.67824},{"id":32363,"name":"Amusquillo","lat":41.74853,"lng":-4.30117},{"id":32509,"name":"Arroyo de la Encomienda","lat":41.60956,"lng":-4.79692},{"id":32549,"name":"Ataquines","lat":41.18247,"lng":-4.80319},{"id":32611,"name":"Bahabón","lat":41.48141,"lng":-4.27941},{"id":32656,"name":"Barcial de la Loma","lat":41.95139,"lng":-5.28353},{"id":152677,"name":"Barruelo del Valle","lat":41.674585,"lng":-5.0696287},{"id":32726,"name":"Becilla de Valderaduey","lat":42.09905,"lng":-5.21805},{"id":32758,"name":"Benafarces","lat":41.62133,"lng":-5.29285},{"id":32838,"name":"Bercero","lat":41.56397,"lng":-5.0558},{"id":32839,"name":"Berceruelo","lat":41.58033,"lng":-5.03267},{"id":32873,"name":"Berrueces","lat":41.94606,"lng":-5.09693},{"id":32920,"name":"Bobadilla del Campo","lat":41.20432,"lng":-5.02294},{"id":32925,"name":"Bocigas","lat":41.2307,"lng":-4.68128},{"id":32926,"name":"Bocos de Duero","lat":41.62339,"lng":-4.07048},{"id":32928,"name":"Boecillo","lat":41.5409,"lng":-4.6994},{"id":32936,"name":"Bolaños de Campos","lat":42.0068,"lng":-5.28428},{"id":152678,"name":"Brahojos de Medina","lat":41.2296299,"lng":-5.0429558},{"id":33039,"name":"Bustillo de Chaves","lat":42.13114,"lng":-5.09169},{"id":152679,"name":"Cabezón de Pisuerga","lat":41.7319292,"lng":-4.6459259},{"id":33093,"name":"Cabezón de Valderaduey","lat":42.16793,"lng":-5.15892},{"id":33107,"name":"Cabreros del Monte","lat":41.84906,"lng":-5.27016},{"id":33183,"name":"Campaspero","lat":41.49208,"lng":-4.19608},{"id":33207,"name":"Camporredondo","lat":41.47333,"lng":-4.50503},{"id":33220,"name":"Canalejas de Peñafiel","lat":41.52513,"lng":-4.11546},{"id":33243,"name":"Canillas de Esgueva","lat":41.75464,"lng":-4.12502},{"id":33313,"name":"Carpio","lat":41.21329,"lng":-5.10907},{"id":33380,"name":"Casasola de Arión","lat":41.57825,"lng":-5.24076},{"id":152681,"name":"Castrejón de Trabancos","lat":41.2540381,"lng":-5.1705789},{"id":33477,"name":"Castrillo de Duero","lat":41.57494,"lng":-4.01547},{"id":33485,"name":"Castrillo-Tejeriego","lat":41.7034,"lng":-4.37142},{"id":33493,"name":"Castrobol","lat":42.13717,"lng":-5.31423},{"id":33496,"name":"Castrodeza","lat":41.64921,"lng":-4.95888},{"id":33499,"name":"Castromembibre","lat":41.67246,"lng":-5.30473},{"id":33501,"name":"Castromonte","lat":41.77355,"lng":-5.03909},{"id":33503,"name":"Castronuevo de Esgueva","lat":41.6818,"lng":-4.58866},{"id":33504,"name":"Castronuño","lat":41.38918,"lng":-5.26408},{"id":33506,"name":"Castroponce","lat":42.12646,"lng":-5.18245},{"id":33511,"name":"Castroverde de Cerrato","lat":41.75609,"lng":-4.22151},{"id":33561,"name":"Ceinos de Campos","lat":42.03284,"lng":-5.15007},{"id":33604,"name":"Cervillego de la Cruz","lat":41.18783,"lng":-4.94966},{"id":33661,"name":"Cigales","lat":41.7578,"lng":-4.69848},{"id":33663,"name":"Ciguñuela","lat":41.64064,"lng":-4.85688},{"id":33694,"name":"Cistérniga","lat":41.61294,"lng":-4.68697},{"id":152682,"name":"Cogeces de Íscar","lat":41.4061165,"lng":-4.5450368},{"id":33720,"name":"Cogeces del Monte","lat":41.5103,"lng":-4.31721},{"id":33778,"name":"Corcos","lat":41.80946,"lng":-4.6927},{"id":33804,"name":"Corrales de Duero","lat":41.67205,"lng":-4.04817},{"id":33852,"name":"Cubillas de Santa Marta","lat":41.83358,"lng":-4.61463},{"id":33865,"name":"Cuenca de Campos","lat":42.05927,"lng":-5.05539},{"id":33886,"name":"Curiel de Duero","lat":41.64327,"lng":-4.1011},{"id":152680,"name":"El Campillo","lat":41.2577811,"lng":-5.0149955},{"id":34050,"name":"Encinas de Esgueva","lat":41.75653,"lng":-4.10357},{"id":34096,"name":"Esguevillas de Esgueva","lat":41.75018,"lng":-4.38062},{"id":34201,"name":"Fombellida","lat":41.76693,"lng":-4.18409},{"id":34203,"name":"Fompedraza","lat":41.53541,"lng":-4.14483},{"id":34215,"name":"Fontihoyuelo","lat":42.16192,"lng":-5.05791},{"id":34254,"name":"Fresno El Viejo","lat":41.19752,"lng":-5.14413},{"id":34287,"name":"Fuensaldaña","lat":41.70617,"lng":-4.76547},{"id":34303,"name":"Fuente el Sol","lat":41.17603,"lng":-4.9343},{"id":152683,"name":"Fuente-Olmedo","lat":41.244062,"lng":-4.6472951},{"id":34388,"name":"Gallegos de Hornija","lat":41.6098,"lng":-5.09768},{"id":34437,"name":"Gatón de Campos","lat":42.04984,"lng":-4.98078},{"id":34455,"name":"Geria","lat":41.57868,"lng":-4.87663},{"id":34603,"name":"Herrín de Campos","lat":42.12476,"lng":-4.95239},{"id":152684,"name":"Hornillos de Eresma","lat":41.3666138,"lng":-4.7193461},{"id":34765,"name":"Iscar","lat":41.36117,"lng":-4.53348},{"id":152687,"name":"La Mudarra","lat":41.780005,"lng":-4.9441817},{"id":152689,"name":"La Parrilla","lat":41.5367613,"lng":-4.5333739},{"id":152690,"name":"La Pedraja de Portillo","lat":41.4713831,"lng":-4.6463265},{"id":152696,"name":"La Seca","lat":41.4365471,"lng":-4.9143239},{"id":152697,"name":"La Unión de Campos","lat":42.0770835,"lng":-5.3272431},{"id":152698,"name":"La Zarza","lat":41.2618698,"lng":-4.7711002},{"id":34948,"name":"Laguna de Duero","lat":41.58151,"lng":-4.72332},{"id":34965,"name":"Langayo","lat":41.56986,"lng":-4.19866},{"id":35069,"name":"Llano de Olmedo","lat":41.26727,"lng":-4.61386},{"id":152685,"name":"Lomoviejo","lat":41.1491529,"lng":-4.9175686},{"id":35272,"name":"Manzanillo","lat":41.58617,"lng":-4.18826},{"id":35311,"name":"Marzales","lat":41.58644,"lng":-5.13455},{"id":35338,"name":"Matapozuelos","lat":41.41423,"lng":-4.79122},{"id":35343,"name":"Matilla de los Caños","lat":41.54818,"lng":-4.96761},{"id":35349,"name":"Mayorga","lat":42.16687,"lng":-5.26304},{"id":35371,"name":"Medina de Ríoseco","lat":41.88327,"lng":-5.04405},{"id":35373,"name":"Medina del Campo","lat":41.31239,"lng":-4.91413},{"id":35379,"name":"Megeces","lat":41.40828,"lng":-4.56166},{"id":35385,"name":"Melgar de Abajo","lat":42.24344,"lng":-5.14216},{"id":35386,"name":"Melgar de Arriba","lat":42.26806,"lng":-5.09712},{"id":35474,"name":"Mojados","lat":41.43237,"lng":-4.6649},{"id":35497,"name":"Monasterio de Vega","lat":42.23015,"lng":-5.18095},{"id":152686,"name":"Montealegre de Campos","lat":41.9015654,"lng":-4.8981036},{"id":35559,"name":"Montemayor de Pililla","lat":41.50874,"lng":-4.45745},{"id":35599,"name":"Moral de la Reina","lat":41.98611,"lng":-5.07208},{"id":35605,"name":"Moraleja de las Panaderas","lat":41.27636,"lng":-4.82521},{"id":35607,"name":"Morales de Campos","lat":41.86068,"lng":-5.17252},{"id":35642,"name":"Mota del Marqués","lat":41.63247,"lng":-5.17681},{"id":35652,"name":"Mucientes","lat":41.74278,"lng":-4.76191},{"id":152688,"name":"Muriel","lat":41.1223557,"lng":-4.8428947},{"id":35728,"name":"Nava del Rey","lat":41.33036,"lng":-5.08095},{"id":35833,"name":"Nueva Villa de las Torres","lat":41.26762,"lng":-5.05685},{"id":35889,"name":"Olivares de Duero","lat":41.63755,"lng":-4.36547},{"id":35901,"name":"Olmedo","lat":41.28706,"lng":-4.68878},{"id":35905,"name":"Olmos de Esgueva","lat":41.68815,"lng":-4.52255},{"id":35907,"name":"Olmos de Peñafiel","lat":41.57142,"lng":-4.04316},{"id":36018,"name":"Palazuelo de Vedija","lat":41.92966,"lng":-5.14534},{"id":36089,"name":"Pedrajas de San Esteban","lat":41.34145,"lng":-4.58225},{"id":36108,"name":"Pedrosa del Rey","lat":41.55617,"lng":-5.20466},{"id":36162,"name":"Peñafiel","lat":41.60165,"lng":-4.11418},{"id":36164,"name":"Peñaflor de Hornija","lat":41.71159,"lng":-4.98333},{"id":152691,"name":"Pesquera de Duero","lat":41.6415475,"lng":-4.1558553},{"id":36228,"name":"Piña de Esgueva","lat":41.72843,"lng":-4.42823},{"id":36230,"name":"Piñel de Abajo","lat":41.67459,"lng":-4.14655},{"id":36231,"name":"Piñel de Arriba","lat":41.69923,"lng":-4.12808},{"id":36263,"name":"Pollos","lat":41.44406,"lng":-5.12491},{"id":36291,"name":"Portillo","lat":41.47867,"lng":-4.58967},{"id":36313,"name":"Pozal de Gallinas","lat":41.31831,"lng":-4.83936},{"id":152692,"name":"Pozaldez","lat":41.3714714,"lng":-4.8446154},{"id":36336,"name":"Pozuelo de la Orden","lat":41.82138,"lng":-5.25891},{"id":36474,"name":"Puras","lat":41.18333,"lng":-4.65},{"id":36517,"name":"Quintanilla de Arriba","lat":41.61974,"lng":-4.21774},{"id":36519,"name":"Quintanilla de Onésimo","lat":41.6249,"lng":-4.36291},{"id":36520,"name":"Quintanilla de Trigueros","lat":41.85449,"lng":-4.65931},{"id":36524,"name":"Quintanilla del Molar","lat":41.98935,"lng":-5.44928},{"id":36708,"name":"Rábano","lat":41.53314,"lng":-4.06214},{"id":36545,"name":"Ramiro","lat":41.22845,"lng":-4.78608},{"id":152693,"name":"Renedo de Esgueva","lat":41.6546101,"lng":-4.6288938},{"id":152694,"name":"Roales de Campos","lat":42.0307094,"lng":-5.4738491},{"id":36645,"name":"Robladillo","lat":41.60838,"lng":-4.90992},{"id":36682,"name":"Roturas","lat":41.66791,"lng":-4.11901},{"id":36695,"name":"Rubí de Bracamonte","lat":41.21421,"lng":-4.92491},{"id":36697,"name":"Rueda","lat":41.41231,"lng":-4.95885},{"id":36734,"name":"Saelices de Mayorga","lat":42.21206,"lng":-5.20534},{"id":36782,"name":"Salvador de Zapardiel","lat":41.11696,"lng":-4.87486},{"id":36816,"name":"San Cebrián de Mazote","lat":41.68022,"lng":-5.14847},{"id":36856,"name":"San Llorente","lat":41.68631,"lng":-4.066},{"id":36872,"name":"San Martín de Valvení","lat":41.75336,"lng":-4.56724},{"id":36887,"name":"San Miguel del Arroyo","lat":41.44328,"lng":-4.4599},{"id":36888,"name":"San Miguel del Pino","lat":41.50941,"lng":-4.91149},{"id":36897,"name":"San Pablo de la Moraleja","lat":41.161,"lng":-4.77761},{"id":36906,"name":"San Pedro de Latarce","lat":41.73556,"lng":-5.32592},{"id":36913,"name":"San Pelayo","lat":41.68033,"lng":-5.03403},{"id":36917,"name":"San Román de Hornija","lat":41.48131,"lng":-5.28454},{"id":152695,"name":"San Salvador","lat":41.6235078,"lng":-5.0858988},{"id":36931,"name":"San Vicente del Palacio","lat":41.21901,"lng":-4.85158},{"id":37050,"name":"Santa Eufemia del Arroyo","lat":41.89505,"lng":-5.26575},{"id":37110,"name":"Santervás de Campos","lat":42.2182,"lng":-5.10027},{"id":37123,"name":"Santibáñez de Valcorba","lat":41.56983,"lng":-4.44938},{"id":37148,"name":"Santovenia de Pisuerga","lat":41.69457,"lng":-4.69029},{"id":37159,"name":"Sardón de Duero","lat":41.60847,"lng":-4.43397},{"id":37220,"name":"Serrada","lat":41.45722,"lng":-4.86279},{"id":37250,"name":"Siete Iglesias de Trabancos","lat":41.35223,"lng":-5.18488},{"id":37258,"name":"Simancas","lat":41.59072,"lng":-4.82796},{"id":37365,"name":"Tamariz de Campos","lat":41.97706,"lng":-5.02335},{"id":37421,"name":"Tiedra","lat":41.65239,"lng":-5.26688},{"id":37455,"name":"Tordehumos","lat":41.81531,"lng":-5.15811},{"id":37459,"name":"Tordesillas","lat":41.50202,"lng":-5.00146},{"id":37492,"name":"Torre de Esgueva","lat":41.76821,"lng":-4.20003},{"id":37495,"name":"Torre de Peñafiel","lat":41.53646,"lng":-4.08833},{"id":37516,"name":"Torrecilla de la Abadesa","lat":41.48498,"lng":-5.08762},{"id":37518,"name":"Torrecilla de la Orden","lat":41.21885,"lng":-5.22384},{"id":37519,"name":"Torrecilla de la Torre","lat":41.66716,"lng":-5.04982},{"id":37550,"name":"Torrelobatón","lat":41.64942,"lng":-5.02526},{"id":37581,"name":"Torrescárcela","lat":41.48455,"lng":-4.3192},{"id":37623,"name":"Traspinedo","lat":41.57509,"lng":-4.47569},{"id":37638,"name":"Trigueros del Valle","lat":41.83049,"lng":-4.65179},{"id":37649,"name":"Tudela de Duero","lat":41.5845,"lng":-4.58093},{"id":37694,"name":"Urones de Castroponce","lat":42.09911,"lng":-5.28222},{"id":37698,"name":"Urueña","lat":41.72738,"lng":-5.20304},{"id":37723,"name":"Valbuena de Duero","lat":41.64323,"lng":-4.29271},{"id":37731,"name":"Valdearcos de la Vega","lat":41.6426,"lng":-4.04845},{"id":37777,"name":"Valdenebro de los Valles","lat":41.8569,"lng":-4.97005},{"id":37802,"name":"Valdestillas","lat":41.47697,"lng":-4.77116},{"id":37814,"name":"Valdunquillo","lat":42.04232,"lng":-5.31339},{"id":37836,"name":"Valladolid","lat":41.65518,"lng":-4.72372},{"id":37870,"name":"Valoria la Buena","lat":41.79966,"lng":-4.53055},{"id":37884,"name":"Valverde de Campos","lat":41.8351,"lng":-5.03674},{"id":37906,"name":"Vega de Ruiponce","lat":42.18808,"lng":-5.11477},{"id":37912,"name":"Vega de Valdetronco","lat":41.59364,"lng":-5.11319},{"id":37924,"name":"Velascálvaro","lat":41.23028,"lng":-4.97242},{"id":37928,"name":"Velilla","lat":41.5592,"lng":-5.00454},{"id":37935,"name":"Velliza","lat":41.57918,"lng":-4.94655},{"id":37943,"name":"Ventosa de la Cuesta","lat":41.4111,"lng":-4.82932},{"id":37957,"name":"Viana de Cega","lat":41.52927,"lng":-4.75245},{"id":38023,"name":"Villabáñez","lat":41.63097,"lng":-4.52192},{"id":38015,"name":"Villabaruz de Campos","lat":42.01099,"lng":-4.99624},{"id":38020,"name":"Villabrágima","lat":41.82178,"lng":-5.11546},{"id":38024,"name":"Villacarralón","lat":42.18999,"lng":-5.04324},{"id":38029,"name":"Villacid de Campos","lat":42.0825,"lng":-5.12498},{"id":38032,"name":"Villaco","lat":41.74022,"lng":-4.26817},{"id":38054,"name":"Villafrades de Campos","lat":42.07853,"lng":-4.97125},{"id":38057,"name":"Villafranca de Duero","lat":41.4331,"lng":-5.30192},{"id":38065,"name":"Villafrechós","lat":41.8929,"lng":-5.21859},{"id":38067,"name":"Villafuerte","lat":41.73431,"lng":-4.32365},{"id":38071,"name":"Villagarcía de Campos","lat":41.78032,"lng":-5.19242},{"id":38080,"name":"Villagómez la Nueva","lat":42.15592,"lng":-5.14208},{"id":38125,"name":"Villalán de Campos","lat":42.01484,"lng":-5.23642},{"id":38090,"name":"Villalar de los Comuneros","lat":41.54966,"lng":-5.1381},{"id":38097,"name":"Villalba de la Loma","lat":42.17472,"lng":-5.19023},{"id":38099,"name":"Villalba de los Alcores","lat":41.86361,"lng":-4.86063},{"id":38104,"name":"Villalbarba","lat":41.60389,"lng":-5.21281},{"id":38126,"name":"Villalón de Campos","lat":42.09994,"lng":-5.0344},{"id":38165,"name":"Villamuriel de Campos","lat":41.9469,"lng":-5.20717},{"id":38380,"name":"Villán de Tordesillas","lat":41.59311,"lng":-4.92214},{"id":38168,"name":"Villanubla","lat":41.69877,"lng":-4.84173},{"id":38181,"name":"Villanueva de Duero","lat":41.51946,"lng":-4.86671},{"id":38197,"name":"Villanueva de la Condesa","lat":42.14914,"lng":-5.0955},{"id":38209,"name":"Villanueva de los Caballeros","lat":41.75916,"lng":-5.24786},{"id":152030,"name":"Villanueva de los Infantes","lat":41.703944,"lng":-4.4819074},{"id":38190,"name":"Villanueva de San Mancio","lat":41.92842,"lng":-5.012},{"id":38266,"name":"Villardefrades","lat":41.72358,"lng":-5.25513},{"id":38289,"name":"Villarmentero de Esgueva","lat":41.68515,"lng":-4.54636},{"id":38326,"name":"Villasexmir","lat":41.63943,"lng":-5.0647},{"id":38339,"name":"Villavaquerín","lat":41.66357,"lng":-4.46287},{"id":38341,"name":"Villavellid","lat":41.69218,"lng":-5.2763},{"id":38346,"name":"Villaverde de Medina","lat":41.30687,"lng":-5.02625},{"id":38355,"name":"Villavicencio de los Caballeros","lat":42.05893,"lng":-5.23566},{"id":38383,"name":"Viloria","lat":41.44604,"lng":-4.38356},{"id":38419,"name":"Wamba","lat":41.67525,"lng":-4.91748},{"id":38473,"name":"Zaratán","lat":41.65971,"lng":-4.78417}]