[{"id":151321,"name":"Abaltzisketa","lat":43.0484436,"lng":-2.1054483},{"id":31942,"name":"Aduna","lat":43.20375,"lng":-2.05033},{"id":31978,"name":"Aia","lat":43.23721,"lng":-2.14833},{"id":31984,"name":"Aizarnazabal","lat":43.25591,"lng":-2.23607},{"id":32046,"name":"Albiztur","lat":43.12933,"lng":-2.13649},{"id":151322,"name":"Alegia","lat":43.1021905,"lng":-2.1008486},{"id":32253,"name":"Alkiza","lat":43.17263,"lng":-2.10923},{"id":151346,"name":"Altzaga","lat":43.0645169,"lng":-2.1545403},{"id":151323,"name":"Altzo","lat":43.0994843,"lng":-2.0830679},{"id":32354,"name":"Amezketa","lat":43.04813,"lng":-2.08541},{"id":32372,"name":"Andoain","lat":43.21658,"lng":-2.0253},{"id":32386,"name":"Anoeta","lat":43.16241,"lng":-2.07107},{"id":32396,"name":"Antzuola","lat":43.09725,"lng":-2.37998},{"id":32404,"name":"Arama","lat":43.06335,"lng":-2.1654},{"id":32458,"name":"Aretxabaleta","lat":43.03414,"lng":-2.50456},{"id":151338,"name":"Arrasate/Mondragón","lat":43.0648865,"lng":-2.4902081},{"id":32538,"name":"Asteasu","lat":43.19436,"lng":-2.09818},{"id":32539,"name":"Astigarraga","lat":43.28174,"lng":-1.94634},{"id":32552,"name":"Ataun","lat":43.00612,"lng":-2.17663},{"id":32582,"name":"Azkoitia","lat":43.17744,"lng":-2.31129},{"id":32587,"name":"Azpeitia","lat":43.18246,"lng":-2.26693},{"id":32623,"name":"Baliarrain","lat":43.06928,"lng":-2.12781},{"id":32720,"name":"Beasain","lat":43.05017,"lng":-2.20087},{"id":32733,"name":"Beizama","lat":43.13385,"lng":-2.20001},{"id":151324,"name":"Belauntza","lat":43.1357709,"lng":-2.0530406},{"id":151325,"name":"Berastegi","lat":43.1249889,"lng":-1.9771434},{"id":32847,"name":"Bergara","lat":43.1151,"lng":-2.4175},{"id":32867,"name":"Berrobi","lat":43.14518,"lng":-2.02623},{"id":151326,"name":"Bidegoian","lat":43.1392515,"lng":-2.1603735},{"id":33917,"name":"Deba","lat":43.29571,"lng":-2.35213},{"id":151342,"name":"Donostia-San Sebastián","lat":43.318237,"lng":-1.9817051},{"id":33972,"name":"Eibar","lat":43.18493,"lng":-2.47158},{"id":151328,"name":"Elduain","lat":43.1397181,"lng":-2.0010004},{"id":151329,"name":"Elgeta","lat":43.1362181,"lng":-2.4894758},{"id":34035,"name":"Elgoibar","lat":43.21601,"lng":-2.41334},{"id":34070,"name":"Errenteria","lat":43.31195,"lng":-1.90234},{"id":151341,"name":"Errezil","lat":43.1653146,"lng":-2.1748064},{"id":34097,"name":"Eskoriatza","lat":43.01829,"lng":-2.52598},{"id":151330,"name":"Ezkio-Itsaso","lat":43.0819322,"lng":-2.2741831},{"id":151332,"name":"Gabiria","lat":43.0505823,"lng":-2.279352},{"id":151331,"name":"Gaintza","lat":43.0527872,"lng":-2.1330559},{"id":34442,"name":"Gaztelu","lat":43.11622,"lng":-2.02439},{"id":34460,"name":"Getaria","lat":43.30326,"lng":-2.20444},{"id":34588,"name":"Hernani","lat":43.26615,"lng":-1.97615},{"id":34590,"name":"Hernialde","lat":43.15446,"lng":-2.08521},{"id":34633,"name":"Hondarribia","lat":43.36859,"lng":-1.79622},{"id":151333,"name":"Ibarra","lat":43.1492464,"lng":-2.0444651},{"id":34733,"name":"Idiazabal","lat":43.01189,"lng":-2.23356},{"id":151334,"name":"Ikaztegieta","lat":43.0938938,"lng":-2.1235447},{"id":34762,"name":"Irun","lat":43.33904,"lng":-1.78938},{"id":34763,"name":"Irura","lat":43.16651,"lng":-2.06746},{"id":151335,"name":"Itsasondo","lat":43.0676502,"lng":-2.1652863},{"id":34980,"name":"Larraul","lat":43.18773,"lng":-2.10202},{"id":151345,"name":"Lasarte-Oria","lat":43.2684377,"lng":-2.0178149},{"id":151336,"name":"Lazkao","lat":43.043516,"lng":-2.1904728},{"id":35009,"name":"Leaburu","lat":43.12188,"lng":-2.0543},{"id":151337,"name":"Legazpi","lat":43.0523571,"lng":-2.3315143},{"id":35024,"name":"Legorreta","lat":43.08464,"lng":-2.15017},{"id":35025,"name":"Leintz-Gatzaga","lat":42.98684,"lng":-2.56851},{"id":35042,"name":"Lezo","lat":43.32142,"lng":-1.89739},{"id":35059,"name":"Lizartza","lat":43.10236,"lng":-2.03489},{"id":35398,"name":"Mendaro","lat":43.25326,"lng":-2.38568},{"id":35689,"name":"Mutiloa","lat":43.02288,"lng":-2.27257},{"id":35690,"name":"Mutriku","lat":43.30643,"lng":-2.38517},{"id":151339,"name":"Oiartzun","lat":43.298838,"lng":-1.8624156},{"id":35872,"name":"Olaberria","lat":43.02726,"lng":-2.20349},{"id":35989,"name":"Oñati","lat":43.03262,"lng":-2.40997},{"id":35941,"name":"Ordizia","lat":43.0541,"lng":-2.17632},{"id":35944,"name":"Orendain","lat":43.07896,"lng":-2.11201},{"id":35946,"name":"Orexa","lat":43.09382,"lng":-2.01119},{"id":35952,"name":"Orio","lat":43.2787,"lng":-2.12537},{"id":35955,"name":"Ormaiztegi","lat":43.04339,"lng":-2.25673},{"id":36073,"name":"Pasaia","lat":43.3253,"lng":-1.92707},{"id":37194,"name":"Segura","lat":43.00753,"lng":-2.254},{"id":151340,"name":"Soraluze/Placencia de las Armas","lat":43.1740007,"lng":-2.4126639},{"id":37447,"name":"Tolosa","lat":43.13484,"lng":-2.07801},{"id":37693,"name":"Urnieta","lat":43.24727,"lng":-1.99084},{"id":151343,"name":"Urretxu","lat":43.0905334,"lng":-2.317289},{"id":37706,"name":"Usurbil","lat":43.27164,"lng":-2.04912},{"id":38018,"name":"Villabona","lat":43.1854,"lng":-2.05304},{"id":151344,"name":"Zaldibia","lat":43.0388101,"lng":-2.1505496},{"id":38474,"name":"Zarautz","lat":43.28444,"lng":-2.16992},{"id":38491,"name":"Zegama","lat":42.97556,"lng":-2.29091},{"id":151327,"name":"Zerain","lat":43.0112717,"lng":-2.2725799},{"id":38492,"name":"Zestoa","lat":43.23973,"lng":-2.2579},{"id":38494,"name":"Zizurkil","lat":43.19917,"lng":-2.0742},{"id":38508,"name":"Zumaia","lat":43.29469,"lng":-2.25341},{"id":38509,"name":"Zumarraga","lat":43.08858,"lng":-2.31408}]