[{"id":31951,"name":"Aguadulce","lat":37.25273,"lng":-4.99269},{"id":32000,"name":"Alanís","lat":38.03333,"lng":-5.71667},{"id":32015,"name":"Albaida del Aljarafe","lat":37.42354,"lng":-6.16675},{"id":32070,"name":"Alcalá de Guadaira","lat":37.33791,"lng":-5.83951},{"id":32079,"name":"Alcalá del Río","lat":37.5178,"lng":-5.98185},{"id":32109,"name":"Alcolea del Río","lat":37.61506,"lng":-5.66694},{"id":32231,"name":"Algámitas","lat":37.01516,"lng":-5.14949},{"id":32262,"name":"Almadén de la Plata","lat":37.87221,"lng":-6.08085},{"id":32289,"name":"Almensilla","lat":37.31099,"lng":-6.10998},{"id":151452,"name":"Arahal","lat":37.1873369,"lng":-5.5827334},{"id":32584,"name":"Aznalcázar","lat":37.30422,"lng":-6.24963},{"id":32585,"name":"Aznalcóllar","lat":37.51914,"lng":-6.26988},{"id":32604,"name":"Badolatosa","lat":37.30785,"lng":-4.67296},{"id":32757,"name":"Benacazón","lat":37.35289,"lng":-6.19663},{"id":32938,"name":"Bollullos de la Mitación","lat":37.34014,"lng":-6.13719},{"id":32956,"name":"Bormujos","lat":37.37358,"lng":-6.07233},{"id":32977,"name":"Brenes","lat":37.54944,"lng":-5.87139},{"id":33027,"name":"Burguillos","lat":37.5844,"lng":-5.96654},{"id":33172,"name":"Camas","lat":37.40202,"lng":-6.03314},{"id":33526,"name":"Cañada Rosal","lat":37.59924,"lng":-5.21016},{"id":33257,"name":"Cantillana","lat":37.61032,"lng":-5.82472},{"id":33310,"name":"Carmona","lat":37.47125,"lng":-5.64608},{"id":33333,"name":"Carrión de los Céspedes","lat":37.37007,"lng":-6.32923},{"id":33352,"name":"Casariche","lat":37.29389,"lng":-4.75972},{"id":33447,"name":"Castilblanco de los Arroyos","lat":37.67576,"lng":-5.98886},{"id":33454,"name":"Castilleja de Guzmán","lat":37.40955,"lng":-6.05515},{"id":33455,"name":"Castilleja de la Cuesta","lat":37.38594,"lng":-6.05258},{"id":33456,"name":"Castilleja del Campo","lat":37.38627,"lng":-6.33443},{"id":33523,"name":"Cazalla de la Sierra","lat":37.93333,"lng":-5.75},{"id":33765,"name":"Constantina","lat":37.86667,"lng":-5.61667},{"id":33790,"name":"Coria del Río","lat":37.28766,"lng":-6.0541},{"id":33791,"name":"Coripe","lat":36.97335,"lng":-5.44022},{"id":151457,"name":"Corrales Los","lat":37.1003391,"lng":-4.9857496},{"id":33949,"name":"Dos Hermanas","lat":37.28287,"lng":-5.92088},{"id":38577,"name":"Écija","lat":37.5422,"lng":-5.0826},{"id":151455,"name":"El Castillo de las Guardas","lat":37.6923171,"lng":-6.3152969},{"id":151456,"name":"El Coronil","lat":37.0793653,"lng":-5.6337983},{"id":151478,"name":"El Cuervo de Sevilla","lat":36.8527976,"lng":-6.0385235},{"id":151458,"name":"El Garrobo","lat":37.6276545,"lng":-6.1725856},{"id":151462,"name":"El Madroño","lat":37.6527147,"lng":-6.471658},{"id":151466,"name":"El Pedroso","lat":37.8415667,"lng":-5.7655343},{"id":151470,"name":"El Real de la Jara","lat":37.9487253,"lng":-6.1540241},{"id":151473,"name":"El Ronquillo","lat":37.7261118,"lng":-6.1772268},{"id":151474,"name":"El Rubio","lat":37.353777,"lng":-4.9909478},{"id":151475,"name":"El Saucejo","lat":37.0741908,"lng":-5.0976161},{"id":151476,"name":"El Viso del Alcor","lat":37.3886862,"lng":-5.7217811},{"id":34109,"name":"Espartinas","lat":37.38154,"lng":-6.12578},{"id":34141,"name":"Estepa","lat":37.29263,"lng":-4.87896},{"id":34338,"name":"Fuentes de Andalucía","lat":37.46409,"lng":-5.34615},{"id":34448,"name":"Gelves","lat":37.33481,"lng":-6.02601},{"id":34454,"name":"Gerena","lat":37.52957,"lng":-6.15479},{"id":34463,"name":"Gilena","lat":37.2515,"lng":-4.91442},{"id":34467,"name":"Gines","lat":37.38647,"lng":-6.07729},{"id":34522,"name":"Guadalcanal","lat":38.1,"lng":-5.81667},{"id":34548,"name":"Guillena","lat":37.54262,"lng":-6.05626},{"id":34593,"name":"Herrera","lat":37.36396,"lng":-4.84979},{"id":151459,"name":"Huévar del Aljarafe","lat":37.3566551,"lng":-6.2773395},{"id":151477,"name":"Isla Mayor","lat":37.1332508,"lng":-6.1658351},{"id":151451,"name":"La Algaba","lat":37.4587461,"lng":-6.0136317},{"id":151454,"name":"La Campana","lat":37.5687413,"lng":-5.4266852},{"id":151460,"name":"La Lantejuela","lat":37.3544458,"lng":-5.2227526},{"id":151461,"name":"La Luisiana","lat":37.5262841,"lng":-5.2488573},{"id":151467,"name":"La Puebla de Cazalla","lat":37.2223653,"lng":-5.3141714},{"id":151468,"name":"La Puebla de los Infantes","lat":37.780393,"lng":-5.3895778},{"id":151469,"name":"La Puebla del Río","lat":37.2694065,"lng":-6.063133},{"id":151471,"name":"La Rinconada","lat":37.4872681,"lng":-5.9816424},{"id":151472,"name":"La Roda de Andalucía","lat":37.2013385,"lng":-4.7786378},{"id":151453,"name":"Las Cabezas de San Juan","lat":36.9802873,"lng":-5.9383291},{"id":151464,"name":"Las Navas de la Concepción","lat":37.9332489,"lng":-5.4655542},{"id":35011,"name":"Lebrija","lat":36.92077,"lng":-6.07529},{"id":35110,"name":"Lora de Estepa","lat":37.26926,"lng":-4.82759},{"id":35111,"name":"Lora del Río","lat":37.65896,"lng":-5.52751},{"id":35212,"name":"Mairena del Alcor","lat":37.37301,"lng":-5.74951},{"id":35213,"name":"Mairena del Aljarafe","lat":37.34461,"lng":-6.06391},{"id":35285,"name":"Marchena","lat":37.329,"lng":-5.41681},{"id":35291,"name":"Marinaleda","lat":37.3712,"lng":-4.95949},{"id":35307,"name":"Martín de la Jara","lat":37.10867,"lng":-4.96347},{"id":151463,"name":"Molares Los","lat":37.1562295,"lng":-5.7191564},{"id":35557,"name":"Montellano","lat":36.99531,"lng":-5.57145},{"id":35636,"name":"Morón de la Frontera","lat":37.12084,"lng":-5.45403},{"id":35888,"name":"Olivares","lat":37.41802,"lng":-6.15603},{"id":35975,"name":"Osuna","lat":37.2376,"lng":-5.10311},{"id":151465,"name":"Palacios y Villafranca Los","lat":37.1584636,"lng":-5.9244808},{"id":36037,"name":"Palomares del Río","lat":37.32225,"lng":-6.05863},{"id":36058,"name":"Paradas","lat":37.29047,"lng":-5.49703},{"id":36096,"name":"Pedrera","lat":37.22604,"lng":-4.8942},{"id":36163,"name":"Peñaflor","lat":37.70892,"lng":-5.34504},{"id":36188,"name":"Pilas","lat":37.30337,"lng":-6.30097},{"id":36401,"name":"Pruna","lat":36.97226,"lng":-5.2223},{"id":36779,"name":"Salteras","lat":37.4206,"lng":-6.11049},{"id":36844,"name":"San Juan de Aznalfarache","lat":37.35813,"lng":-6.03731},{"id":36896,"name":"San Nicolás del Puerto","lat":38.0,"lng":-5.65},{"id":36949,"name":"Sanlúcar la Mayor","lat":37.38758,"lng":-6.20346},{"id":37131,"name":"Santiponce","lat":37.43553,"lng":-6.04106},{"id":37239,"name":"Sevilla","lat":37.38283,"lng":-5.97317},{"id":37439,"name":"Tocina","lat":37.60904,"lng":-5.73403},{"id":37449,"name":"Tomares","lat":37.37281,"lng":-6.04589},{"id":37685,"name":"Umbrete","lat":37.36881,"lng":-6.15847},{"id":37711,"name":"Utrera","lat":37.18516,"lng":-5.78093},{"id":37822,"name":"Valencina de la Concepción","lat":37.41618,"lng":-6.07422},{"id":38132,"name":"Villamanrique de la Condesa","lat":37.24481,"lng":-6.30665},{"id":38189,"name":"Villanueva de San Juan","lat":37.04955,"lng":-5.1754},{"id":38212,"name":"Villanueva del Ariscal","lat":37.39623,"lng":-6.14077},{"id":38223,"name":"Villanueva del Río y Minas","lat":37.65502,"lng":-5.71369},{"id":38350,"name":"Villaverde del Río","lat":37.58919,"lng":-5.87443}]