[{"id":151894,"name":"Aiguamúrcia","lat":41.3296224,"lng":1.3586793},{"id":151895,"name":"Albinyana","lat":41.2449807,"lng":1.486239},{"id":151896,"name":"Albiol","lat":41.2520305,"lng":1.0896014},{"id":32083,"name":"Alcanar","lat":40.54316,"lng":0.48082},{"id":32122,"name":"Alcover","lat":41.26267,"lng":1.1701},{"id":152010,"name":"Aldea L","lat":40.7455735,"lng":0.6186663},{"id":151897,"name":"Aldover","lat":40.879942,"lng":0.4992069},{"id":151898,"name":"Aleixar","lat":41.2016639,"lng":1.0462244},{"id":151899,"name":"Alfara de Carles","lat":40.8736905,"lng":0.4004439},{"id":32204,"name":"Alforja","lat":41.21108,"lng":0.97542},{"id":32250,"name":"Alió","lat":41.29422,"lng":1.30585},{"id":32308,"name":"Almoster","lat":41.19758,"lng":1.11167},{"id":32338,"name":"Altafulla","lat":41.14286,"lng":1.37269},{"id":151900,"name":"Ametlla de Mar","lat":40.8839435,"lng":0.7996491},{"id":152011,"name":"Ampolla L","lat":40.805003,"lng":0.6867939},{"id":32358,"name":"Amposta","lat":40.70995,"lng":0.57856},{"id":151902,"name":"Arboç","lat":41.2659877,"lng":1.6020337},{"id":151901,"name":"Arbolí","lat":41.2426006,"lng":0.9487716},{"id":151903,"name":"Argentera","lat":41.137506,"lng":0.9089424},{"id":151904,"name":"Arnes","lat":40.9110458,"lng":0.2614174},{"id":32534,"name":"Ascó","lat":41.18333,"lng":0.56667},{"id":151905,"name":"Banyeres del Penedès","lat":41.2794548,"lng":1.5808175},{"id":151906,"name":"Barberà de la Conca","lat":41.4109456,"lng":1.2277556},{"id":32693,"name":"Batea","lat":41.09434,"lng":0.311},{"id":151907,"name":"Bellmunt del Priorat","lat":41.1636991,"lng":0.7654623},{"id":151908,"name":"Bellvei","lat":41.2351212,"lng":1.5644578},{"id":32803,"name":"Benifallet","lat":40.97422,"lng":0.51767},{"id":151909,"name":"Benissanet","lat":41.0584559,"lng":0.6340386},{"id":151910,"name":"Bisbal de Falset","lat":41.2806379,"lng":0.7225467},{"id":151911,"name":"Bisbal del Penedès","lat":41.2794225,"lng":1.4887997},{"id":32906,"name":"Blancafort","lat":41.4374,"lng":1.15983},{"id":32945,"name":"Bonastre","lat":41.22031,"lng":1.43936},{"id":151912,"name":"Borges del Camp","lat":41.1702125,"lng":1.0209204},{"id":32963,"name":"Bot","lat":41.00916,"lng":0.38392},{"id":32964,"name":"Botarell","lat":41.13627,"lng":0.98919},{"id":151913,"name":"Bràfim","lat":41.2687728,"lng":1.3412663},{"id":151914,"name":"Cabacés","lat":41.2474603,"lng":0.7339765},{"id":151915,"name":"Cabra del Camp","lat":41.3954009,"lng":1.2758641},{"id":33125,"name":"Calafell","lat":41.19997,"lng":1.5683},{"id":152009,"name":"Camarles","lat":40.7709311,"lng":0.6690034},{"id":33177,"name":"Cambrils","lat":41.06997,"lng":1.05949},{"id":33262,"name":"Capafonts","lat":41.3,"lng":1.03333},{"id":151916,"name":"Capçanes","lat":41.1006811,"lng":0.7821062},{"id":151917,"name":"Caseres","lat":41.0394453,"lng":0.2511497},{"id":151918,"name":"Castellvell del Camp","lat":41.180513,"lng":1.0972396},{"id":151919,"name":"Catllar","lat":41.1759037,"lng":1.3270397},{"id":33739,"name":"Colldejou","lat":41.0997,"lng":0.88717},{"id":33756,"name":"Conesa","lat":41.51667,"lng":1.3},{"id":33766,"name":"Constantí","lat":41.15392,"lng":1.21262},{"id":151921,"name":"Corbera d'Ebre","lat":41.0768503,"lng":0.4755993},{"id":151922,"name":"Cornudella de Montsant","lat":41.265391,"lng":0.9050659},{"id":33832,"name":"Creixell","lat":41.16618,"lng":1.44032},{"id":33884,"name":"Cunit","lat":41.19829,"lng":1.63645},{"id":33925,"name":"Deltebre","lat":40.71944,"lng":0.70835},{"id":151924,"name":"Duesaigües","lat":41.1458284,"lng":0.9301201},{"id":151961,"name":"El Perelló","lat":40.8959829,"lng":0.6962853},{"id":151925,"name":"Espluga de Francolí","lat":41.3971819,"lng":1.1029318},{"id":34159,"name":"Falset","lat":41.14576,"lng":0.81979},{"id":151926,"name":"Fatarella","lat":41.1621105,"lng":0.4736798},{"id":151927,"name":"Febró","lat":41.2775913,"lng":1.0043284},{"id":151928,"name":"Figuera","lat":41.1182031,"lng":1.2496218},{"id":151929,"name":"Figuerola del Camp","lat":41.3714085,"lng":1.2653356},{"id":34195,"name":"Flix","lat":41.23074,"lng":0.55008},{"id":34233,"name":"Forès","lat":41.48333,"lng":1.23333},{"id":151930,"name":"Freginals","lat":40.6722143,"lng":0.5204658},{"id":151931,"name":"Galera","lat":40.6896826,"lng":0.4360881},{"id":34402,"name":"Gandesa","lat":41.05375,"lng":0.4385},{"id":34408,"name":"Garcia","lat":41.13333,"lng":0.65},{"id":151932,"name":"Garidells","lat":41.2074549,"lng":1.2475459},{"id":34468,"name":"Ginestar","lat":41.04184,"lng":0.6329},{"id":151933,"name":"Godall","lat":40.6546716,"lng":0.4696996},{"id":151934,"name":"Gratallops","lat":41.1931656,"lng":0.7767556},{"id":151935,"name":"Guiamets","lat":41.1015077,"lng":0.7523898},{"id":151936,"name":"Horta de Sant Joan","lat":40.9538408,"lng":0.315441},{"id":152012,"name":"La Canonja","lat":41.1088656,"lng":1.1881076},{"id":151976,"name":"La Riba","lat":41.3179203,"lng":1.1773856},{"id":151978,"name":"La Riera de Gaià","lat":41.1667116,"lng":1.3607894},{"id":152003,"name":"La Vilella Alta","lat":41.225176,"lng":0.7809171},{"id":152004,"name":"La Vilella Baixa","lat":41.2202707,"lng":0.7630852},{"id":151962,"name":"Les Piles","lat":41.5035318,"lng":1.3372823},{"id":151937,"name":"Lloar","lat":41.1858088,"lng":0.7488252},{"id":151938,"name":"Llorac","lat":41.5568033,"lng":1.3073147},{"id":151939,"name":"Llorenç del Penedès","lat":41.2842806,"lng":1.5487099},{"id":151940,"name":"Marçà","lat":41.1266553,"lng":0.8026233},{"id":35288,"name":"Margalef","lat":41.28496,"lng":0.75331},{"id":35315,"name":"Mas de Barberans","lat":40.73333,"lng":0.36667},{"id":35319,"name":"Masdenverge","lat":40.716,"lng":0.53009},{"id":151941,"name":"Masllorenç","lat":41.270296,"lng":1.4162937},{"id":151942,"name":"Masó","lat":41.2346147,"lng":1.2211737},{"id":151943,"name":"Maspujols","lat":41.1816242,"lng":1.0451477},{"id":151944,"name":"Masroig","lat":41.1258625,"lng":0.7324919},{"id":151945,"name":"Milà","lat":41.2485161,"lng":1.2064251},{"id":35454,"name":"Miravet","lat":41.0393,"lng":0.59665},{"id":151946,"name":"Molar","lat":41.1631066,"lng":0.7105267},{"id":151949,"name":"Mont-ral","lat":41.2868561,"lng":1.0979443},{"id":35528,"name":"Mont-roig del Camp","lat":41.08675,"lng":0.95925},{"id":35539,"name":"Montblanc","lat":41.37636,"lng":1.16163},{"id":151947,"name":"Montbrió del Camp","lat":41.1219298,"lng":1.0047768},{"id":35572,"name":"Montferri","lat":41.26545,"lng":1.36517},{"id":151948,"name":"Montmell","lat":41.3414537,"lng":1.4918235},{"id":151950,"name":"Móra d'Ebre","lat":41.0867715,"lng":0.6381854},{"id":151951,"name":"Móra la Nova","lat":41.1043311,"lng":0.6500357},{"id":151952,"name":"Morell","lat":41.1921839,"lng":1.2064499},{"id":151953,"name":"Morera de Montsant","lat":41.2649293,"lng":0.8416045},{"id":151954,"name":"Nou de Gaià","lat":41.1827747,"lng":1.3755976},{"id":151955,"name":"Nulles","lat":41.2491051,"lng":1.2969289},{"id":151957,"name":"Pallaresos","lat":41.1752824,"lng":1.2704491},{"id":151956,"name":"Palma d'Ebre","lat":41.2833302,"lng":0.6660391},{"id":151958,"name":"Passanant i Belltall","lat":41.5250051,"lng":1.2025207},{"id":151959,"name":"Paüls","lat":40.9220162,"lng":0.4001495},{"id":151960,"name":"Perafort","lat":41.1905227,"lng":1.2560126},{"id":151963,"name":"Pinell de Brai","lat":41.0161996,"lng":0.5145594},{"id":151964,"name":"Pira","lat":41.4234114,"lng":1.202821},{"id":151965,"name":"Pla de Santa Maria","lat":41.3435678,"lng":1.3180042},{"id":151966,"name":"Pobla de Mafumet","lat":41.1849096,"lng":1.2099939},{"id":151967,"name":"Pobla de Massaluc","lat":41.1807802,"lng":0.3533607},{"id":151968,"name":"Pobla de Montornès","lat":41.1773734,"lng":1.4150863},{"id":151969,"name":"Poboleda","lat":41.2344554,"lng":0.8454749},{"id":151970,"name":"Pont d'Armentera","lat":41.136016,"lng":1.2574444},{"id":36274,"name":"Pontils","lat":41.47734,"lng":1.38772},{"id":151971,"name":"Porrera","lat":41.1879003,"lng":0.8550036},{"id":151972,"name":"Pradell de la Teixeta","lat":41.1566258,"lng":0.8761534},{"id":151973,"name":"Prades","lat":41.3067114,"lng":0.9916274},{"id":151974,"name":"Prat de Comte","lat":40.9833815,"lng":0.4052908},{"id":151975,"name":"Pratdip","lat":41.0509272,"lng":0.8713863},{"id":36463,"name":"Puigpelat","lat":41.27899,"lng":1.29713},{"id":36496,"name":"Querol","lat":41.42293,"lng":1.39684},{"id":36549,"name":"Rasquera","lat":41.00267,"lng":0.59967},{"id":36576,"name":"Renau","lat":41.22448,"lng":1.31083},{"id":36592,"name":"Reus","lat":41.15612,"lng":1.10687},{"id":151977,"name":"Riba-roja d'Ebre","lat":41.259824,"lng":0.4691097},{"id":36634,"name":"Riudecanyes","lat":41.13333,"lng":0.96667},{"id":36635,"name":"Riudecols","lat":41.169,"lng":0.97625},{"id":36637,"name":"Riudoms","lat":41.13333,"lng":1.05},{"id":151979,"name":"Rocafort de Queralt","lat":41.4785434,"lng":1.2812797},{"id":36661,"name":"Roda de Barà","lat":41.18645,"lng":1.45893},{"id":151980,"name":"Rodonyà","lat":41.2805258,"lng":1.3989474},{"id":151981,"name":"Roquetes","lat":40.8209422,"lng":0.5020517},{"id":151982,"name":"Rourell","lat":41.2235994,"lng":1.2175396},{"id":36775,"name":"Salomó","lat":41.22955,"lng":1.37445},{"id":36777,"name":"Salou","lat":41.07663,"lng":1.14163},{"id":36959,"name":"Sant Carles de la Ràpita","lat":40.61667,"lng":0.6},{"id":152008,"name":"Sant Jaume d'Enveja","lat":40.7059707,"lng":0.7271479},{"id":151983,"name":"Sant Jaume dels Domenys","lat":41.2998213,"lng":1.559006},{"id":37008,"name":"Santa Bárbara","lat":40.71542,"lng":0.49292},{"id":151984,"name":"Santa Coloma de Queralt","lat":41.5322215,"lng":1.3829246},{"id":37095,"name":"Santa Oliva","lat":41.25357,"lng":1.55086},{"id":151985,"name":"Sarral","lat":41.4451459,"lng":1.2475937},{"id":151986,"name":"Savallà del Comtat","lat":41.5430061,"lng":1.2990359},{"id":151987,"name":"Secuita","lat":41.2037974,"lng":1.2811647},{"id":151988,"name":"Selva del Camp","lat":41.2050591,"lng":1.1257082},{"id":151989,"name":"Senan","lat":41.4700596,"lng":1.0875048},{"id":151920,"name":"Sénia","lat":40.6545516,"lng":0.3183792},{"id":151990,"name":"Solivella","lat":41.4558849,"lng":1.1779013},{"id":37383,"name":"Tarragona","lat":41.11667,"lng":1.25},{"id":37433,"name":"Tivenys","lat":40.90787,"lng":0.51236},{"id":151991,"name":"Tivissa","lat":41.0408609,"lng":0.7330858},{"id":151993,"name":"Torre de Espanyol","lat":41.1188827,"lng":1.2444909},{"id":151992,"name":"Torre de Fontaubella","lat":41.1246339,"lng":0.8648324},{"id":37529,"name":"Torredembarra","lat":41.14505,"lng":1.39861},{"id":151994,"name":"Torroja del Priorat","lat":41.2133495,"lng":0.810952},{"id":37597,"name":"Tortosa","lat":40.81249,"lng":0.5216},{"id":37681,"name":"Ulldecona","lat":40.59734,"lng":0.44718},{"id":37682,"name":"Ulldemolins","lat":41.32216,"lng":0.8765},{"id":37842,"name":"Vallclara","lat":41.37958,"lng":0.98342},{"id":151995,"name":"Vallfogona de Riucorb","lat":41.559616,"lng":1.2361706},{"id":37862,"name":"Vallmoll","lat":41.24311,"lng":1.249},{"id":37863,"name":"Valls","lat":41.28612,"lng":1.24993},{"id":151996,"name":"Vandellòs i Hospitalet de Infant","lat":40.9908991,"lng":0.9236691},{"id":151997,"name":"Vendrell","lat":41.2196322,"lng":1.5368985},{"id":151998,"name":"Vespella de Gaià","lat":41.2030695,"lng":1.3607902},{"id":152001,"name":"Vila-rodona","lat":41.3110245,"lng":1.3580958},{"id":37973,"name":"Vila-seca","lat":41.11118,"lng":1.14764},{"id":37974,"name":"Vilabella","lat":41.24779,"lng":1.33019},{"id":152005,"name":"Vilalba dels Arcs","lat":41.1199068,"lng":0.4095728},{"id":151999,"name":"Vilallonga del Camp","lat":41.2099722,"lng":1.2053221},{"id":152000,"name":"Vilanova d'Escornalbou","lat":41.1130584,"lng":0.9372813},{"id":37996,"name":"Vilanova de Prades","lat":41.3485,"lng":0.95667},{"id":38001,"name":"Vilaplana","lat":41.228,"lng":1.03325},{"id":152002,"name":"Vilaverd","lat":41.3356934,"lng":1.1767007},{"id":152006,"name":"Vimbodí i Poblet","lat":41.4008175,"lng":1.0488618},{"id":38393,"name":"Vinebre","lat":41.18464,"lng":0.58945},{"id":152007,"name":"Vinyols i els Arcs","lat":41.1136522,"lng":1.0406382},{"id":151923,"name":"Xerta","lat":40.9084128,"lng":0.489172}]