[{"id":31987,"name":"Ajofrín","lat":39.71088,"lng":-3.9822},{"id":152109,"name":"Alameda de la Sagra","lat":40.0128758,"lng":-3.7955865},{"id":32030,"name":"Albarreal de Tajo","lat":39.89698,"lng":-4.22895},{"id":32064,"name":"Alcabón","lat":40.00224,"lng":-4.36852},{"id":32095,"name":"Alcañizo","lat":39.90315,"lng":-5.10588},{"id":152110,"name":"Alcaudete de la Jara","lat":39.7855952,"lng":-4.8689189},{"id":32106,"name":"Alcolea de Tajo","lat":39.80966,"lng":-5.14738},{"id":152111,"name":"Aldea en Cabo","lat":40.1843925,"lng":-4.4561615},{"id":32157,"name":"Aldeanueva de Barbarroya","lat":39.75934,"lng":-5.02287},{"id":32161,"name":"Aldeanueva de San Bartolomé","lat":39.63608,"lng":-5.11307},{"id":32287,"name":"Almendral de la Cañada","lat":40.18456,"lng":-4.74173},{"id":152112,"name":"Almonacid de Toledo","lat":39.8050183,"lng":-3.8349976},{"id":32307,"name":"Almorox","lat":40.23423,"lng":-4.39044},{"id":32598,"name":"Añover de Tajo","lat":39.98873,"lng":-3.76579},{"id":32432,"name":"Arcicóllar","lat":40.05517,"lng":-4.11638},{"id":152113,"name":"Argés","lat":39.8064459,"lng":-4.0580482},{"id":32592,"name":"Azután","lat":39.78564,"lng":-5.1273},{"id":32658,"name":"Barcience","lat":39.98367,"lng":-4.23437},{"id":32662,"name":"Bargas","lat":39.94113,"lng":-4.01979},{"id":32755,"name":"Belvis de la Jara","lat":39.75768,"lng":-4.94932},{"id":32959,"name":"Borox","lat":40.06795,"lng":-3.73804},{"id":33002,"name":"Buenaventura","lat":40.17705,"lng":-4.85003},{"id":33028,"name":"Burguillos de Toledo","lat":39.79635,"lng":-3.99254},{"id":33033,"name":"Burujón","lat":39.90113,"lng":-4.2973},{"id":33074,"name":"Cabañas de la Sagra","lat":40.0061,"lng":-3.9456},{"id":33073,"name":"Cabañas de Yepes","lat":39.89051,"lng":-3.53502},{"id":33082,"name":"Cabezamesada","lat":39.8163,"lng":-3.10236},{"id":33141,"name":"Calera y Chozas","lat":39.88278,"lng":-4.98213},{"id":33143,"name":"Caleruela","lat":39.87483,"lng":-5.25693},{"id":152114,"name":"Calzada de Oropesa","lat":39.8986152,"lng":-5.2775864},{"id":33164,"name":"Camarena","lat":40.09311,"lng":-4.11927},{"id":33166,"name":"Camarenilla","lat":40.01672,"lng":-4.07624},{"id":33214,"name":"Camuñas","lat":39.42704,"lng":-3.45503},{"id":33303,"name":"Cardiel de los Montes","lat":40.06348,"lng":-4.65488},{"id":33309,"name":"Carmena","lat":39.95562,"lng":-4.40149},{"id":33317,"name":"Carranque","lat":40.16976,"lng":-3.90092},{"id":33327,"name":"Carriches","lat":39.96417,"lng":-4.45864},{"id":33353,"name":"Casarrubios del Monte","lat":40.18697,"lng":-4.03644},{"id":33376,"name":"Casasbuenas","lat":39.76117,"lng":-4.12558},{"id":33462,"name":"Castillo de Bayuela","lat":40.10032,"lng":-4.68562},{"id":33521,"name":"Cazalegas","lat":40.00958,"lng":-4.67606},{"id":33549,"name":"Cebolla","lat":39.94897,"lng":-4.57175},{"id":33557,"name":"Cedillo del Condado","lat":40.1126,"lng":-3.92127},{"id":152118,"name":"Cerralbos Los","lat":39.984366,"lng":-4.5695354},{"id":33599,"name":"Cervera de los Montes","lat":40.05182,"lng":-4.81072},{"id":33647,"name":"Chozas de Canales","lat":40.10014,"lng":-4.04333},{"id":33649,"name":"Chueca","lat":39.73191,"lng":-3.94365},{"id":33686,"name":"Ciruelos","lat":39.93881,"lng":-3.61383},{"id":33707,"name":"Cobeja","lat":40.02076,"lng":-3.85599},{"id":33710,"name":"Cobisa","lat":39.80425,"lng":-4.02528},{"id":33768,"name":"Consuegra","lat":39.46246,"lng":-3.608},{"id":33798,"name":"Corral de Almaguer","lat":39.75987,"lng":-3.16452},{"id":33866,"name":"Cuerva","lat":39.66374,"lng":-4.21085},{"id":33939,"name":"Domingo Pérez","lat":39.97661,"lng":-4.50554},{"id":33951,"name":"Dosbarrios","lat":39.88199,"lng":-3.48419},{"id":152115,"name":"El Campillo de la Jara","lat":39.5899129,"lng":-5.0533632},{"id":152116,"name":"El Carpio de Tajo","lat":39.8881323,"lng":-4.456805},{"id":152117,"name":"El Casar de Escalona","lat":40.0469928,"lng":-4.5225009},{"id":152135,"name":"El Puente del Arzobispo","lat":39.8029636,"lng":-5.1718763},{"id":152136,"name":"El Real de San Vicente","lat":40.1362192,"lng":-4.6902558},{"id":152139,"name":"El Romeral","lat":39.7147641,"lng":-3.4296446},{"id":152142,"name":"El Toboso","lat":39.5139061,"lng":-2.9963089},{"id":152150,"name":"El Viso de San Juan","lat":40.1437281,"lng":-3.9196432},{"id":34072,"name":"Erustes","lat":39.95667,"lng":-4.49656},{"id":34077,"name":"Escalona","lat":40.1669,"lng":-4.40484},{"id":34079,"name":"Escalonilla","lat":39.9257,"lng":-4.35095},{"id":34124,"name":"Espinoso del Rey","lat":39.65333,"lng":-4.78371},{"id":34134,"name":"Esquivias","lat":40.1044,"lng":-3.76677},{"id":34288,"name":"Fuensalida","lat":40.05288,"lng":-4.20718},{"id":34560,"name":"Gálvez","lat":39.70208,"lng":-4.27239},{"id":152120,"name":"Garciotum","lat":40.0989922,"lng":-4.6469723},{"id":34456,"name":"Gerindote","lat":39.96594,"lng":-4.30278},{"id":34527,"name":"Guadamur","lat":39.81178,"lng":-4.14885},{"id":34601,"name":"Herreruela de Oropesa","lat":39.88928,"lng":-5.24279},{"id":34625,"name":"Hinojosa de San Vicente","lat":40.10463,"lng":-4.72269},{"id":34639,"name":"Hontanar","lat":39.61297,"lng":-4.49663},{"id":34656,"name":"Hormigos","lat":40.09778,"lng":-4.44473},{"id":34683,"name":"Huecas","lat":40.0123,"lng":-4.19541},{"id":34688,"name":"Huerta de Valdecarábanos","lat":39.86319,"lng":-3.61275},{"id":34751,"name":"Illán de Vacas","lat":39.97079,"lng":-4.55743},{"id":34748,"name":"Illescas","lat":40.12213,"lng":-3.84704},{"id":152119,"name":"La Estrella","lat":39.6894157,"lng":-5.0965929},{"id":152121,"name":"La Guardia","lat":39.7867949,"lng":-3.4738208},{"id":152123,"name":"La Iglesuela","lat":40.233339,"lng":-4.7497457},{"id":152126,"name":"La Mata","lat":39.9414425,"lng":-4.4375035},{"id":152128,"name":"La Nava de Ricomalillo","lat":39.6378497,"lng":-4.9870491},{"id":152132,"name":"La Puebla de Almoradiel","lat":39.5971578,"lng":-3.1202628},{"id":152133,"name":"La Puebla de Montalbán","lat":39.8643467,"lng":-4.3593301},{"id":152134,"name":"La Pueblanueva","lat":39.9143267,"lng":-4.6769296},{"id":152143,"name":"La Torre de Esteban Hambrán","lat":40.1663643,"lng":-4.2154664},{"id":152147,"name":"La Villa de Don Fadrique","lat":39.6143232,"lng":-3.2169622},{"id":34939,"name":"Lagartera","lat":39.90557,"lng":-5.20143},{"id":152122,"name":"Las Herencias","lat":39.868738,"lng":-4.9214624},{"id":152144,"name":"Las Ventas con Peña Aguilera","lat":39.611218,"lng":-4.2301461},{"id":152145,"name":"Las Ventas de Retamosa","lat":40.1582123,"lng":-4.1462582},{"id":152146,"name":"Las Ventas de San Julián","lat":40.0092343,"lng":-5.2945694},{"id":35006,"name":"Layos","lat":39.77703,"lng":-4.06448},{"id":35050,"name":"Lillo","lat":39.72331,"lng":-3.30618},{"id":35104,"name":"Lominchar","lat":40.09061,"lng":-3.96713},{"id":35154,"name":"Lucillos","lat":39.9851,"lng":-4.61279},{"id":35188,"name":"Madridejos","lat":39.46823,"lng":-3.53196},{"id":35205,"name":"Magán","lat":39.96138,"lng":-3.93164},{"id":152124,"name":"Malpica de Tajo","lat":39.8975511,"lng":-4.5480116},{"id":35269,"name":"Manzaneque","lat":39.63549,"lng":-3.79249},{"id":35273,"name":"Maqueda","lat":40.06614,"lng":-4.37066},{"id":35293,"name":"Marjaliza","lat":39.56329,"lng":-3.93499},{"id":152125,"name":"Marrupe","lat":40.0904912,"lng":-4.7931105},{"id":35318,"name":"Mascaraque","lat":39.71643,"lng":-3.81254},{"id":35352,"name":"Mazarambroz","lat":39.69411,"lng":-4.01962},{"id":35383,"name":"Mejorada","lat":40.00991,"lng":-4.88506},{"id":35397,"name":"Menasalbas","lat":39.63954,"lng":-4.28418},{"id":35706,"name":"Méntrida","lat":40.23899,"lng":-4.19337},{"id":152127,"name":"Mesegar de Tajo","lat":39.926764,"lng":-4.5025129},{"id":35423,"name":"Miguel Esteban","lat":39.52448,"lng":-3.07618},{"id":35460,"name":"Mocejón","lat":39.93934,"lng":-3.91716},{"id":35470,"name":"Mohedas de la Jara","lat":39.60417,"lng":-5.14247},{"id":35545,"name":"Montearagón","lat":39.96425,"lng":-4.63214},{"id":35571,"name":"Montesclaros","lat":40.10646,"lng":-4.93849},{"id":35593,"name":"Mora","lat":39.68492,"lng":-3.77394},{"id":35711,"name":"Nambroca","lat":39.79771,"lng":-3.94434},{"id":35736,"name":"Navahermosa","lat":39.63526,"lng":-4.47012},{"id":35745,"name":"Navalcán","lat":40.06667,"lng":-5.08333},{"id":35753,"name":"Navalmoralejo","lat":39.73929,"lng":-5.14359},{"id":152129,"name":"Navalmorales Los","lat":39.7255072,"lng":-4.6411607},{"id":152130,"name":"Navalucillos Los","lat":39.664984,"lng":-4.6424521},{"id":35763,"name":"Navamorcuende","lat":40.15659,"lng":-4.78625},{"id":35813,"name":"Noblejas","lat":39.98061,"lng":-3.44001},{"id":35814,"name":"Noez","lat":39.74094,"lng":-4.18408},{"id":35822,"name":"Nombela","lat":40.1553,"lng":-4.50223},{"id":35831,"name":"Novés","lat":40.04746,"lng":-4.27471},{"id":35838,"name":"Numancia de la Sagra","lat":40.07395,"lng":-3.85118},{"id":35840,"name":"Nuño Gómez","lat":40.11383,"lng":-4.61978},{"id":35855,"name":"Ocaña","lat":39.95785,"lng":-3.4982},{"id":35919,"name":"Olías del Rey","lat":39.94436,"lng":-3.98684},{"id":35929,"name":"Ontígola","lat":40.00421,"lng":-3.57227},{"id":35947,"name":"Orgaz","lat":39.64826,"lng":-3.87577},{"id":35957,"name":"Oropesa","lat":39.91726,"lng":-5.17371},{"id":35977,"name":"Otero","lat":40.00096,"lng":-4.51539},{"id":36039,"name":"Palomeque","lat":40.11966,"lng":-3.96403},{"id":36049,"name":"Pantoja","lat":40.04336,"lng":-3.8328},{"id":36065,"name":"Paredes de Escalona","lat":40.20472,"lng":-4.4305},{"id":36071,"name":"Parrillas","lat":40.06225,"lng":-5.0639},{"id":36119,"name":"Pelahustán","lat":40.17599,"lng":-4.59842},{"id":152131,"name":"Pepino","lat":40.0325745,"lng":-4.8021761},{"id":36266,"name":"Polán","lat":39.78765,"lng":-4.16792},{"id":36293,"name":"Portillo de Toledo","lat":40.06415,"lng":-4.22793},{"id":36452,"name":"Puerto de San Vicente","lat":39.52283,"lng":-5.11407},{"id":36467,"name":"Pulgar","lat":39.69383,"lng":-4.15233},{"id":36495,"name":"Quero","lat":39.51111,"lng":-3.24741},{"id":36511,"name":"Quintanar de la Orden","lat":39.59369,"lng":-3.04165},{"id":36531,"name":"Quismondo","lat":40.10533,"lng":-4.32394},{"id":36557,"name":"Recas","lat":40.05286,"lng":-3.9909},{"id":152137,"name":"Retamoso de la Jara","lat":39.7433855,"lng":-4.7555688},{"id":36623,"name":"Rielves","lat":39.96206,"lng":-4.193},{"id":152138,"name":"Robledo del Mazo","lat":39.6097501,"lng":-4.9058888},{"id":36811,"name":"San Bartolomé de las Abiertas","lat":39.82972,"lng":-4.71901},{"id":36865,"name":"San Martín de Montalbán","lat":39.70186,"lng":-4.38796},{"id":36866,"name":"San Martín de Pusa","lat":39.78404,"lng":-4.63252},{"id":152140,"name":"San Pablo de los Montes","lat":39.5416294,"lng":-4.3321114},{"id":152141,"name":"San Román de los Montes","lat":40.0674417,"lng":-4.7322334},{"id":37005,"name":"Santa Ana de Pusa","lat":39.76238,"lng":-4.70904},{"id":37042,"name":"Santa Cruz de la Zarza","lat":39.98104,"lng":-3.18787},{"id":37044,"name":"Santa Cruz del Retamar","lat":40.11917,"lng":-4.24158},{"id":37092,"name":"Santa Olalla","lat":40.02348,"lng":-4.43025},{"id":152153,"name":"Santo Domingo-Caudilla","lat":40.0193701,"lng":-4.3018169},{"id":37175,"name":"Sartajada","lat":40.2132,"lng":-4.79427},{"id":37199,"name":"Segurilla","lat":40.02386,"lng":-4.86418},{"id":37231,"name":"Seseña","lat":40.10473,"lng":-3.69793},{"id":37241,"name":"Sevilleja de la Jara","lat":39.57488,"lng":-4.96387},{"id":37294,"name":"Sonseca","lat":39.67747,"lng":-3.97448},{"id":37315,"name":"Sotillo de las Palomas","lat":40.10359,"lng":-4.82736},{"id":37358,"name":"Talavera de la Reina","lat":39.96348,"lng":-4.83076},{"id":37401,"name":"Tembleque","lat":39.69541,"lng":-3.50429},{"id":37443,"name":"Toledo","lat":39.8581,"lng":-4.02263},{"id":37481,"name":"Torralba de Oropesa","lat":39.93384,"lng":-5.15404},{"id":37517,"name":"Torrecilla de la Jara","lat":39.70425,"lng":-4.77186},{"id":37585,"name":"Torrico","lat":39.82918,"lng":-5.22581},{"id":37589,"name":"Torrijos","lat":39.98195,"lng":-4.28349},{"id":37607,"name":"Totanés","lat":39.71057,"lng":-4.22655},{"id":37655,"name":"Turleque","lat":39.60138,"lng":-3.61404},{"id":37674,"name":"Ugena","lat":40.15572,"lng":-3.87603},{"id":37690,"name":"Urda","lat":39.41179,"lng":-3.71493},{"id":37806,"name":"Valdeverdeja","lat":39.79635,"lng":-5.24544},{"id":37869,"name":"Valmojado","lat":40.20444,"lng":-4.09146},{"id":37922,"name":"Velada","lat":39.97687,"lng":-4.97641},{"id":38028,"name":"Villacañas","lat":39.62367,"lng":-3.33813},{"id":38061,"name":"Villafranca de los Caballeros","lat":39.42824,"lng":-3.36079},{"id":152148,"name":"Villaluenga de la Sagra","lat":40.0270069,"lng":-3.9100897},{"id":38155,"name":"Villamiel de Toledo","lat":39.96482,"lng":-4.12627},{"id":38157,"name":"Villaminaya","lat":39.71197,"lng":-3.87055},{"id":38163,"name":"Villamuelas","lat":39.81784,"lng":-3.73461},{"id":38169,"name":"Villanueva de Alcardete","lat":39.67321,"lng":-3.01445},{"id":38175,"name":"Villanueva de Bogas","lat":39.72347,"lng":-3.65743},{"id":38272,"name":"Villarejo de Montalbán","lat":39.76913,"lng":-4.57314},{"id":38302,"name":"Villarrubia de Santiago","lat":39.98555,"lng":-3.36898},{"id":38321,"name":"Villaseca de la Sagra","lat":39.96185,"lng":-3.88291},{"id":152149,"name":"Villasequilla","lat":39.8738761,"lng":-3.7320845},{"id":38330,"name":"Villatobas","lat":39.90187,"lng":-3.32386},{"id":152151,"name":"Yébenes Los","lat":39.5811405,"lng":-3.8693481},{"id":38433,"name":"Yeles","lat":40.12035,"lng":-3.80487},{"id":38435,"name":"Yepes","lat":39.90199,"lng":-3.62517},{"id":38439,"name":"Yuncler","lat":40.04079,"lng":-3.89979},{"id":152152,"name":"Yunclillos","lat":40.0217589,"lng":-3.9891183},{"id":38440,"name":"Yuncos","lat":40.0859,"lng":-3.87106}]