[{"id":21641,"name":"Abangares","lat":10.21667,"lng":-85.0},{"id":21648,"name":"Bagaces","lat":10.5,"lng":-85.25},{"id":21651,"name":"Belén","lat":10.40789,"lng":-85.58836},{"id":21660,"name":"Cañas","lat":10.48005,"lng":-85.11349},{"id":21657,"name":"Carrillo","lat":10.41667,"lng":-85.58333},{"id":21680,"name":"Fortuna","lat":10.67384,"lng":-85.19984},{"id":21691,"name":"Hojancha","lat":9.96667,"lng":-85.41667},{"id":21695,"name":"Juntas","lat":10.28089,"lng":-84.95951},{"id":21697,"name":"La Cruz","lat":11.0,"lng":-85.58333},{"id":21702,"name":"Liberia","lat":10.63504,"lng":-85.43772},{"id":21714,"name":"Nandayure","lat":9.91667,"lng":-85.28333},{"id":21716,"name":"Nicoya","lat":10.08333,"lng":-85.5},{"id":21784,"name":"Sámara","lat":9.88147,"lng":-85.52809},{"id":21776,"name":"Santa Cruz","lat":10.25,"lng":-85.66667},{"id":21781,"name":"Sardinal","lat":10.51674,"lng":-85.64748},{"id":21789,"name":"Tilarán","lat":10.45878,"lng":-84.97513}]