[{"id":21650,"name":"Batán","lat":10.08354,"lng":-83.33413},{"id":21688,"name":"Guácimo","lat":10.2,"lng":-83.66667},{"id":21689,"name":"Guápiles","lat":10.21682,"lng":-83.78483},{"id":21703,"name":"Limón","lat":9.99074,"lng":-83.03596},{"id":21706,"name":"Matina","lat":10.0,"lng":-83.25},{"id":21730,"name":"Pococí","lat":10.5,"lng":-83.63333},{"id":21731,"name":"Pocora","lat":10.17185,"lng":-83.60439},{"id":21740,"name":"Roxana","lat":10.26712,"lng":-83.7511},{"id":21782,"name":"Siquirres","lat":10.11667,"lng":-83.5},{"id":21783,"name":"Sixaola","lat":9.52766,"lng":-82.62185},{"id":21785,"name":"Talamanca","lat":9.5,"lng":-83.08333}]