[{"id":21642,"name":"Acosta","lat":9.8,"lng":-84.2},{"id":21644,"name":"Alajuelita","lat":9.9,"lng":-84.1},{"id":21646,"name":"Aserrí","lat":9.86667,"lng":-84.1},{"id":21655,"name":"Calle Blancos","lat":9.95,"lng":-84.06667},{"id":21663,"name":"Colima","lat":9.95091,"lng":-84.08503},{"id":21664,"name":"Colón","lat":9.91491,"lng":-84.2417},{"id":21670,"name":"Curridabat","lat":9.91667,"lng":-84.03333},{"id":21671,"name":"Daniel Flores","lat":9.33554,"lng":-83.6694},{"id":21673,"name":"Desamparados","lat":9.9,"lng":-84.06667},{"id":21674,"name":"Dota","lat":9.65,"lng":-83.95},{"id":21676,"name":"Escazú","lat":9.93333,"lng":-84.13333},{"id":21682,"name":"Goicoechea","lat":9.94848,"lng":-84.06365},{"id":21684,"name":"Granadilla","lat":9.93491,"lng":-84.01688},{"id":21686,"name":"Guadalupe","lat":9.94805,"lng":-84.05665},{"id":21692,"name":"Ipís","lat":9.96745,"lng":-84.01326},{"id":21701,"name":"León Cortés","lat":9.683,"lng":-84.04781},{"id":21707,"name":"Mercedes","lat":9.2627,"lng":-83.58202},{"id":21710,"name":"Montes de Oca","lat":9.9396,"lng":-84.03013},{"id":21712,"name":"Mora","lat":9.91667,"lng":-84.25},{"id":21713,"name":"Moravia","lat":10.04,"lng":-84.0},{"id":21723,"name":"Palmichal","lat":9.83778,"lng":-84.20478},{"id":21727,"name":"Patarrá","lat":9.88071,"lng":-84.03501},{"id":21737,"name":"Pérez Zeledón","lat":9.35473,"lng":-83.63484},{"id":21735,"name":"Puriscal","lat":9.75,"lng":-84.41667},{"id":21736,"name":"Purral","lat":9.95808,"lng":-84.0305},{"id":21743,"name":"Sabanilla","lat":9.94522,"lng":-84.03927},{"id":21744,"name":"Salitral","lat":9.91163,"lng":-84.17835},{"id":21745,"name":"Salitrillos","lat":9.85259,"lng":-84.09062},{"id":21749,"name":"San Felipe","lat":9.90488,"lng":-84.10551},{"id":21751,"name":"San Ignacio","lat":9.79853,"lng":-84.16173},{"id":21752,"name":"San Isidro","lat":9.3674,"lng":-83.69713},{"id":21756,"name":"San José","lat":9.93333,"lng":-84.08333},{"id":21757,"name":"San Juan","lat":9.95974,"lng":-84.08165},{"id":21759,"name":"San Juan de Dios","lat":9.8773,"lng":-84.0847},{"id":21760,"name":"San Marcos","lat":9.6601,"lng":-84.02026},{"id":21762,"name":"San Miguel","lat":9.87121,"lng":-84.06084},{"id":21764,"name":"San Pedro","lat":9.92829,"lng":-84.05074},{"id":21765,"name":"San Rafael","lat":9.92787,"lng":-84.13722},{"id":21768,"name":"San Rafael Abajo","lat":9.831,"lng":-84.29008},{"id":21769,"name":"San Rafael Arriba","lat":9.87556,"lng":-84.07661},{"id":21771,"name":"San Vicente","lat":9.96016,"lng":-84.04762},{"id":21772,"name":"San Vicente de Moravia","lat":9.96164,"lng":-84.0488},{"id":21774,"name":"Santa Ana","lat":9.9326,"lng":-84.18255},{"id":21778,"name":"Santiago","lat":9.84636,"lng":-84.31428},{"id":21786,"name":"Tarrazú","lat":9.65965,"lng":-84.02138},{"id":21787,"name":"Tejar","lat":9.74622,"lng":-84.23368},{"id":21788,"name":"Tibás","lat":9.96667,"lng":-84.08333},{"id":21794,"name":"Turrubares","lat":9.75,"lng":-84.5},{"id":21797,"name":"Vázquez de Coronado","lat":10.06,"lng":-84.0}]