[{"id":9816,"name":"Bandar Seri Begawan","lat":4.89035,"lng":114.94006},{"id":9818,"name":"Berakas A","lat":4.97032,"lng":114.92989},{"id":9819,"name":"Kapok","lat":5.02447,"lng":115.04664},{"id":9821,"name":"Mentiri","lat":4.97058,"lng":115.02078},{"id":9822,"name":"Serasa","lat":5.01718,"lng":115.05841}]