[{"id":130759,"name":"Al ‘Udayn","lat":13.96112,"lng":43.96608},{"id":130685,"name":"Al Dhihar","lat":13.979,"lng":44.1526},{"id":130716,"name":"Al Makhādir","lat":14.13965,"lng":44.2033},{"id":130723,"name":"Al Mashannah","lat":13.9573,"lng":44.17},{"id":130746,"name":"Al Qafr","lat":14.3129,"lng":44.03},{"id":130764,"name":"An Nādirah","lat":14.07398,"lng":44.49925},{"id":130765,"name":"Ar Radmah","lat":14.212,"lng":44.5642},{"id":130772,"name":"As Sabrah","lat":13.8427,"lng":44.3386},{"id":130773,"name":"As Saddah","lat":14.1661,"lng":44.3751},{"id":130782,"name":"As Sayyani","lat":13.8224,"lng":44.2118},{"id":130786,"name":"Ash Sha'ir","lat":14.0318,"lng":44.3619},{"id":130810,"name":"Ba'dan","lat":13.9887,"lng":44.3236},{"id":130839,"name":"Dhī as Sufāl","lat":13.82137,"lng":44.07775},{"id":130841,"name":"Far Al Udayn","lat":13.9578,"lng":43.7827},{"id":130864,"name":"Hazm Al Udayn","lat":14.16984,"lng":43.93814},{"id":130867,"name":"Hubaysh","lat":14.116,"lng":44.0824},{"id":130871,"name":"Ibb","lat":13.96667,"lng":44.18333},{"id":130882,"name":"Jiblah","lat":13.9148,"lng":44.1213},{"id":130927,"name":"Mudhaykhirah","lat":13.86608,"lng":43.96866},{"id":131005,"name":"Yarīm","lat":14.25388,"lng":44.31176}]