[{"id":130696,"name":"Al Haymah Ad Dakhiliyah","lat":15.2722,"lng":43.8393},{"id":130697,"name":"Al Haymah Al Kharijiyah","lat":15.0267,"lng":43.85},{"id":130700,"name":"Al Husn","lat":15.0206,"lng":44.5044},{"id":130707,"name":"Al Khāniq","lat":15.50253,"lng":44.18158},{"id":130770,"name":"Arhab","lat":15.7995,"lng":44.2466},{"id":130802,"name":"Attyal","lat":15.32931,"lng":44.57739},{"id":130813,"name":"Bani Dhabyan","lat":15.0481,"lng":44.8718},{"id":130814,"name":"Bani Hushaysh","lat":15.4505,"lng":44.3782},{"id":130815,"name":"Bani Matar","lat":15.215,"lng":44.0498},{"id":130825,"name":"Bilad Ar Rus","lat":15.0351,"lng":44.2514},{"id":130853,"name":"Hamdān","lat":15.50662,"lng":44.0603},{"id":130883,"name":"Jihanah","lat":15.1919,"lng":44.5195},{"id":130892,"name":"Khwlan","lat":15.2749,"lng":44.7686},{"id":130909,"name":"Manakhah","lat":15.0717,"lng":43.6862},{"id":130937,"name":"Nihm","lat":15.7516,"lng":44.5746},{"id":130958,"name":"Sa'fan","lat":15.0712,"lng":43.5827},{"id":130971,"name":"Saḩar","lat":15.31637,"lng":44.3088},{"id":130965,"name":"Sanhan","lat":15.2252,"lng":44.3057},{"id":130970,"name":"Sayyān","lat":15.17177,"lng":44.32442}]