[{"id":130758,"name":"Al ‘Inān","lat":16.72189,"lng":44.31252},{"id":130688,"name":"Al Ghayl","lat":16.0914,"lng":44.6852},{"id":130698,"name":"Al Hazm","lat":16.0378,"lng":44.9585},{"id":130699,"name":"Al Humaydat","lat":16.4667,"lng":44.4299},{"id":130706,"name":"Al Khalq","lat":16.0681,"lng":44.797},{"id":130725,"name":"Al Maslub","lat":16.0961,"lng":44.5667},{"id":130726,"name":"Al Matammah","lat":16.1984,"lng":44.3902},{"id":130727,"name":"Al Maton","lat":16.2872,"lng":44.6389},{"id":130821,"name":"Barţ al ‘Anān","lat":16.91972,"lng":44.51882},{"id":130885,"name":"Khabb wa ash Sha'af","lat":16.5975,"lng":45.7853},{"id":130888,"name":"Kharab Al Marashi","lat":16.6107,"lng":44.2255},{"id":130950,"name":"Rajuzah","lat":16.6342,"lng":44.5042}]