[{"id":130664,"name":"Abs","lat":16.0215,"lng":43.0485},{"id":130671,"name":"Aflah Al Yaman","lat":15.9789,"lng":43.4111},{"id":130672,"name":"Aflah Ash Shawm","lat":16.0528,"lng":43.412},{"id":130703,"name":"Al Jamimah","lat":16.0284,"lng":43.5297},{"id":130712,"name":"Al Maghrabah","lat":15.8937,"lng":43.6091},{"id":130713,"name":"Al Mahabishah","lat":15.9287,"lng":43.448},{"id":130730,"name":"Al Miftah","lat":15.961,"lng":43.5147},{"id":130787,"name":"Ash Shaghadirah","lat":15.6061,"lng":43.4992},{"id":130788,"name":"Ash Shahil","lat":15.8553,"lng":43.4516},{"id":130795,"name":"Aslem","lat":16.06,"lng":43.2939},{"id":130811,"name":"Bakil Al Mir","lat":16.5069,"lng":43.3615},{"id":130819,"name":"Banī al ‘Awwām","lat":15.58119,"lng":43.58727},{"id":130812,"name":"Bani Al Awam","lat":15.581,"lng":43.6079},{"id":130816,"name":"Bani Qa'is","lat":15.6346,"lng":43.3372},{"id":130850,"name":"Hajjah","lat":15.6816,"lng":43.44996},{"id":130854,"name":"Harad","lat":16.40447,"lng":43.07739},{"id":130862,"name":"Hayran","lat":16.2508,"lng":43.0599},{"id":130890,"name":"Khayran Al Muharraq","lat":16.08964,"lng":43.35755},{"id":130895,"name":"Ku'aydinah","lat":15.8183,"lng":43.3599},{"id":130896,"name":"Kuhlan Affar","lat":15.7554,"lng":43.697},{"id":130897,"name":"Kuhlan Ash Sharaf","lat":16.0231,"lng":43.4863},{"id":130898,"name":"Kushar","lat":16.1709,"lng":43.472},{"id":130903,"name":"Mabyan","lat":15.7717,"lng":43.551},{"id":130924,"name":"Midi","lat":16.19202,"lng":42.88913},{"id":130931,"name":"Mustaba","lat":16.2736,"lng":43.2685},{"id":130935,"name":"Najrah","lat":15.6527,"lng":43.5452},{"id":130939,"name":"Qafl Shamer","lat":15.9087,"lng":43.364},{"id":130941,"name":"Qarah","lat":16.4019,"lng":43.474},{"id":130978,"name":"Sharas","lat":15.7286,"lng":43.6546},{"id":130996,"name":"Wadhrah","lat":15.7142,"lng":43.4667},{"id":130999,"name":"Washḩah","lat":16.32158,"lng":43.37555}]