[{"id":130684,"name":"Al Dhaher","lat":16.7314,"lng":43.2753},{"id":130694,"name":"Al Hashwah","lat":16.8884,"lng":44.2738},{"id":130774,"name":"As Safra","lat":17.0142,"lng":43.8566},{"id":130792,"name":"Ash Shawātī","lat":16.78314,"lng":43.81265},{"id":130820,"name":"Baqim","lat":17.3781,"lng":43.4635},{"id":130842,"name":"Ghamr","lat":16.98301,"lng":43.31608},{"id":130860,"name":"Haydan","lat":16.7287,"lng":43.4849},{"id":130894,"name":"Kitaf wa Al Boqe'e","lat":17.0808,"lng":44.3962},{"id":130906,"name":"Majz","lat":17.0923,"lng":43.5104},{"id":130926,"name":"Monabbih","lat":17.1693,"lng":43.2791},{"id":130942,"name":"Qatabir","lat":17.3368,"lng":43.3311},{"id":130956,"name":"Rāziḩ","lat":16.93704,"lng":43.2608},{"id":130957,"name":"Sa'dah","lat":16.94021,"lng":43.76393},{"id":131010,"name":"Şa‘dah","lat":16.91733,"lng":43.76},{"id":130972,"name":"Saḩār","lat":16.88522,"lng":43.68306},{"id":130966,"name":"Saqayn","lat":16.8601,"lng":43.4716},{"id":130973,"name":"Shada'a","lat":16.8913,"lng":43.1871}]