[{"id":144334,"name":"Amas","lat":7.05694444,"lng":124.98388889},{"id":144335,"name":"Bagontapay","lat":6.85888889,"lng":124.90888889},{"id":144336,"name":"Baguer","lat":7.25611111,"lng":124.50416667},{"id":144338,"name":"Baliton","lat":5.74361111,"lng":125.23638889},{"id":144339,"name":"Balogo","lat":7.28222222,"lng":124.46388889},{"id":144340,"name":"Banawa","lat":7.15361111,"lng":124.86666667},{"id":144344,"name":"Bantogon","lat":6.53333333,"lng":124.03333333},{"id":144345,"name":"Barongis","lat":7.26111111,"lng":124.56416667},{"id":144346,"name":"Basak","lat":6.72722222,"lng":124.15111111},{"id":144347,"name":"Batasan","lat":7.03333333,"lng":125.05},{"id":144348,"name":"Batutitik","lat":6.22333333,"lng":125.25194444},{"id":144349,"name":"Bau","lat":7.40527778,"lng":124.64972222},{"id":144350,"name":"Bayasong","lat":6.64888889,"lng":124.87305556},{"id":144351,"name":"Bialong","lat":6.98055556,"lng":124.88888889},{"id":144354,"name":"Buadtasan","lat":6.005,"lng":124.61277778},{"id":144355,"name":"Bual","lat":6.79583333,"lng":124.91083333},{"id":144357,"name":"Buayan","lat":6.11638889,"lng":125.23472222},{"id":144360,"name":"Bulatukan","lat":6.9025,"lng":125.16083333},{"id":144361,"name":"Burias","lat":5.71777778,"lng":125.25361111},{"id":144365,"name":"Cebuano","lat":6.38805556,"lng":124.96833333},{"id":144366,"name":"City of Kidapawan","lat":7.03333,"lng":125.08333},{"id":144367,"name":"City of Koronadal","lat":6.49162,"lng":124.8884},{"id":144368,"name":"City of Tacurong","lat":6.69133,"lng":124.673},{"id":144369,"name":"Colongolo","lat":6.33861111,"lng":124.72166667},{"id":143935,"name":"Daliao","lat":5.86111111,"lng":124.95333333},{"id":143936,"name":"Damawato","lat":6.7,"lng":124.78333333},{"id":143939,"name":"Dualing","lat":7.15166667,"lng":124.56833333},{"id":143941,"name":"Dunguan","lat":6.94972222,"lng":124.86083333},{"id":143946,"name":"Glad","lat":7.14833333,"lng":124.51805556},{"id":143947,"name":"Glamang","lat":6.1625,"lng":125.08388889},{"id":143949,"name":"Glan Peidu","lat":5.855,"lng":125.21861111},{"id":143950,"name":"Gocoton","lat":7.15611111,"lng":124.69111111},{"id":143952,"name":"Ilaya","lat":5.81527778,"lng":125.22666667},{"id":143955,"name":"Kabalen","lat":6.31944444,"lng":125.01055556},{"id":143956,"name":"Kablalan","lat":5.77972222,"lng":125.19777778},{"id":143957,"name":"Kalaisan","lat":7.01027778,"lng":125.045},{"id":143958,"name":"Kalamangog","lat":6.72555556,"lng":124.06888889},{"id":143960,"name":"Kamanga","lat":5.85777778,"lng":125.05611111},{"id":143961,"name":"Kapatan","lat":5.90055556,"lng":125.2375},{"id":143964,"name":"Katubao","lat":5.88916667,"lng":124.82944444},{"id":143968,"name":"Kisante","lat":6.92305556,"lng":125.155},{"id":143969,"name":"Kiupo","lat":5.84166667,"lng":125.31916667},{"id":143970,"name":"Klinan","lat":6.18694444,"lng":125.13694444},{"id":143971,"name":"Kling","lat":5.93805556,"lng":124.72472222},{"id":143974,"name":"Kulaman","lat":8.2395023,"lng":125.2648432},{"id":143975,"name":"Labu-o","lat":7.11416667,"lng":125.04527778},{"id":143980,"name":"Lambontong","lat":6.30833333,"lng":124.81055556},{"id":143981,"name":"Lamian","lat":6.30916667,"lng":124.84638889},{"id":143983,"name":"Lampitak","lat":6.43222222,"lng":125.0525},{"id":143988,"name":"Liberty","lat":8.1618929,"lng":125.1271371},{"id":143991,"name":"Liliongan","lat":7.36277778,"lng":124.79277778},{"id":143992,"name":"Limbalod","lat":7.13277778,"lng":124.79888889},{"id":143993,"name":"Limulan","lat":6.58527778,"lng":124.06194444},{"id":143995,"name":"Linao","lat":7.16777778,"lng":124.9675},{"id":143997,"name":"Lumatil","lat":5.87472222,"lng":124.88833333},{"id":143998,"name":"Lumazal","lat":5.88527778,"lng":124.84944444},{"id":143999,"name":"Lumuyon","lat":5.91583333,"lng":124.78694444},{"id":144000,"name":"Lun Pequeño","lat":6.03777778,"lng":125.28388889},{"id":144001,"name":"Lunen","lat":6.35916667,"lng":124.90472222},{"id":144003,"name":"M'lang","lat":6.95,"lng":124.88333333},{"id":144005,"name":"Maan","lat":5.93388889,"lng":124.73555556},{"id":144007,"name":"Mabay","lat":6.05777778,"lng":124.46666667},{"id":144010,"name":"Maguling","lat":6.095,"lng":124.40333333},{"id":144015,"name":"Malamote","lat":7.07388889,"lng":124.94},{"id":144017,"name":"Malapag","lat":7.13333333,"lng":124.81666667},{"id":144019,"name":"Malasila","lat":6.94388889,"lng":125.12944444},{"id":144020,"name":"Malbang","lat":5.85555556,"lng":125.04527778},{"id":144021,"name":"Malingao","lat":7.16083333,"lng":124.475},{"id":144022,"name":"Malisbeng","lat":6.12,"lng":124.35472222},{"id":144023,"name":"Malitubog","lat":7.31555556,"lng":124.63805556},{"id":144027,"name":"Manaulanan","lat":7.04805556,"lng":124.61944444},{"id":144028,"name":"Manga","lat":6.29083333,"lng":125.30833333},{"id":144029,"name":"Manuangan","lat":7.27694444,"lng":124.40444444},{"id":144030,"name":"Manuel Roxas","lat":7.9052654,"lng":125.0922924},{"id":144031,"name":"Marbel","lat":7.11583333,"lng":124.9125},{"id":144032,"name":"Mariano Marcos","lat":6.73333,"lng":124.65},{"id":144036,"name":"Minapan","lat":6.815,"lng":124.85861111},{"id":144037,"name":"Mindupok","lat":6.09055556,"lng":124.42333333},{"id":144038,"name":"Nalus","lat":6.01222222,"lng":124.58527778},{"id":144039,"name":"New Cebu","lat":7.09527778,"lng":125.03361111},{"id":144040,"name":"New Iloilo","lat":7.7118183,"lng":124.8210879},{"id":144043,"name":"Noling","lat":6.65972222,"lng":124.09972222},{"id":144046,"name":"Osias","lat":7.6,"lng":124.81666667},{"id":144047,"name":"Paatan","lat":7.11972222,"lng":124.92388889},{"id":144049,"name":"Pagangan","lat":7.11444444,"lng":124.59527778},{"id":144052,"name":"Palkan","lat":6.29638889,"lng":125.03166667},{"id":144055,"name":"Pangyan","lat":5.70083333,"lng":125.28111111},{"id":144057,"name":"Patindeguen","lat":7.21972222,"lng":124.49833333},{"id":144058,"name":"Pedtad","lat":7.16055556,"lng":124.81444444},{"id":144062,"name":"Pimbalayan","lat":6.86916667,"lng":124.6725},{"id":144063,"name":"Polo","lat":6.26472222,"lng":125.1125},{"id":144068,"name":"Puloypuloy","lat":6.63527778,"lng":124.09611111},{"id":144069,"name":"Punolu","lat":7.05,"lng":124.58333333},{"id":144070,"name":"Puricay","lat":6.68611111,"lng":124.06944444},{"id":144071,"name":"Ragandang","lat":6.66388889,"lng":124.12055556},{"id":144072,"name":"Rotunda","lat":7.9835053,"lng":125.0077156},{"id":144074,"name":"Saguing","lat":6.98027778,"lng":125.07805556},{"id":144075,"name":"Salimbao","lat":7.2225,"lng":124.25333333},{"id":144076,"name":"Salunayan","lat":7.15444444,"lng":124.4975},{"id":144077,"name":"Sampao","lat":6.87666667,"lng":124.59555556},{"id":144078,"name":"San Miguel","lat":6.49245,"lng":124.69643},{"id":144079,"name":"San Vicente","lat":6.45375,"lng":124.78005},{"id":144083,"name":"Sañgay","lat":6.445,"lng":124.04444444},{"id":144080,"name":"Santo Niño","lat":6.45733,"lng":124.66819},{"id":144082,"name":"Sapu Padidu","lat":5.91722222,"lng":125.26694444},{"id":144084,"name":"Sebu","lat":6.22482,"lng":124.71042},{"id":144085,"name":"Silway 7","lat":6.17722222,"lng":125.12055556},{"id":144086,"name":"Sinolon","lat":6.24388889,"lng":124.81444444},{"id":144087,"name":"Sulit","lat":6.23611111,"lng":125.02055556},{"id":144089,"name":"Suyan","lat":6.06027778,"lng":125.38527778},{"id":144090,"name":"T'boli","lat":6.15,"lng":124.78333},{"id":144092,"name":"Taguisa","lat":6.69833333,"lng":124.03583333},{"id":144093,"name":"Taluya","lat":5.81166667,"lng":125.17277778},{"id":144095,"name":"Tambilil","lat":5.96222222,"lng":124.66972222},{"id":144099,"name":"Tañgo","lat":5.88083333,"lng":125.22194444},{"id":144101,"name":"Teresita","lat":8.26147,"lng":124.27934},{"id":144102,"name":"Tinoto","lat":5.88666667,"lng":125.07055556},{"id":144103,"name":"Tomado","lat":7.1925,"lng":124.60805556},{"id":144104,"name":"Tran","lat":6.72027778,"lng":124.055},{"id":144108,"name":"Tuyan","lat":6.0,"lng":125.28333333},{"id":144109,"name":"Upper Klinan","lat":6.22722222,"lng":125.12083333},{"id":144110,"name":"Upper San Mateo","lat":7.17305556,"lng":124.58222222}]