[{"id":145101,"name":"Aglipay","lat":16.4411345,"lng":121.5332441},{"id":145153,"name":"Cabarroguis","lat":16.4462278,"lng":121.4172467},{"id":145181,"name":"Diffun","lat":16.5343688,"lng":121.3134201},{"id":145229,"name":"Maddela","lat":16.3787689,"lng":121.4568842},{"id":145254,"name":"Nagtipunan","lat":16.1393277,"lng":121.2289419},{"id":145281,"name":"Saguday","lat":16.5551493,"lng":121.499215}]