[{"id":82509,"name":"Enrique Villanueva","lat":9.2585055,"lng":123.5946455},{"id":154800,"name":"Larena","lat":9.2475335,"lng":123.5578671},{"id":83058,"name":"Lazi","lat":9.1459811,"lng":123.5364492},{"id":154801,"name":"Maria","lat":9.1772124,"lng":123.6170901},{"id":154802,"name":"San Juan","lat":9.1473799,"lng":123.424569},{"id":84827,"name":"Siquijor","lat":9.191738,"lng":123.4434089}]