[{"id":144610,"name":"Andalan","lat":5.95944444,"lng":121.39027778},{"id":144611,"name":"Anuling","lat":6.03555556,"lng":121.00666667},{"id":144612,"name":"Awang","lat":7.15305556,"lng":124.22111111},{"id":144613,"name":"Bacayawan","lat":7.76666667,"lng":124.23333333},{"id":144614,"name":"Bacolod Grande","lat":7.88333,"lng":124.11667},{"id":144616,"name":"Badak","lat":6.84722222,"lng":124.72055556},{"id":144617,"name":"Bagan","lat":6.92555556,"lng":124.42027778},{"id":144628,"name":"Baka","lat":7.27611111,"lng":124.26416667},{"id":144629,"name":"Bakung","lat":4.89111111,"lng":119.79416667},{"id":144631,"name":"Balas","lat":6.6875,"lng":122.13805556},{"id":144634,"name":"Bangkal","lat":6.06666667,"lng":121.06666667},{"id":144636,"name":"Bankaw","lat":5.01916667,"lng":120.00916667},{"id":144638,"name":"Barurao","lat":6.89805556,"lng":124.5975},{"id":144639,"name":"Bato Bato","lat":6.03444444,"lng":120.94638889},{"id":144640,"name":"Baunu-Timbangan","lat":6.00555556,"lng":120.99416667},{"id":144641,"name":"Bawison","lat":5.9375,"lng":120.87444444},{"id":144643,"name":"Bayanga","lat":7.52138889,"lng":124.25222222},{"id":144644,"name":"Begang","lat":6.69083333,"lng":122.01666667},{"id":144646,"name":"Binuang","lat":5.95694444,"lng":121.06},{"id":144647,"name":"Blinsung","lat":7.01805556,"lng":124.18055556},{"id":144649,"name":"Bongued","lat":7.11666667,"lng":124.4},{"id":144651,"name":"Bualan","lat":7.75,"lng":124.26666667},{"id":144653,"name":"Buan","lat":5.16083333,"lng":120.0425},{"id":144655,"name":"Buansa","lat":6.02583333,"lng":120.96138889},{"id":144657,"name":"Budta","lat":7.20416667,"lng":124.43972222},{"id":144668,"name":"Bugasan","lat":7.44083333,"lng":124.25916667},{"id":144670,"name":"Buliok","lat":7.01666667,"lng":124.7},{"id":144671,"name":"Bulit","lat":7.11527778,"lng":124.78944444},{"id":144674,"name":"Cagayan de Tawi-Tawi","lat":7.01667,"lng":118.46667},{"id":144677,"name":"Colonia","lat":6.64361111,"lng":122.1575},{"id":144678,"name":"Dado","lat":7.05,"lng":124.45972222},{"id":144679,"name":"Dadus","lat":7.0575,"lng":124.32166667},{"id":144680,"name":"Dalican","lat":6.96666667,"lng":124.4},{"id":144681,"name":"Dalumangcob","lat":7.21666667,"lng":124.3},{"id":144682,"name":"Damabalas","lat":7.01555556,"lng":124.51416667},{"id":144683,"name":"Damatulan","lat":7.03888889,"lng":124.48277778},{"id":144688,"name":"Digal","lat":6.75305556,"lng":124.79638889},{"id":144689,"name":"Dinaig","lat":7.08333,"lng":124.26667},{"id":144690,"name":"Dinganen","lat":7.32833333,"lng":124.37833333},{"id":144692,"name":"Ebcor Town","lat":7.44055556,"lng":124.39722222},{"id":144695,"name":"Gang","lat":7.24583333,"lng":124.26638889},{"id":144696,"name":"Guiong","lat":6.41861111,"lng":122.02583333},{"id":144528,"name":"Idtig","lat":6.79888889,"lng":124.77277778},{"id":144532,"name":"Kabasalan","lat":7.06666667,"lng":124.65},{"id":144534,"name":"Kagay","lat":6.00888889,"lng":120.9075},{"id":144535,"name":"Kajatian","lat":6.03111111,"lng":120.99194444},{"id":144536,"name":"Kalang","lat":5.91972222,"lng":121.36305556},{"id":144537,"name":"Kalbugan","lat":6.95972222,"lng":124.65916667},{"id":144539,"name":"Kambing","lat":5.94638889,"lng":121.3075},{"id":144540,"name":"Kanlagay","lat":5.87555556,"lng":121.29138889},{"id":144541,"name":"Kansipati","lat":6.00111111,"lng":121.23444444},{"id":144544,"name":"Karungdong","lat":5.88444444,"lng":121.26305556},{"id":144546,"name":"Katidtuan","lat":7.18861111,"lng":124.31527778},{"id":144547,"name":"Katuli","lat":7.43333333,"lng":124.21666667},{"id":144549,"name":"Kitango","lat":6.94833333,"lng":124.44111111},{"id":144550,"name":"Kitapak","lat":6.95333333,"lng":124.42555556},{"id":144551,"name":"Kolape","lat":5.07027778,"lng":119.89694444},{"id":144552,"name":"Kulase","lat":5.90527778,"lng":120.95694444},{"id":144553,"name":"Kulay-Kulay","lat":5.94527778,"lng":121.2325},{"id":144554,"name":"Kulempang","lat":7.51944444,"lng":124.38972222},{"id":144555,"name":"Kungtad","lat":5.55722222,"lng":120.84722222},{"id":144556,"name":"Labuñgan","lat":7.10305556,"lng":124.235},{"id":144557,"name":"Laminusa","lat":5.555,"lng":120.91361111},{"id":144559,"name":"Lamitan City","lat":6.63333,"lng":122.1},{"id":144560,"name":"Langpas","lat":5.975,"lng":120.94888889},{"id":144562,"name":"Larap","lat":4.76166667,"lng":119.405},{"id":144563,"name":"Latung","lat":5.5,"lng":120.88333333},{"id":144564,"name":"Layog","lat":7.07666667,"lng":124.73055556},{"id":144565,"name":"Ligayan","lat":4.65444444,"lng":119.47055556},{"id":144566,"name":"Limbo","lat":7.25166667,"lng":124.24388889},{"id":144567,"name":"Litayan","lat":7.33583333,"lng":124.03472222},{"id":144568,"name":"Lookan","lat":5.03694444,"lng":120.10277778},{"id":144570,"name":"Lumba-a-Bayabao","lat":7.78333,"lng":124.5},{"id":144571,"name":"Lumbac","lat":7.73416667,"lng":124.25277778},{"id":144576,"name":"Luuk Datan","lat":4.81194444,"lng":119.84527778},{"id":144580,"name":"Mahala","lat":5.91666667,"lng":121.13333333},{"id":144582,"name":"Makir","lat":7.03083333,"lng":124.30416667},{"id":144585,"name":"Manubul","lat":5.47333333,"lng":120.79861111},{"id":144590,"name":"Marsada","lat":5.93138889,"lng":121.10694444},{"id":144591,"name":"Marunggas","lat":6.19193,"lng":120.96085},{"id":144594,"name":"Mataya","lat":7.47111111,"lng":124.37194444},{"id":144595,"name":"Mauboh","lat":5.99,"lng":121.09361111},{"id":144596,"name":"Mileb","lat":6.89861111,"lng":124.58388889},{"id":144597,"name":"Molundo","lat":7.91786,"lng":124.36542},{"id":144598,"name":"Municipality of Indanan","lat":5.99429,"lng":120.96028},{"id":144599,"name":"Municipality of Lantawan","lat":6.6265,"lng":121.8642},{"id":144600,"name":"Municipality of Pangutaran","lat":6.305,"lng":120.554},{"id":144601,"name":"Municipality of Sultan Gumander","lat":7.6905,"lng":123.9406},{"id":144602,"name":"Municipality of Tongkil","lat":6.02517,"lng":121.83632},{"id":144603,"name":"New Batu Batu","lat":5.06666667,"lng":119.88333333},{"id":144604,"name":"New Panamao","lat":5.96667,"lng":121.18333},{"id":144605,"name":"Nuyo","lat":7.41805556,"lng":124.41083333},{"id":144606,"name":"Old Panamao","lat":5.98333333,"lng":121.25},{"id":144619,"name":"Pagatin","lat":6.97305556,"lng":124.47527778},{"id":144623,"name":"Paitan","lat":16.4646107,"lng":121.1451566},{"id":144624,"name":"Panabuan","lat":5.96166667,"lng":120.96277778},{"id":144625,"name":"Panadtaban","lat":6.90083333,"lng":124.64277778},{"id":144627,"name":"Pandakan","lat":5.98888889,"lng":121.16583333},{"id":144659,"name":"Pandan Niog","lat":6.22833333,"lng":120.56305556},{"id":144660,"name":"Pang","lat":5.94833333,"lng":121.28833333},{"id":144665,"name":"Parangan","lat":5.08388889,"lng":119.93833333},{"id":144666,"name":"Parian Dakula","lat":5.55666667,"lng":120.77194444},{"id":144667,"name":"Pata","lat":5.84440833,"lng":121.14386111},{"id":144698,"name":"Pawak","lat":8.01638889,"lng":124.25638889},{"id":144699,"name":"Payuhan","lat":5.94166667,"lng":120.90111111},{"id":144701,"name":"Pidsandawan","lat":6.93222222,"lng":124.59083333},{"id":144702,"name":"Pinaring","lat":7.22888889,"lng":124.31055556},{"id":144704,"name":"Poon-a-Bayabao","lat":7.83333,"lng":124.35},{"id":144706,"name":"Punay","lat":5.96138889,"lng":121.19805556},{"id":144707,"name":"Rimpeso","lat":7.02388889,"lng":124.10027778},{"id":144711,"name":"Sambuluan","lat":6.88333333,"lng":124.7},{"id":144712,"name":"Sanga-Sanga","lat":5.0725,"lng":119.78527778},{"id":144713,"name":"Santa Clara","lat":6.67833333,"lng":122.06},{"id":144714,"name":"Sapa","lat":5.15444444,"lng":120.32416667},{"id":144716,"name":"Sapadun","lat":7.48333333,"lng":124.25},{"id":144717,"name":"Satan","lat":6.86305556,"lng":124.40861111},{"id":144718,"name":"Semut","lat":6.66361111,"lng":122.21888889},{"id":144721,"name":"Simuay","lat":7.27722222,"lng":124.30722222},{"id":144723,"name":"Sionogan","lat":6.00527778,"lng":120.94861111},{"id":144729,"name":"Sultan Sumagka","lat":7.035325,"lng":124.37575556},{"id":144733,"name":"Tabiauan","lat":6.02805556,"lng":121.89361111},{"id":144734,"name":"Tablas","lat":6.62916667,"lng":122.17472222},{"id":144735,"name":"Tairan Camp","lat":6.64027778,"lng":121.83944444},{"id":144738,"name":"Talipaw","lat":5.91,"lng":121.09444444},{"id":144742,"name":"Tapayan","lat":7.29444444,"lng":124.26611111},{"id":144743,"name":"Tapikan","lat":6.85194444,"lng":124.3225},{"id":144747,"name":"Taungoh","lat":4.70666667,"lng":119.49305556},{"id":144748,"name":"Taviran","lat":7.12333333,"lng":124.31972222},{"id":144751,"name":"Tongouson","lat":5.02138889,"lng":120.13277778},{"id":144756,"name":"Tumbagaan","lat":5.36555556,"lng":120.31388889},{"id":144757,"name":"Tunggol","lat":5.84444444,"lng":121.15444444},{"id":144758,"name":"Tungol","lat":7.08083333,"lng":124.75305556},{"id":144760,"name":"Ungus-Ungus","lat":5.05083333,"lng":119.83972222},{"id":144762,"name":"Uyaan","lat":7.86305556,"lng":124.04111111}]