[{"id":154805,"name":"Banga","lat":6.3823518,"lng":124.6456271},{"id":143945,"name":"General Santos","lat":6.1374279,"lng":124.9927049},{"id":143972,"name":"Koronadal","lat":6.4643184,"lng":124.7476369},{"id":82986,"name":"Lake Sebu","lat":6.2496968,"lng":124.2623864},{"id":144044,"name":"Norala","lat":6.5279758,"lng":124.5939262},{"id":144064,"name":"Polomolok","lat":6.2466884,"lng":124.9829537},{"id":148096,"name":"Santo Niño","lat":6.4388921,"lng":124.5897335},{"id":144088,"name":"Surallah","lat":6.3326244,"lng":124.5632296},{"id":154806,"name":"T'Boli","lat":6.1432084,"lng":124.6953658},{"id":144097,"name":"Tampakan","lat":6.4659238,"lng":124.8845561},{"id":144098,"name":"Tantangan","lat":6.5674598,"lng":124.5779609},{"id":144107,"name":"Tupi","lat":6.3311735,"lng":124.8264723}]