[{"id":81413,"name":"Bagumbayan","lat":6.4730508,"lng":124.3384391},{"id":154814,"name":"Esperanza","lat":6.7207204,"lng":124.269753},{"id":82773,"name":"Isulan","lat":6.6076203,"lng":124.2908029},{"id":82840,"name":"Kalamansig","lat":6.5093083,"lng":123.9833466},{"id":82996,"name":"Lambayong","lat":6.7751456,"lng":124.5463331},{"id":143985,"name":"Lebak","lat":6.6653843,"lng":123.9804391},{"id":83251,"name":"Lutayan","lat":6.612675,"lng":124.7748144},{"id":144051,"name":"Palimbang","lat":6.2725921,"lng":124.0582017},{"id":144066,"name":"President Quirino","lat":6.6969867,"lng":124.6489974},{"id":154815,"name":"Senator Ninoy Aquino","lat":6.3677152,"lng":124.2043715},{"id":144091,"name":"Tacurong","lat":6.6640377,"lng":124.5904072}]