[{"id":81254,"name":"Anahawan","lat":10.2986712,"lng":125.1273426},{"id":154807,"name":"Bontoc","lat":10.3909886,"lng":124.8461183},{"id":82698,"name":"Hinunangan","lat":10.4016533,"lng":125.0759943},{"id":82699,"name":"Hinundayan","lat":10.3511296,"lng":125.1317843},{"id":83076,"name":"Libagon","lat":10.3319936,"lng":124.9805077},{"id":154808,"name":"Liloan","lat":10.153143,"lng":125.0752219},{"id":148073,"name":"Limasawa","lat":9.930296,"lng":125.0285759},{"id":154809,"name":"Maasin","lat":10.1918512,"lng":124.69086},{"id":83307,"name":"Macrohon","lat":10.0763258,"lng":124.8672326},{"id":83448,"name":"Malitbog","lat":10.1787915,"lng":124.8727687},{"id":154810,"name":"Padre Burgos","lat":10.0647326,"lng":124.95474},{"id":84115,"name":"Pintuyan","lat":9.9801172,"lng":125.1586065},{"id":84399,"name":"Saint Bernard","lat":10.2937836,"lng":125.0371989},{"id":154811,"name":"San Francisco","lat":10.0711478,"lng":125.0820883},{"id":154812,"name":"San Juan","lat":10.2859409,"lng":125.1191672},{"id":84605,"name":"San Ricardo","lat":9.9869206,"lng":125.1763733},{"id":84791,"name":"Silago","lat":10.5343297,"lng":125.0367697},{"id":154813,"name":"Sogod","lat":10.448344,"lng":124.9086246},{"id":85161,"name":"Tomas Oppus","lat":10.2746832,"lng":124.9047222}]