[{"id":144884,"name":"Baganga","lat":7.6014038,"lng":126.2440909},{"id":144888,"name":"Banaybanay","lat":7.0927358,"lng":125.795623},{"id":144903,"name":"Boston","lat":7.9049989,"lng":126.1175375},{"id":144915,"name":"Caraga","lat":7.3532128,"lng":126.2891989},{"id":144917,"name":"Cateel","lat":7.7754879,"lng":126.2141829},{"id":144940,"name":"Governor Generoso","lat":6.4750299,"lng":125.9634715},{"id":144979,"name":"Lupon","lat":7.0662554,"lng":125.9850578},{"id":145002,"name":"Manay","lat":7.1888694,"lng":126.2861519},{"id":145008,"name":"Mati","lat":6.696285,"lng":125.8932373},{"id":154537,"name":"San Isidro","lat":6.8082955,"lng":126.0447739},{"id":145083,"name":"Tarragona","lat":7.0740265,"lng":126.296909}]