[{"id":81257,"name":"Anao","lat":15.7434852,"lng":120.577332},{"id":81510,"name":"Bamban","lat":15.2495825,"lng":120.3138811},{"id":82089,"name":"Camiling","lat":15.693444,"lng":120.3175839},{"id":82137,"name":"Capas","lat":15.3329473,"lng":120.2642281},{"id":154833,"name":"Concepcion","lat":15.3390821,"lng":120.6092794},{"id":82585,"name":"Gerona","lat":15.6001372,"lng":120.4804105},{"id":154834,"name":"La Paz","lat":15.4571656,"lng":120.6341597},{"id":83646,"name":"Mayantoc","lat":15.5722181,"lng":120.1298387},{"id":83699,"name":"Moncada","lat":15.762863,"lng":120.4607495},{"id":83990,"name":"Paniqui","lat":15.6770878,"lng":120.4633672},{"id":84283,"name":"Pura","lat":15.6232225,"lng":120.6403756},{"id":84325,"name":"Ramos","lat":15.6704564,"lng":120.6331872},{"id":84463,"name":"San Clemente","lat":15.6787735,"lng":120.2496086},{"id":154835,"name":"San Jose","lat":15.4321217,"lng":120.1903389},{"id":154836,"name":"San Manuel","lat":15.8288713,"lng":120.5583876},{"id":84672,"name":"Santa Ignacia","lat":15.5836733,"lng":120.372979},{"id":85058,"name":"Tarlac City","lat":15.4727483,"lng":120.5306061},{"id":154837,"name":"Victoria","lat":15.5794679,"lng":120.6070698}]