[{"id":145786,"name":"Adams","lat":18.4390296,"lng":120.8339414},{"id":145806,"name":"Bacarra","lat":18.2583246,"lng":120.5287008},{"id":145811,"name":"Badoc","lat":17.9102252,"lng":120.4179833},{"id":145823,"name":"Bangui","lat":18.4672786,"lng":120.6710347},{"id":145825,"name":"Banna","lat":17.9795023,"lng":120.5781658},{"id":145835,"name":"Batac","lat":18.0321193,"lng":120.4923771},{"id":145860,"name":"Burgos","lat":18.4635739,"lng":120.5609541},{"id":145887,"name":"Carasi","lat":18.2305004,"lng":120.8012398},{"id":145905,"name":"Currimao","lat":18.0189,"lng":120.4595935},{"id":145914,"name":"Dingras","lat":18.0758887,"lng":120.6613349},{"id":145921,"name":"Dumalneg","lat":18.4730842,"lng":120.7963665},{"id":145944,"name":"Laoag","lat":18.1982694,"lng":120.5152743},{"id":145982,"name":"Marcos","lat":18.0298867,"lng":120.6193144},{"id":146001,"name":"Nueva Era","lat":17.9502159,"lng":120.4144059},{"id":146006,"name":"Pagudpud","lat":18.565987,"lng":120.7117979},{"id":146014,"name":"Paoay","lat":18.0779603,"lng":120.4748049},{"id":146018,"name":"Pasuquin","lat":18.3842681,"lng":120.5522344},{"id":146022,"name":"Piddig","lat":18.1930014,"lng":120.684553},{"id":146024,"name":"Pinili","lat":17.9453387,"lng":120.4587531},{"id":154544,"name":"San Nicolas","lat":18.1432847,"lng":120.5518199},{"id":146088,"name":"Sarrat","lat":18.1092129,"lng":120.5688988},{"id":146092,"name":"Solsona","lat":18.1210498,"lng":120.6781872},{"id":146131,"name":"Vintar","lat":18.3183655,"lng":120.6255884}]