[{"id":81197,"name":"Alcantara","lat":9.9623514,"lng":123.3635647},{"id":81198,"name":"Alcoy","lat":9.7226701,"lng":123.4282197},{"id":81201,"name":"Alegria","lat":9.7530414,"lng":123.3826849},{"id":81229,"name":"Aloguinsan","lat":10.1956566,"lng":123.5215177},{"id":81312,"name":"Argao","lat":9.9091001,"lng":123.4695227},{"id":81323,"name":"Asturias","lat":10.6044157,"lng":123.6574154},{"id":81381,"name":"Badian","lat":9.8392549,"lng":123.3396193},{"id":81439,"name":"Balamban","lat":10.4707949,"lng":123.6177616},{"id":81553,"name":"Bantayan","lat":11.1415783,"lng":123.5143785},{"id":81574,"name":"Barili","lat":10.1125112,"lng":123.4389455},{"id":81761,"name":"Bogo","lat":11.0279696,"lng":123.9577737},{"id":81774,"name":"Boljoon","lat":9.6348837,"lng":123.3696587},{"id":81796,"name":"Borbon","lat":10.8358188,"lng":123.9139326},{"id":82157,"name":"Carcar","lat":10.1319848,"lng":123.5459764},{"id":82170,"name":"Carmen","lat":10.5957215,"lng":123.9017446},{"id":82215,"name":"Catmon","lat":10.6750221,"lng":123.9435473},{"id":82238,"name":"Cebu City","lat":10.3789228,"lng":123.7637216},{"id":82269,"name":"Compostela","lat":10.4669608,"lng":123.930501},{"id":82281,"name":"Consolacion","lat":10.4124692,"lng":123.9200724},{"id":82291,"name":"Cordova","lat":10.2324182,"lng":123.8692457},{"id":82327,"name":"Daanbantayan","lat":11.3346351,"lng":123.8758759},{"id":82343,"name":"Dalaguete","lat":9.8035586,"lng":123.4136228},{"id":82366,"name":"Danao","lat":10.5290197,"lng":123.8651379},{"id":154508,"name":"Dumanjug","lat":10.0395852,"lng":123.3919103},{"id":82595,"name":"Ginatilan","lat":9.587591,"lng":123.3108919},{"id":83037,"name":"Lapu-Lapu City","lat":10.2655381,"lng":123.9029205},{"id":83111,"name":"Liloan","lat":10.4102241,"lng":123.9467229},{"id":83314,"name":"Madridejos","lat":11.2719733,"lng":123.6925353},{"id":83390,"name":"Malabuyoc","lat":9.6644134,"lng":123.2886559},{"id":154509,"name":"Mandaue","lat":10.3457208,"lng":123.9037254},{"id":83656,"name":"Medellin","lat":11.1392476,"lng":123.8923461},{"id":83684,"name":"Minglanilla","lat":10.2766114,"lng":123.7367302},{"id":83691,"name":"Moalboal","lat":9.934448,"lng":123.3486624},{"id":154510,"name":"Naga","lat":10.2383031,"lng":123.6439093},{"id":83865,"name":"Oslob","lat":9.5201512,"lng":123.3297635},{"id":84093,"name":"Pilar","lat":10.7709529,"lng":124.490117},{"id":154511,"name":"Pinamungajan","lat":10.2729306,"lng":123.5410344},{"id":84165,"name":"Poro","lat":10.6717773,"lng":124.3889226},{"id":84354,"name":"Ronda","lat":9.9977054,"lng":123.3737143},{"id":84427,"name":"Samboan","lat":9.5064974,"lng":123.2930257},{"id":154512,"name":"San Fernando","lat":10.1939553,"lng":123.5858019},{"id":84489,"name":"San Francisco","lat":10.6549372,"lng":124.2458829},{"id":84602,"name":"San Remigio","lat":11.0005769,"lng":123.929472},{"id":84667,"name":"Santa Fe","lat":11.2492614,"lng":123.7481078},{"id":154513,"name":"Santander","lat":9.4511738,"lng":123.2864275},{"id":84771,"name":"Sibonga","lat":10.0283407,"lng":123.4898431},{"id":84837,"name":"Sogod","lat":10.747454,"lng":123.8885268},{"id":84903,"name":"Tabogon","lat":10.9312848,"lng":123.9223226},{"id":84914,"name":"Tabuelan","lat":10.8527713,"lng":123.8693895},{"id":154514,"name":"Talisay","lat":10.2852054,"lng":123.7842503},{"id":85157,"name":"Toledo","lat":10.3560712,"lng":123.5190992},{"id":154515,"name":"Tuburan","lat":10.7240093,"lng":123.7657888},{"id":85203,"name":"Tudela","lat":10.6657055,"lng":124.4387902}]