[{"id":81174,"name":"Ajuy","lat":11.1202354,"lng":122.8806049},{"id":81219,"name":"Alimodian","lat":10.8709678,"lng":122.2028858},{"id":154548,"name":"Anilao","lat":11.0084993,"lng":122.6586588},{"id":81382,"name":"Badiangan","lat":10.9940533,"lng":122.4478587},{"id":81451,"name":"Balasan","lat":11.4610083,"lng":123.0445565},{"id":154549,"name":"Banate","lat":11.038493,"lng":122.710758},{"id":81583,"name":"Barotac Nuevo","lat":10.9136192,"lng":122.6401623},{"id":81584,"name":"Barotac Viejo","lat":11.0548327,"lng":122.7680929},{"id":81611,"name":"Batad","lat":11.4107342,"lng":123.0124959},{"id":81718,"name":"Bingawan","lat":11.20362,"lng":122.5479831},{"id":81957,"name":"Cabatuan","lat":10.8792622,"lng":122.4230966},{"id":82055,"name":"Calinog","lat":11.1670671,"lng":122.2435266},{"id":82164,"name":"Carles","lat":11.5331946,"lng":123.0579312},{"id":82274,"name":"Concepcion","lat":11.2365155,"lng":123.0357867},{"id":82440,"name":"Dingle","lat":11.0042863,"lng":122.5722702},{"id":82470,"name":"Dueñas","lat":11.0692386,"lng":122.5142916},{"id":82487,"name":"Dumangas","lat":10.8223299,"lng":122.6304634},{"id":82527,"name":"Estancia","lat":11.4596631,"lng":123.1126202},{"id":82627,"name":"Guimbal","lat":10.6960483,"lng":122.2672953},{"id":82716,"name":"Igbaras","lat":10.7531042,"lng":122.1577509},{"id":82732,"name":"Iloilo","lat":10.730078,"lng":122.4659689},{"id":82792,"name":"Janiuay","lat":10.9934118,"lng":122.2691069},{"id":82998,"name":"Lambunao","lat":11.090091,"lng":122.2551566},{"id":83060,"name":"Leganes","lat":10.7891807,"lng":122.5616279},{"id":154550,"name":"Lemery","lat":11.2066209,"lng":122.8426798},{"id":83066,"name":"Leon","lat":10.8199336,"lng":122.1569663},{"id":154551,"name":"Maasin","lat":10.9225467,"lng":122.2960242},{"id":83666,"name":"Miagao","lat":10.6869052,"lng":122.1144922},{"id":83675,"name":"Mina","lat":10.9494033,"lng":122.5255813},{"id":154552,"name":"New Lucena","lat":10.8777423,"lng":122.5327489},{"id":83868,"name":"Oton","lat":10.7265053,"lng":122.3870046},{"id":84034,"name":"Passi","lat":11.1586421,"lng":122.5203734},{"id":84058,"name":"Pavia","lat":10.7656412,"lng":122.4968603},{"id":84169,"name":"Pototan","lat":10.9195561,"lng":122.5535163},{"id":84466,"name":"San Dionisio","lat":11.3230052,"lng":123.002797},{"id":84469,"name":"San Enrique","lat":11.0997925,"lng":122.6288755},{"id":154553,"name":"San Joaquin","lat":10.580687,"lng":122.0055086},{"id":154554,"name":"San Miguel","lat":10.7818304,"lng":122.4167051},{"id":154555,"name":"San Rafael","lat":11.1385556,"lng":122.7549608},{"id":84643,"name":"Santa Barbara","lat":10.8193586,"lng":122.467023},{"id":84748,"name":"Sara","lat":11.2899229,"lng":122.9171808},{"id":85105,"name":"Tigbauan","lat":10.7166041,"lng":122.3339857},{"id":154556,"name":"Tubungan","lat":10.786582,"lng":122.1871908},{"id":85327,"name":"Zarraga","lat":10.8226719,"lng":122.5942029}]