[{"id":145788,"name":"Agoo","lat":16.3361433,"lng":120.3286698},{"id":145802,"name":"Aringay","lat":16.4114687,"lng":120.3193757},{"id":145808,"name":"Bacnotan","lat":16.7411834,"lng":120.3019885},{"id":145812,"name":"Bagulin","lat":16.6025558,"lng":120.4134828},{"id":145814,"name":"Balaoan","lat":16.8040795,"lng":120.3090114},{"id":145822,"name":"Bangar","lat":16.8783847,"lng":120.3929589},{"id":145837,"name":"Bauang","lat":16.5193197,"lng":120.3057315},{"id":154567,"name":"Burgos","lat":16.5150447,"lng":120.4362477},{"id":145866,"name":"Caba","lat":16.4408826,"lng":120.303969},{"id":154568,"name":"Luna","lat":16.8398367,"lng":120.296311},{"id":154569,"name":"Naguilian","lat":16.5261968,"lng":120.3380037},{"id":146033,"name":"Pugo","lat":16.3206746,"lng":120.4002937},{"id":154570,"name":"Rosario","lat":16.2520897,"lng":120.3756291},{"id":154571,"name":"San Fernando","lat":16.6084183,"lng":120.2770591},{"id":146059,"name":"San Gabriel","lat":16.6784541,"lng":120.4086352},{"id":154572,"name":"San Juan","lat":16.6694209,"lng":120.2993658},{"id":154573,"name":"Santo Tomas","lat":16.2755721,"lng":120.3134363},{"id":146087,"name":"Santol","lat":16.7649215,"lng":120.4058232},{"id":146096,"name":"Sudipen","lat":16.8543984,"lng":120.4135426},{"id":146122,"name":"Tubao","lat":16.3490049,"lng":120.3831614}]