[{"id":144333,"name":"Alamada","lat":7.5084273,"lng":124.4003658},{"id":154519,"name":"Aleosan","lat":7.1818287,"lng":124.5481168},{"id":154520,"name":"Antipas","lat":7.2596141,"lng":124.9882538},{"id":154521,"name":"Arakan","lat":7.4048933,"lng":125.0017386},{"id":144343,"name":"Banisilan","lat":7.4779716,"lng":124.5655255},{"id":144916,"name":"Carmen","lat":7.3242259,"lng":124.625497},{"id":143954,"name":"Kabacan","lat":7.1295694,"lng":124.7212131},{"id":154522,"name":"Kadayangan","lat":7.1260269,"lng":124.4758199},{"id":154523,"name":"Kapalawan","lat":7.2436944,"lng":124.8006072},{"id":143966,"name":"Kidapawan","lat":7.0435767,"lng":124.9337607},{"id":143990,"name":"Libungan","lat":7.338888,"lng":124.4754343},{"id":154524,"name":"Ligawasan","lat":6.9345986,"lng":124.5368796},{"id":154526,"name":"M'lang","lat":6.954166,"lng":124.7514563},{"id":144009,"name":"Magpet","lat":7.1391963,"lng":125.0295048},{"id":144014,"name":"Makilala","lat":6.9146763,"lng":124.966328},{"id":154525,"name":"Malidegao","lat":7.3633787,"lng":124.5717162},{"id":144033,"name":"Matalam","lat":7.1983042,"lng":124.7705965},{"id":144035,"name":"Midsayap","lat":7.1353428,"lng":124.43662},{"id":154527,"name":"Nabalawag","lat":7.0835029,"lng":124.4817387},{"id":154528,"name":"Old Kaabakan","lat":6.9724695,"lng":124.627485},{"id":144059,"name":"Pigcawayan","lat":7.3061345,"lng":124.2477267},{"id":144061,"name":"Pikit","lat":7.0707594,"lng":124.566396},{"id":154530,"name":"President Roxas","lat":7.3929198,"lng":124.8156148},{"id":154531,"name":"Tugunan","lat":6.8168066,"lng":124.8006083},{"id":144106,"name":"Tulunan","lat":6.8168066,"lng":124.80053}]