[{"id":81752,"name":"Boac","lat":13.3892547,"lng":121.813484},{"id":154686,"name":"Buenavista","lat":13.2556713,"lng":121.8902166},{"id":82571,"name":"Gasan","lat":13.2968511,"lng":121.7991074},{"id":83693,"name":"Mogpog","lat":13.5148125,"lng":121.813012},{"id":154687,"name":"Santa Cruz","lat":13.4632614,"lng":121.8922646},{"id":85172,"name":"Torrijos","lat":13.3169249,"lng":121.981326}]