[{"id":144637,"name":"Barira","lat":7.4742033,"lng":124.2395313},{"id":144669,"name":"Buldon","lat":7.4942829,"lng":124.2422656},{"id":143933,"name":"Cotabato City","lat":7.198677,"lng":124.162714},{"id":144684,"name":"Datu Blah T. Sinsuat","lat":6.9347934,"lng":123.8589029},{"id":144685,"name":"Datu Odin Sinsuat","lat":7.0643575,"lng":124.0458851},{"id":144533,"name":"Kabuntalan","lat":7.1179586,"lng":124.291416},{"id":144593,"name":"Matanog","lat":7.4716166,"lng":124.1931428},{"id":154684,"name":"Northern Kabuntalan","lat":7.1649668,"lng":124.3517119},{"id":144663,"name":"Parang","lat":7.3610639,"lng":123.8903532},{"id":144727,"name":"Sultan Kudarat","lat":7.2454363,"lng":124.163813},{"id":154685,"name":"Sultan Mastura","lat":7.287714,"lng":124.1886766},{"id":84988,"name":"Talitay","lat":7.0321012,"lng":124.3033357},{"id":144761,"name":"Upi","lat":6.9928587,"lng":124.0747792}]