[{"id":81126,"name":"Abaca","lat":9.9204,"lng":124.5051},{"id":81131,"name":"Abis","lat":9.7173,"lng":122.9438},{"id":81136,"name":"Abucayan","lat":9.929,"lng":123.9146},{"id":81146,"name":"Adlaon","lat":10.3,"lng":123.9},{"id":81166,"name":"Agsungot","lat":10.43444,"lng":123.90611},{"id":81169,"name":"Aguining","lat":10.0861,"lng":124.5944},{"id":81187,"name":"Alangilan","lat":9.2793,"lng":122.8789},{"id":81188,"name":"Alangilanan","lat":9.642,"lng":123.1059},{"id":81193,"name":"Alburquerque","lat":9.60806,"lng":123.95806},{"id":81231,"name":"Alpaco","lat":10.24378,"lng":123.6825},{"id":81246,"name":"Amdos","lat":9.8821,"lng":123.0972},{"id":81247,"name":"Amio","lat":9.3571,"lng":122.9413},{"id":81275,"name":"Anonang","lat":11.0,"lng":124.03333},{"id":81276,"name":"Anopog","lat":10.25,"lng":123.25},{"id":81279,"name":"Antequera","lat":9.7809,"lng":123.8988},{"id":81293,"name":"Apas","lat":10.34076,"lng":123.90261},{"id":81298,"name":"Apoya","lat":9.2207,"lng":122.9053},{"id":81328,"name":"Atop-atop","lat":11.2322,"lng":123.7602},{"id":81344,"name":"Azagra","lat":9.4779,"lng":123.1367},{"id":81357,"name":"Bachauan","lat":11.2067,"lng":123.9634},{"id":81358,"name":"Baclayon","lat":9.62639,"lng":123.89417},{"id":81386,"name":"Bagacay","lat":9.8664,"lng":123.918},{"id":81394,"name":"Bagay","lat":11.1964,"lng":124.035},{"id":81405,"name":"Bagtic","lat":9.6864,"lng":123.0122},{"id":81422,"name":"Bairan","lat":10.19718,"lng":123.7271},{"id":81428,"name":"Bal-os","lat":9.4416,"lng":122.6257},{"id":81457,"name":"Balayong","lat":9.4744,"lng":123.0623},{"id":81471,"name":"Balilihan","lat":9.7561,"lng":123.973},{"id":81492,"name":"Balogo","lat":10.1148,"lng":123.1706},{"id":81536,"name":"Banhigan","lat":9.85903,"lng":123.38926},{"id":81539,"name":"Banilad","lat":9.2786,"lng":123.2936},{"id":81594,"name":"Basak","lat":10.2264,"lng":123.3064},{"id":81599,"name":"Basdiot","lat":9.94718,"lng":123.37515},{"id":81622,"name":"Bateria","lat":11.1416,"lng":124.0267},{"id":81643,"name":"Baud","lat":11.2111,"lng":123.7031},{"id":81644,"name":"Baugo","lat":10.31745,"lng":123.919},{"id":81673,"name":"Becerril","lat":9.6531,"lng":123.4344},{"id":81681,"name":"Biabas","lat":9.8,"lng":124.46667},{"id":81685,"name":"Biasong","lat":10.5229,"lng":123.736},{"id":81690,"name":"Bien Unido","lat":10.13729,"lng":124.37761},{"id":81697,"name":"Biking","lat":9.59382,"lng":123.84303},{"id":81701,"name":"Bilar","lat":9.70825,"lng":124.10717},{"id":81723,"name":"Binlod","lat":9.91845,"lng":123.60743},{"id":81745,"name":"Biton","lat":11.23279,"lng":123.9993},{"id":81746,"name":"Bitoon","lat":10.0804,"lng":123.4587},{"id":81763,"name":"Bohol","lat":9.83333,"lng":124.16667},{"id":81772,"name":"Bolisong","lat":9.69111,"lng":123.15167},{"id":81783,"name":"Bonawon","lat":9.134,"lng":122.9193},{"id":81784,"name":"Bonbon","lat":10.2245,"lng":123.5573},{"id":81794,"name":"Bood","lat":9.74508,"lng":123.82783},{"id":81803,"name":"Botigues","lat":11.0995,"lng":123.6675},{"id":81815,"name":"Buagsong","lat":10.25302,"lng":123.93909},{"id":81820,"name":"Buanoy","lat":10.46746,"lng":123.6999},{"id":81842,"name":"Bugas","lat":9.89804,"lng":123.40492},{"id":81849,"name":"Bugsoc","lat":9.7834,"lng":124.2712},{"id":81869,"name":"Bulasa","lat":9.93206,"lng":123.61802},{"id":81882,"name":"Bulod","lat":9.68333,"lng":123.15},{"id":81941,"name":"Cabalawan","lat":10.74139,"lng":123.9525},{"id":81947,"name":"Cabangahan","lat":9.0781,"lng":122.9469},{"id":81981,"name":"Cabul-an","lat":10.15684,"lng":124.04397},{"id":82031,"name":"Calape","lat":9.8922,"lng":123.8748},{"id":82048,"name":"Calero","lat":10.37331,"lng":123.99786},{"id":82051,"name":"Calidñgan","lat":10.1,"lng":123.63333},{"id":82057,"name":"Calituban","lat":10.23995,"lng":124.2919},{"id":82069,"name":"Calumboyan","lat":10.79129,"lng":124.02749},{"id":82082,"name":"Camambugan","lat":10.05844,"lng":124.43811},{"id":82085,"name":"Cambanay","lat":10.54361,"lng":123.98611},{"id":82095,"name":"Campoyo","lat":9.6564,"lng":123.1479},{"id":82096,"name":"Campusong","lat":10.81583,"lng":124.03222},{"id":82099,"name":"Can-asujan","lat":10.1299,"lng":123.6574},{"id":82103,"name":"Canauay","lat":9.0651,"lng":123.0524},{"id":82106,"name":"Candabong","lat":9.7343,"lng":124.5383},{"id":82111,"name":"Candijay","lat":9.8182,"lng":124.4977},{"id":82115,"name":"Canhaway","lat":9.7501,"lng":124.4722},{"id":82117,"name":"Canjulao","lat":9.6605,"lng":124.3532},{"id":82119,"name":"Canmaya Diot","lat":9.9384,"lng":124.0942},{"id":82124,"name":"Cansuje","lat":9.92314,"lng":123.49629},{"id":82125,"name":"Cantao-an","lat":10.24258,"lng":123.7496},{"id":82166,"name":"Carmelo","lat":10.7051,"lng":123.7935},{"id":82187,"name":"Casala-an","lat":9.11667,"lng":123.05},{"id":82189,"name":"Casay","lat":9.8204,"lng":123.5496},{"id":82212,"name":"Caticugan","lat":9.1,"lng":123.0},{"id":82213,"name":"Catigbian","lat":9.8501,"lng":123.9994},{"id":82216,"name":"Catmondaan","lat":10.68692,"lng":124.01494},{"id":82221,"name":"Catungawan Sur","lat":9.7817,"lng":124.4693},{"id":82233,"name":"Cayang","lat":11.06667,"lng":123.98333},{"id":82253,"name":"Cogan","lat":10.59306,"lng":124.01778},{"id":82254,"name":"Cogon","lat":10.0372,"lng":123.4539},{"id":82257,"name":"Cogon Cruz","lat":10.50944,"lng":123.96972},{"id":82258,"name":"Cogtong","lat":9.8374,"lng":124.5291},{"id":82261,"name":"Colonia","lat":10.6553,"lng":123.7911},{"id":82285,"name":"Consuelo","lat":10.6348,"lng":124.301},{"id":82293,"name":"Corella","lat":9.6875,"lng":123.9218},{"id":82334,"name":"Dagohoy","lat":9.90016,"lng":124.28322},{"id":82362,"name":"Damolog","lat":10.77271,"lng":124.00639},{"id":82390,"name":"Datagon","lat":9.4461,"lng":123.0891},{"id":82394,"name":"Dauis","lat":9.62528,"lng":123.86583},{"id":82403,"name":"De la Paz","lat":9.70004,"lng":123.86433},{"id":82432,"name":"Dimiao","lat":9.6064,"lng":124.1633},{"id":82449,"name":"Doljo","lat":9.58745,"lng":123.73033},{"id":82461,"name":"Doong","lat":11.0786,"lng":123.6395},{"id":82469,"name":"Duero","lat":9.709,"lng":124.4055},{"id":82488,"name":"Dumanjog","lat":10.057,"lng":123.4361},{"id":82506,"name":"El Pardo","lat":9.66,"lng":123.4944},{"id":82518,"name":"Esperanza","lat":10.6995,"lng":124.3143},{"id":82525,"name":"Estaca","lat":9.6933,"lng":124.2722},{"id":82549,"name":"Gabi","lat":10.26306,"lng":123.96139},{"id":82570,"name":"Garcia Hernandez","lat":9.6144,"lng":124.2946},{"id":82587,"name":"Giawang","lat":9.7922,"lng":124.509},{"id":82610,"name":"Guadalupe","lat":10.1165,"lng":123.6072},{"id":82614,"name":"Guba","lat":10.3131,"lng":123.2667},{"id":82618,"name":"Guibodangan","lat":10.1157,"lng":123.4944},{"id":82632,"name":"Guindarohan","lat":10.26111,"lng":123.76556},{"id":82633,"name":"Guindulman","lat":9.7629,"lng":124.4878},{"id":82651,"name":"Guiwanon","lat":11.1975,"lng":123.708},{"id":82666,"name":"Hagdan","lat":11.33333,"lng":123.9},{"id":82667,"name":"Hagnaya","lat":11.0924,"lng":123.9435},{"id":82683,"name":"Hibaiyo","lat":10.2726,"lng":123.321},{"id":82685,"name":"Hilantagaan","lat":11.1943,"lng":123.8131},{"id":82687,"name":"Hilotongan","lat":11.144,"lng":123.6426},{"id":82691,"name":"Himensulan","lat":10.5967,"lng":124.2821},{"id":82697,"name":"Hinlayagan Ilaud","lat":10.03061,"lng":124.33457},{"id":82729,"name":"Ilihan","lat":10.9054,"lng":123.9704},{"id":82740,"name":"Inabanga","lat":10.0307,"lng":124.0671},{"id":82744,"name":"Inayagan","lat":10.23478,"lng":123.769},{"id":82779,"name":"Jaclupan","lat":10.30138,"lng":123.8165},{"id":82782,"name":"Jagna","lat":9.6531,"lng":124.3697},{"id":82789,"name":"Jampang","lat":9.90761,"lng":123.60015},{"id":82791,"name":"Jandayan Norte","lat":10.16852,"lng":124.18148},{"id":82794,"name":"Jantianon","lat":9.4442,"lng":123.1657},{"id":82795,"name":"Japitan","lat":10.1279,"lng":123.5035},{"id":82803,"name":"Jetafe","lat":10.14722,"lng":124.15389},{"id":82818,"name":"Jugno","lat":9.4683,"lng":123.2038},{"id":82820,"name":"Kabac","lat":11.2353,"lng":123.6979},{"id":82832,"name":"Kabungahan","lat":10.51667,"lng":123.98333},{"id":82861,"name":"Kandabong","lat":9.6859,"lng":123.0728},{"id":82865,"name":"Kaongkod","lat":11.25028,"lng":123.75556},{"id":82883,"name":"Kauit","lat":11.186,"lng":123.9459},{"id":82926,"name":"Kotkot","lat":10.425,"lng":124.0005},{"id":82927,"name":"Kuanos","lat":10.28298,"lng":123.78},{"id":82942,"name":"La Hacienda","lat":9.8815,"lng":124.3923},{"id":83007,"name":"Lanao","lat":11.25636,"lng":124.02423},{"id":83009,"name":"Lanas","lat":10.26667,"lng":123.73333},{"id":83014,"name":"Langob","lat":10.5774,"lng":123.7309},{"id":83016,"name":"Langtad","lat":9.89094,"lng":123.6043},{"id":83031,"name":"Lapaz","lat":10.9887,"lng":123.9797},{"id":83070,"name":"Lepanto","lat":9.6845,"lng":123.4026},{"id":83108,"name":"Lila","lat":9.5918,"lng":124.0958},{"id":83149,"name":"Lipayran","lat":11.0593,"lng":123.6342},{"id":83157,"name":"Loay","lat":9.6006,"lng":124.0142},{"id":83159,"name":"Loboc","lat":9.63833,"lng":124.03482},{"id":83162,"name":"Logon","lat":11.3303,"lng":124.1146},{"id":83165,"name":"Lombog","lat":9.7788,"lng":124.4174},{"id":83175,"name":"Loon","lat":9.7998,"lng":123.7929},{"id":83206,"name":"Lugo","lat":10.81672,"lng":123.98626},{"id":83236,"name":"Lunas","lat":10.6402,"lng":123.7525},{"id":83250,"name":"Lut-od","lat":10.25722,"lng":123.62944},{"id":83263,"name":"Maayong Tubig","lat":9.1672,"lng":123.2469},{"id":83274,"name":"Mabinay","lat":9.72722,"lng":122.90167},{"id":83280,"name":"Mabini","lat":9.8649,"lng":124.5215},{"id":83293,"name":"Macaas","lat":10.69885,"lng":124.01154},{"id":83329,"name":"Magay","lat":10.4719,"lng":124.0132},{"id":83389,"name":"Malabugas","lat":9.3692,"lng":122.7702},{"id":83394,"name":"Malaiba","lat":10.33333,"lng":123.31667},{"id":83422,"name":"Malbug","lat":9.7327,"lng":123.3402},{"id":83423,"name":"Malhiao","lat":9.88487,"lng":123.40641},{"id":83441,"name":"Malingin","lat":11.05,"lng":123.98333},{"id":83453,"name":"Maloh","lat":9.056,"lng":122.9851},{"id":83462,"name":"Malusay","lat":10.1439,"lng":123.2717},{"id":83466,"name":"Malway","lat":9.1319,"lng":123.2203},{"id":83488,"name":"Manalongon","lat":9.2209,"lng":122.886},{"id":83500,"name":"Mancilang","lat":11.2835,"lng":123.7462},{"id":83504,"name":"Mandaue City","lat":10.32361,"lng":123.92222},{"id":83525,"name":"Maninihon","lat":9.3711,"lng":122.8405},{"id":83654,"name":"Maño","lat":11.04167,"lng":123.94472},{"id":83536,"name":"Mantalongon","lat":9.8106,"lng":123.4617},{"id":83540,"name":"Mantiquil","lat":9.16667,"lng":123.05},{"id":83565,"name":"Maravilla","lat":10.9011,"lng":123.8918},{"id":83578,"name":"Maribojoc","lat":9.7417,"lng":123.8446},{"id":83580,"name":"Maricaban","lat":11.1516,"lng":123.7679},{"id":83590,"name":"Masaba","lat":10.53333,"lng":123.96667},{"id":83643,"name":"Maya","lat":11.27442,"lng":124.05526},{"id":83644,"name":"Mayabon","lat":9.0961,"lng":123.1738},{"id":83645,"name":"Mayana","lat":9.75611,"lng":124.35222},{"id":83647,"name":"Mayapusi","lat":9.6241,"lng":123.0188},{"id":83655,"name":"McKinley","lat":10.0844,"lng":123.2592},{"id":83687,"name":"Minolos","lat":10.1019,"lng":123.4727},{"id":83705,"name":"Montaneza","lat":9.6846,"lng":123.3289},{"id":83744,"name":"Nagbalaye","lat":9.2492,"lng":122.8759},{"id":83756,"name":"Nahawan","lat":9.9711,"lng":124.0484},{"id":83759,"name":"Nailong","lat":11.0537,"lng":124.0385},{"id":83762,"name":"Nalundan","lat":9.75,"lng":123.06667},{"id":83773,"name":"Nangka","lat":9.4023,"lng":122.8244},{"id":83823,"name":"Novallas","lat":9.5117,"lng":123.1225},{"id":83826,"name":"Nueva Fuerza","lat":9.8464,"lng":124.167},{"id":83828,"name":"Nueva Vida Sur","lat":9.7846,"lng":124.1745},{"id":83829,"name":"Nugas","lat":9.6968,"lng":123.4415},{"id":83836,"name":"Obong","lat":9.741,"lng":123.5098},{"id":83838,"name":"Ocaña","lat":10.0656,"lng":123.6244},{"id":83840,"name":"Ocoy","lat":11.1716,"lng":123.7948},{"id":83849,"name":"Okiot","lat":9.56667,"lng":123.16667},{"id":83869,"name":"Owak","lat":10.55,"lng":123.7},{"id":83884,"name":"Padre Zamora","lat":10.06667,"lng":123.25},{"id":83904,"name":"Pajo","lat":11.24121,"lng":124.01067},{"id":83949,"name":"Panalipan","lat":10.64833,"lng":124.02167},{"id":83955,"name":"Panaytayon","lat":9.95,"lng":123.98333},{"id":83975,"name":"Pangdan","lat":10.23078,"lng":123.7379},{"id":83979,"name":"Panglao","lat":9.57806,"lng":123.74583},{"id":83995,"name":"Panognawan","lat":11.1619,"lng":124.005},{"id":84039,"name":"Patao","lat":11.2202,"lng":123.6925},{"id":84065,"name":"Payabon","lat":9.759,"lng":123.1412},{"id":84070,"name":"Paypay","lat":11.2152,"lng":123.9762},{"id":84075,"name":"Perrelos","lat":10.1169,"lng":123.6738},{"id":84106,"name":"Pinamungahan","lat":10.2708,"lng":123.5839},{"id":84108,"name":"Pinayagan Norte","lat":9.93333,"lng":123.95},{"id":84113,"name":"Pinokawan","lat":10.34117,"lng":123.2939},{"id":84150,"name":"Polo","lat":9.4816,"lng":123.1802},{"id":84288,"name":"Putat","lat":10.7858,"lng":123.8469},{"id":84365,"name":"Saavedra","lat":9.98517,"lng":123.37158},{"id":84388,"name":"Sagbayan","lat":9.9144,"lng":124.0919},{"id":84502,"name":"San Isidro","lat":9.91667,"lng":123.88333},{"id":84606,"name":"San Roque","lat":10.0919,"lng":124.32262},{"id":84627,"name":"Sandayong Sur","lat":10.49583,"lng":123.99889},{"id":84629,"name":"Sandolot","lat":9.10472,"lng":123.01944},{"id":84632,"name":"Sangat","lat":10.136,"lng":123.6896},{"id":84671,"name":"Santa Filomena","lat":9.75181,"lng":123.34463},{"id":84693,"name":"Santa Nino","lat":10.689,"lng":123.7884},{"id":84708,"name":"Santander Poblacion","lat":9.42527,"lng":123.33879},{"id":84761,"name":"Sevilla","lat":9.70383,"lng":124.04829},{"id":84783,"name":"Sierra Bullones","lat":9.8081,"lng":124.2921},{"id":84788,"name":"Sikatuna","lat":9.6883,"lng":123.9751},{"id":84789,"name":"Silab","lat":9.4383,"lng":123.1792},{"id":84795,"name":"Sillon","lat":11.199,"lng":123.7675},{"id":84799,"name":"Simala","lat":9.97326,"lng":123.61648},{"id":84846,"name":"Songculan","lat":9.62965,"lng":123.82897},{"id":84866,"name":"Sulangan","lat":11.1373,"lng":123.7228},{"id":84892,"name":"Tabalong","lat":9.62157,"lng":123.81231},{"id":84904,"name":"Tabon","lat":9.8042,"lng":123.4563},{"id":84908,"name":"Tabonok","lat":10.8512,"lng":123.8766},{"id":84911,"name":"Tabuan","lat":9.51556,"lng":122.85056},{"id":84917,"name":"Tabunok","lat":10.77673,"lng":124.01602},{"id":84935,"name":"Tagbilaran City","lat":9.65556,"lng":123.85219},{"id":84952,"name":"Tagum Norte","lat":10.07454,"lng":124.38925},{"id":84955,"name":"Tajao","lat":10.3148,"lng":123.5835},{"id":84971,"name":"Talangnan","lat":9.634,"lng":123.3344},{"id":84974,"name":"Talibon","lat":10.14917,"lng":124.325},{"id":84981,"name":"Talisay","lat":10.24472,"lng":123.84944},{"id":85006,"name":"Tambalan","lat":9.9085,"lng":123.0896},{"id":85009,"name":"Tambo","lat":9.895,"lng":123.0556},{"id":85013,"name":"Tambongon","lat":10.9677,"lng":123.9244},{"id":85016,"name":"Tamiso","lat":9.6314,"lng":123.0873},{"id":85026,"name":"Tampocon","lat":9.85,"lng":123.13333},{"id":85032,"name":"Tandayag","lat":9.4547,"lng":123.2299},{"id":85036,"name":"Tangke","lat":10.25451,"lng":123.86516},{"id":85037,"name":"Tangnan","lat":9.60722,"lng":123.77357},{"id":85052,"name":"Tapilon","lat":11.2774,"lng":124.0306},{"id":85053,"name":"Tapon","lat":10.0631,"lng":123.4453},{"id":85066,"name":"Tawala","lat":9.55421,"lng":123.76955},{"id":85079,"name":"Taytayan","lat":10.8787,"lng":123.9771},{"id":85080,"name":"Tayud","lat":10.37991,"lng":124.00522},{"id":85096,"name":"Tibigan","lat":9.9518,"lng":123.9622},{"id":85115,"name":"Tiguib","lat":9.8008,"lng":123.1352},{"id":85124,"name":"Tinaan","lat":11.26667,"lng":123.75},{"id":85132,"name":"Tinaogan","lat":9.7791,"lng":123.1503},{"id":85134,"name":"Tindog","lat":11.1247,"lng":124.0118},{"id":85141,"name":"Tinubuan","lat":11.186,"lng":124.0078},{"id":85146,"name":"Tipolo","lat":10.0196,"lng":124.5144},{"id":85165,"name":"Tominhao","lat":11.23563,"lng":124.03526},{"id":85174,"name":"Totolan","lat":9.63286,"lng":123.84702},{"id":85179,"name":"Trinidad","lat":10.07955,"lng":124.34324},{"id":85189,"name":"Tubigagmanoc","lat":10.6282,"lng":123.7489},{"id":85197,"name":"Tubod-dugoan","lat":10.0443,"lng":123.4994},{"id":85234,"name":"Tutay","lat":10.2463,"lng":123.5805},{"id":85241,"name":"Ubay","lat":10.056,"lng":124.47294},{"id":85246,"name":"Uling","lat":10.28048,"lng":123.71},{"id":85258,"name":"Union","lat":10.6695,"lng":124.3252},{"id":85279,"name":"Valle Hermoso","lat":9.7939,"lng":124.2365}]