[{"id":144608,"name":"Ampatuan","lat":6.7982287,"lng":124.2220096},{"id":144672,"name":"Buluan","lat":6.7291581,"lng":124.7196694},{"id":154692,"name":"Datu Abdullah Sangki","lat":6.8201926,"lng":124.4401176},{"id":154693,"name":"Datu Anggal Midtimbang","lat":6.9333751,"lng":124.3127334},{"id":154694,"name":"Datu Hoffer Ampatuan","lat":6.8448265,"lng":124.4188725},{"id":143938,"name":"Datu Montawal","lat":7.1137399,"lng":124.675165},{"id":144686,"name":"Datu Paglas","lat":6.7233749,"lng":124.838329},{"id":144687,"name":"Datu Piang","lat":7.0214108,"lng":124.4134672},{"id":154695,"name":"Datu Salibo","lat":7.0177937,"lng":124.3893811},{"id":154696,"name":"Datu Saudi-Ampatuan","lat":6.9666095,"lng":124.3062095},{"id":154697,"name":"Datu Unsay","lat":6.9182869,"lng":124.4166674},{"id":154698,"name":"General Salipada K. Pendatun","lat":6.840139,"lng":124.654909},{"id":154699,"name":"Guindulungan","lat":6.9702922,"lng":124.2977245},{"id":154700,"name":"Mamasapano","lat":6.9352826,"lng":124.4599046},{"id":154701,"name":"Mangudadatu","lat":6.6846812,"lng":124.7486686},{"id":144607,"name":"Pagalungan","lat":6.9609683,"lng":124.5485525},{"id":144622,"name":"Paglat","lat":6.7000421,"lng":124.7627334},{"id":144626,"name":"Pandag","lat":6.7624147,"lng":124.7166642},{"id":154702,"name":"Rajah Buayan","lat":6.9271451,"lng":124.5315733},{"id":144719,"name":"Shariff Aguak","lat":6.8690935,"lng":124.2464285},{"id":154703,"name":"Shariff Saydona Mustapha","lat":6.8849409,"lng":124.4885396},{"id":144726,"name":"South Upi","lat":6.8416765,"lng":124.0890701},{"id":144730,"name":"Sultan sa Barongis","lat":6.9127417,"lng":124.5528134},{"id":144736,"name":"Talayan","lat":6.9214687,"lng":124.240218}]