[{"id":145343,"name":"Aliaga","lat":15.5070119,"lng":120.7749756},{"id":145400,"name":"Bongabon","lat":15.6574937,"lng":121.0608872},{"id":145418,"name":"Cabanatuan","lat":15.5001723,"lng":120.8162141},{"id":145422,"name":"Cabiao","lat":15.2289491,"lng":120.758582},{"id":145445,"name":"Carranglan","lat":15.9930714,"lng":120.8720114},{"id":145466,"name":"Cuyapo","lat":15.7802057,"lng":120.6219342},{"id":145484,"name":"Gabaldon","lat":15.5283715,"lng":121.2044696},{"id":145485,"name":"Gapan","lat":15.2931687,"lng":120.9370615},{"id":145487,"name":"General Mamerto Natividad","lat":15.586229,"lng":120.9730299},{"id":145488,"name":"General Tinio","lat":15.3222084,"lng":121.0388232},{"id":145493,"name":"Guimba","lat":15.6659407,"lng":120.6677302},{"id":145500,"name":"Jaen","lat":15.3772988,"lng":120.7932687},{"id":145506,"name":"Laur","lat":15.5196961,"lng":121.1007003},{"id":145509,"name":"Licab","lat":15.5465966,"lng":120.7206021},{"id":145514,"name":"Llanera","lat":15.6617444,"lng":120.9068115},{"id":145520,"name":"Lupao","lat":15.8536027,"lng":120.8348498},{"id":145573,"name":"Muñoz","lat":15.730911,"lng":120.8216775},{"id":145576,"name":"Nampicuan","lat":15.7208708,"lng":120.6262984},{"id":145590,"name":"Palayan","lat":15.5183166,"lng":121.0127266},{"id":145600,"name":"Pantabangan","lat":15.8241289,"lng":120.9917048},{"id":145607,"name":"Peñaranda","lat":15.3525632,"lng":120.9527777},{"id":154742,"name":"Quezon","lat":15.5882919,"lng":120.7462654},{"id":154743,"name":"Rizal","lat":15.6895404,"lng":121.0420163},{"id":154744,"name":"San Antonio","lat":15.331221,"lng":120.7375963},{"id":154745,"name":"San Isidro","lat":15.2625228,"lng":120.8618821},{"id":154746,"name":"San Jose","lat":15.7878017,"lng":120.9070354},{"id":145678,"name":"San Leonardo","lat":15.3563391,"lng":120.9130615},{"id":154747,"name":"Santa Rosa","lat":15.4323687,"lng":120.8289034},{"id":154748,"name":"Santo Domingo","lat":15.616142,"lng":120.8434608},{"id":145766,"name":"Talavera","lat":15.6191118,"lng":120.8542027},{"id":145768,"name":"Talugtug","lat":15.7613073,"lng":120.7209734},{"id":145785,"name":"Zaragoza","lat":15.4461855,"lng":120.7155808}]