[{"id":57446,"name":"Bet Dagan","lat":32.00191,"lng":34.82977},{"id":57449,"name":"Bet Yiẕẖaq","lat":32.32751,"lng":34.88878},{"id":57450,"name":"Bnei Ayish","lat":31.78333,"lng":34.75},{"id":57463,"name":"Elyakhin","lat":32.40793,"lng":34.92433},{"id":57467,"name":"Eṭ Ṭaiyiba","lat":32.26616,"lng":35.00893},{"id":57466,"name":"Even Yehuda","lat":32.26959,"lng":34.88759},{"id":57468,"name":"Gan Yavne","lat":31.78737,"lng":34.70659},{"id":57469,"name":"Ganei Tikva","lat":32.05971,"lng":34.8732},{"id":57470,"name":"Gedera","lat":31.81456,"lng":34.77998},{"id":57478,"name":"Hod HaSharon","lat":32.15934,"lng":34.8932},{"id":57483,"name":"Jaljūlya","lat":32.1547,"lng":34.95372},{"id":57491,"name":"Kafr Qāsim","lat":32.11406,"lng":34.97624},{"id":57494,"name":"Kefar H̱abad","lat":31.98793,"lng":34.8516},{"id":57499,"name":"Kefar Yona","lat":32.31669,"lng":34.93507},{"id":57500,"name":"Kfar Saba","lat":32.175,"lng":34.90694},{"id":57503,"name":"Lapid","lat":31.91764,"lng":35.03222},{"id":57505,"name":"Lod","lat":31.9467,"lng":34.8903},{"id":57507,"name":"Mazkeret Batya","lat":31.85357,"lng":34.84646},{"id":57515,"name":"Modi‘in Makkabbim Re‘ut","lat":31.89385,"lng":35.01504},{"id":57525,"name":"Neẖalim","lat":32.06012,"lng":34.91069},{"id":57522,"name":"Ness Ziona","lat":31.92933,"lng":34.79868},{"id":57523,"name":"Netanya","lat":32.33291,"lng":34.85992},{"id":57526,"name":"Nirit","lat":32.14677,"lng":34.98622},{"id":57527,"name":"Nof Ayalon","lat":31.87111,"lng":34.99081},{"id":57528,"name":"Nordiyya","lat":32.3147,"lng":34.89617},{"id":57531,"name":"Pardesiyya","lat":32.30577,"lng":34.90911},{"id":57533,"name":"Petaẖ Tiqwa","lat":32.08707,"lng":34.88747},{"id":57534,"name":"Qalansuwa","lat":32.28493,"lng":34.98106},{"id":57541,"name":"Ra'anana","lat":32.1836,"lng":34.87386},{"id":57546,"name":"Ramla","lat":31.92923,"lng":34.86563},{"id":57548,"name":"Reẖovot","lat":31.89421,"lng":34.81199},{"id":57549,"name":"Rishon LeẔiyyon","lat":31.97102,"lng":34.78939},{"id":57550,"name":"Rosh Ha‘Ayin","lat":32.09556,"lng":34.95664},{"id":57556,"name":"Savyon","lat":32.04966,"lng":34.8777},{"id":57560,"name":"Shoham","lat":31.99866,"lng":34.94559},{"id":57565,"name":"Tel Mond","lat":32.24995,"lng":34.91737},{"id":57568,"name":"Tirah","lat":32.2341,"lng":34.95023},{"id":57573,"name":"Yavné","lat":31.87808,"lng":34.73983},{"id":57574,"name":"Yehud","lat":32.03317,"lng":34.89091},{"id":57580,"name":"Ẕur Moshe","lat":32.29819,"lng":34.91313}]