[{"id":57441,"name":"Azor","lat":32.0243,"lng":34.80632},{"id":57443,"name":"Bat Yam","lat":32.02379,"lng":34.75185},{"id":57451,"name":"Bnei Brak","lat":32.08074,"lng":34.8338},{"id":57471,"name":"Giv'at Shmuel","lat":32.07817,"lng":34.84858},{"id":57472,"name":"Givatayim","lat":32.07225,"lng":34.81253},{"id":57476,"name":"Herzliya","lat":32.16627,"lng":34.82536},{"id":57477,"name":"Herzliya Pituah","lat":32.17409,"lng":34.8028},{"id":57479,"name":"H̱olon","lat":32.01034,"lng":34.77918},{"id":57482,"name":"Jaffa","lat":32.05043,"lng":34.75224},{"id":57496,"name":"Kefar Shemaryahu","lat":32.18529,"lng":34.82082},{"id":57530,"name":"Or Yehuda","lat":32.02923,"lng":34.85788},{"id":57543,"name":"Ramat Gan","lat":32.08227,"lng":34.81065},{"id":57544,"name":"Ramat HaSharon","lat":32.14613,"lng":34.8394},{"id":57564,"name":"Tel Aviv","lat":32.08088,"lng":34.78057},{"id":57575,"name":"Yehud-Monosson","lat":32.0284,"lng":34.8796}]