[{"id":79977,"name":"Bahía Azul","lat":9.14176,"lng":-81.89425},{"id":79991,"name":"Besiko","lat":8.54863,"lng":-82.0898},{"id":79993,"name":"Bisira","lat":8.89553,"lng":-81.85352},{"id":79996,"name":"Boca de Balsa","lat":8.52995,"lng":-82.03132},{"id":80008,"name":"Buenos Aires","lat":8.41384,"lng":-81.4844},{"id":80028,"name":"Camarón Arriba","lat":8.38324,"lng":-81.99345},{"id":80046,"name":"Cerro Banco","lat":8.45797,"lng":-82.03081},{"id":80048,"name":"Cerro Caña","lat":8.35174,"lng":-81.6105},{"id":80050,"name":"Cerro Plata","lat":8.47733,"lng":-81.54585},{"id":80057,"name":"Chichica","lat":8.35885,"lng":-81.66582},{"id":80230,"name":"Hato Chami","lat":8.44281,"lng":-81.77196},{"id":80231,"name":"Hato Corotú","lat":8.33516,"lng":-81.9703},{"id":80239,"name":"Kankintú","lat":8.89503,"lng":-81.8575},{"id":80240,"name":"Kusapín","lat":9.17119,"lng":-81.89621},{"id":80285,"name":"Lajero Arriba","lat":8.2906,"lng":-81.77047},{"id":80323,"name":"Llano Ñopo","lat":8.41996,"lng":-81.61865},{"id":80325,"name":"Loma Yuca","lat":8.71817,"lng":-81.40492},{"id":80356,"name":"Mirono","lat":8.40469,"lng":-81.83064},{"id":80364,"name":"Müna","lat":8.35035,"lng":-81.67219},{"id":80367,"name":"Nole Düima","lat":8.32682,"lng":-81.81531},{"id":80381,"name":"Nurun","lat":8.47815,"lng":-81.47015},{"id":80384,"name":"Oma","lat":8.35019,"lng":-81.80177},{"id":80397,"name":"Paredón Arriba","lat":8.45977,"lng":-81.19592},{"id":80414,"name":"Plan de Chorcha","lat":8.46168,"lng":-82.15924},{"id":80429,"name":"Pueblo Nuevo","lat":8.8807,"lng":-82.22411},{"id":80444,"name":"Quebrada Canoa","lat":8.43333,"lng":-81.78333},{"id":80445,"name":"Quebrada Tula","lat":8.84037,"lng":-81.99645},{"id":80515,"name":"Sitio Prado","lat":8.37233,"lng":-81.58141},{"id":80523,"name":"Tobobe","lat":9.12111,"lng":-81.82471}]