[{"id":79962,"name":"Almirante","lat":9.30091,"lng":-82.4018},{"id":79982,"name":"Barranco","lat":9.51984,"lng":-82.70424},{"id":79983,"name":"Barranco Adentro","lat":9.52757,"lng":-82.73344},{"id":79986,"name":"Bastimentos","lat":9.34707,"lng":-82.2088},{"id":80000,"name":"Bocas del Toro","lat":9.34031,"lng":-82.24204},{"id":80036,"name":"Cauchero","lat":9.15226,"lng":-82.2645},{"id":80054,"name":"Changuinola","lat":9.43,"lng":-82.52},{"id":80063,"name":"Chiriquí Grande","lat":8.94557,"lng":-82.11769},{"id":80084,"name":"Distrito Chiriquí Grande","lat":8.94748,"lng":-82.12418},{"id":80092,"name":"Distrito de Bocas del Toro","lat":9.36235,"lng":-82.26288},{"id":80101,"name":"Distrito de Changuinola","lat":9.25,"lng":-82.63333},{"id":80170,"name":"El Empalme","lat":9.41667,"lng":-82.51667},{"id":80202,"name":"El Silencio","lat":9.37222,"lng":-82.52877},{"id":80217,"name":"Guabito","lat":9.48968,"lng":-82.61279},{"id":80235,"name":"Isla Bastimentos","lat":9.3,"lng":-82.13333},{"id":80354,"name":"Miramar","lat":8.99482,"lng":-82.24147},{"id":80437,"name":"Punta Laurel","lat":9.141,"lng":-82.12717},{"id":80438,"name":"Punta Peña","lat":8.91659,"lng":-82.18488},{"id":80439,"name":"Punta Róbalo","lat":9.03631,"lng":-82.24952},{"id":80537,"name":"Valle del Risco","lat":9.23064,"lng":-82.42748}]