[{"id":79966,"name":"Alto del Espino","lat":8.84213,"lng":-79.84551},{"id":79967,"name":"Altos de San Francisco","lat":8.86167,"lng":-79.79},{"id":79971,"name":"Arenosa","lat":9.03978,"lng":-79.95128},{"id":79972,"name":"Arosemena","lat":8.97091,"lng":-79.96641},{"id":79973,"name":"Arraiján","lat":8.95187,"lng":-79.66011},{"id":79989,"name":"Bejuco","lat":8.60037,"lng":-79.88988},{"id":80033,"name":"Capira","lat":8.75636,"lng":-79.87996},{"id":80044,"name":"Cermeño","lat":8.74082,"lng":-79.85299},{"id":80047,"name":"Cerro Cama","lat":9.02802,"lng":-79.90744},{"id":80053,"name":"Chame","lat":8.57753,"lng":-79.88595},{"id":80069,"name":"Cirí de Los Sotos","lat":8.97206,"lng":-80.09209},{"id":80083,"name":"Distrito Arraiján","lat":8.95,"lng":-79.7},{"id":80097,"name":"Distrito de Capira","lat":8.76228,"lng":-79.88275},{"id":80100,"name":"Distrito de Chame","lat":8.6,"lng":-79.91667},{"id":80112,"name":"Distrito de La Chorrera","lat":8.95,"lng":-79.85},{"id":80135,"name":"Distrito de San Carlos","lat":8.53196,"lng":-80.06906},{"id":80151,"name":"El Cacao","lat":8.76134,"lng":-80.01294},{"id":80163,"name":"El Coco","lat":8.87009,"lng":-79.80415},{"id":80171,"name":"El Espavé","lat":8.66161,"lng":-79.87584},{"id":80172,"name":"El Espino","lat":8.83795,"lng":-79.84925},{"id":80178,"name":"El Higo","lat":8.44731,"lng":-80.03603},{"id":80179,"name":"El Líbano","lat":8.61685,"lng":-79.83483},{"id":80219,"name":"Guadalupe","lat":8.85452,"lng":-79.81408},{"id":80226,"name":"Guayabito","lat":8.54828,"lng":-80.0135},{"id":80232,"name":"Hato Montaña","lat":8.91938,"lng":-79.73915},{"id":80243,"name":"La Chorrera","lat":8.88028,"lng":-79.78333},{"id":80250,"name":"La Ermita","lat":8.45622,"lng":-80.06835},{"id":80257,"name":"La Herradura","lat":8.84848,"lng":-79.80404},{"id":80268,"name":"La Mitra","lat":8.84091,"lng":-79.78648},{"id":80273,"name":"La Pesa","lat":8.85073,"lng":-79.82374},{"id":80286,"name":"Las Colinas","lat":8.55,"lng":-80.08333},{"id":80308,"name":"Las Uvas","lat":8.45937,"lng":-80.00075},{"id":80336,"name":"Los Llanitos","lat":8.59787,"lng":-80.09503},{"id":80352,"name":"Mendoza","lat":9.01471,"lng":-79.85073},{"id":80371,"name":"Nueva Arenosa","lat":8.86944,"lng":-79.99472},{"id":80373,"name":"Nueva Gorgona","lat":8.55,"lng":-79.87547},{"id":80374,"name":"Nuevo Arraiján","lat":8.92453,"lng":-79.72004},{"id":80377,"name":"Nuevo Emperador","lat":9.00273,"lng":-79.73141},{"id":80416,"name":"Playa Leona","lat":8.78389,"lng":-79.77547},{"id":80426,"name":"Potrero Grande","lat":8.88051,"lng":-79.82795},{"id":80432,"name":"Puerto Caimito","lat":8.87022,"lng":-79.71423},{"id":80458,"name":"Río Congo","lat":8.96666,"lng":-79.76105},{"id":80474,"name":"San Carlos","lat":8.47323,"lng":-79.96104},{"id":80481,"name":"San José","lat":8.93333,"lng":-79.73333},{"id":80495,"name":"San Vicente de Bique","lat":8.91143,"lng":-79.6736},{"id":80497,"name":"Santa Clara","lat":9.02875,"lng":-79.75443},{"id":80505,"name":"Santa Rita","lat":8.85681,"lng":-79.87954},{"id":80518,"name":"Sorá","lat":8.63191,"lng":-80.00888},{"id":80540,"name":"Veracruz","lat":8.88988,"lng":-79.62603},{"id":80543,"name":"Villa Carmen","lat":8.79832,"lng":-79.86929},{"id":80545,"name":"Villa Rosario","lat":8.77379,"lng":-79.87547},{"id":80547,"name":"Vista Alegre","lat":8.92772,"lng":-79.7028}]