[{"id":111081,"name":"Akutan","lat":54.1335,"lng":-165.77686},{"id":111143,"name":"Aleutians East Borough","lat":54.85,"lng":-163.41667},{"id":111144,"name":"Aleutians West Census Area","lat":52.16298,"lng":-174.28505},{"id":111303,"name":"Anchor Point","lat":59.77667,"lng":-151.83139},{"id":111305,"name":"Anchorage","lat":61.21806,"lng":-149.90028},{"id":111306,"name":"Anchorage Municipality","lat":61.16667,"lng":-149.25056},{"id":111724,"name":"Badger","lat":64.8,"lng":-147.53333},{"id":111852,"name":"Barrow","lat":71.29058,"lng":-156.78872},{"id":111976,"name":"Bear Creek","lat":60.16417,"lng":-149.395},{"id":112281,"name":"Bethel","lat":60.79222,"lng":-161.75583},{"id":112284,"name":"Bethel Census Area","lat":60.75056,"lng":-160.50056},{"id":112325,"name":"Big Lake","lat":61.52139,"lng":-149.95444},{"id":112813,"name":"Bristol Bay Borough","lat":58.75056,"lng":-156.83333},{"id":113124,"name":"Butte","lat":61.54222,"lng":-149.03333},{"id":113917,"name":"Chevak","lat":61.52778,"lng":-165.58639},{"id":114045,"name":"City and Borough of Wrangell","lat":56.41331,"lng":-132.32009},{"id":114374,"name":"Cohoe","lat":60.36861,"lng":-151.30639},{"id":114412,"name":"College","lat":64.85694,"lng":-147.80278},{"id":114640,"name":"Cordova","lat":60.5432,"lng":-145.75867},{"id":114756,"name":"Craig","lat":55.47639,"lng":-133.14833},{"id":115227,"name":"Deltana","lat":63.87217,"lng":-145.21773},{"id":115235,"name":"Denali Borough","lat":63.78889,"lng":-150.19167},{"id":115315,"name":"Diamond Ridge","lat":59.67611,"lng":-151.5575},{"id":115340,"name":"Dillingham","lat":59.03972,"lng":-158.4575},{"id":115341,"name":"Dillingham Census Area","lat":59.76193,"lng":-158.31848},{"id":115578,"name":"Dutch Harbor","lat":53.8898,"lng":-166.5422},{"id":115612,"name":"Eagle River","lat":61.32139,"lng":-149.56778},{"id":115909,"name":"Eielson Air Force Base","lat":64.66327,"lng":-147.05442},{"id":116049,"name":"Elmendorf Air Force Base","lat":61.25703,"lng":-149.63139},{"id":116206,"name":"Ester","lat":64.84722,"lng":-148.01444},{"id":116290,"name":"Fairbanks","lat":64.83778,"lng":-147.71639},{"id":116291,"name":"Fairbanks North Star Borough","lat":64.83333,"lng":-146.41667},{"id":116401,"name":"Farm Loop","lat":61.63891,"lng":-149.14215},{"id":116404,"name":"Farmers Loop","lat":64.90822,"lng":-147.69866},{"id":116531,"name":"Fishhook","lat":61.74402,"lng":-149.23613},{"id":116959,"name":"Fritz Creek","lat":59.73611,"lng":-151.29528},{"id":117124,"name":"Gateway","lat":61.57278,"lng":-149.24083},{"id":117230,"name":"Girdwood","lat":60.9425,"lng":-149.16639},{"id":117843,"name":"Haines","lat":59.23595,"lng":-135.44533},{"id":117844,"name":"Haines Borough","lat":59.25056,"lng":-135.50056},{"id":118219,"name":"Healy","lat":63.85694,"lng":-148.96611},{"id":118597,"name":"Homer","lat":59.6425,"lng":-151.5494},{"id":118632,"name":"Hoonah-Angoon Census Area","lat":57.94807,"lng":-134.94153},{"id":118634,"name":"Hooper Bay","lat":61.53111,"lng":-166.09667},{"id":118701,"name":"Houston","lat":61.63028,"lng":-149.81806},{"id":119338,"name":"Juneau","lat":58.30194,"lng":-134.41972},{"id":119364,"name":"Kalifornsky","lat":60.41833,"lng":-151.29},{"id":119440,"name":"Kenai","lat":60.55444,"lng":-151.25833},{"id":119441,"name":"Kenai Peninsula Borough","lat":60.41667,"lng":-151.25056},{"id":119523,"name":"Ketchikan","lat":55.3418,"lng":-131.64757},{"id":119524,"name":"Ketchikan Gateway Borough","lat":55.50056,"lng":-131.41667},{"id":119583,"name":"King Cove","lat":55.06087,"lng":-162.31853},{"id":119677,"name":"Knik-Fairview","lat":61.51262,"lng":-149.60012},{"id":119698,"name":"Kodiak","lat":57.78852,"lng":-152.40533},{"id":119699,"name":"Kodiak Island Borough","lat":57.33333,"lng":-153.33333},{"id":119700,"name":"Kodiak Station","lat":57.76587,"lng":-152.60004},{"id":119712,"name":"Kotzebue","lat":66.89846,"lng":-162.59809},{"id":120003,"name":"Lake and Peninsula Borough","lat":57.00056,"lng":-158.00056},{"id":120024,"name":"Lakes","lat":61.60713,"lng":-149.30861},{"id":120256,"name":"Lazy Mountain","lat":61.62611,"lng":-148.94556},{"id":153919,"name":"Marshall","lat":61.878111,"lng":162.085},{"id":121399,"name":"Matanuska-Susitna Borough","lat":62.50056,"lng":-150.00556},{"id":121561,"name":"Meadow Lakes","lat":61.62472,"lng":-149.60111},{"id":121735,"name":"Metlakatla","lat":55.12848,"lng":-131.57519},{"id":122898,"name":"Nikiski","lat":60.69028,"lng":-151.28889},{"id":122934,"name":"Nome","lat":64.50111,"lng":-165.40639},{"id":122935,"name":"Nome Census Area","lat":64.83333,"lng":-163.75056},{"id":123084,"name":"North Pole","lat":64.75111,"lng":-147.34944},{"id":123107,"name":"North Slope Borough","lat":69.25056,"lng":-152.00056},{"id":123173,"name":"Northwest Arctic Borough","lat":66.83333,"lng":-161.00056},{"id":123760,"name":"Palmer","lat":61.59941,"lng":-149.11456},{"id":124108,"name":"Petersburg","lat":56.8125,"lng":-132.95556},{"id":124110,"name":"Petersburg Borough","lat":56.76529,"lng":-133.19313},{"id":124724,"name":"Prudhoe Bay","lat":70.25528,"lng":-148.33722},{"id":125130,"name":"Ridgeway","lat":60.53194,"lng":-151.08528},{"id":125724,"name":"Salcha","lat":64.52399,"lng":-146.9021},{"id":125860,"name":"Sand Point","lat":55.33655,"lng":-160.4988},{"id":126187,"name":"Seward","lat":60.10426,"lng":-149.4435},{"id":126470,"name":"Sitka","lat":57.05315,"lng":-135.33088},{"id":126471,"name":"Sitka City and Borough","lat":57.08255,"lng":-135.26917},{"id":126475,"name":"Skagway","lat":59.46852,"lng":-135.30596},{"id":126567,"name":"Soldotna","lat":60.48778,"lng":-151.05833},{"id":126766,"name":"Southeast Fairbanks Census Area","lat":63.75056,"lng":-143.25056},{"id":127031,"name":"Sterling","lat":60.53722,"lng":-150.76472},{"id":127316,"name":"Sutton-Alpine","lat":61.77789,"lng":-148.7645},{"id":127409,"name":"Tanaina","lat":61.62694,"lng":-149.42806},{"id":127697,"name":"Tok","lat":63.33667,"lng":-142.98556},{"id":127966,"name":"Unalaska","lat":53.87413,"lng":-166.53408},{"id":128083,"name":"Valdez","lat":61.13083,"lng":-146.34833},{"id":128084,"name":"Valdez-Cordova Census Area","lat":61.50056,"lng":-144.50056},{"id":128593,"name":"Wasilla","lat":61.5809,"lng":-149.4415},{"id":129304,"name":"Willow","lat":61.74722,"lng":-150.0375},{"id":129601,"name":"Wrangell","lat":56.47083,"lng":-132.37667},{"id":129646,"name":"Y","lat":62.16129,"lng":-149.85075},{"id":129652,"name":"Yakutat City and Borough","lat":59.66667,"lng":-139.13333},{"id":129731,"name":"Yukon-Koyukuk Census Area","lat":65.7,"lng":-152.71667}]