[{"id":110973,"name":"Aberdeen","lat":39.50956,"lng":-76.16412},{"id":110980,"name":"Aberdeen Proving Ground","lat":39.46686,"lng":-76.13066},{"id":110993,"name":"Accokeek","lat":38.66762,"lng":-77.02831},{"id":111029,"name":"Adamstown","lat":39.31094,"lng":-77.47471},{"id":111044,"name":"Adelphi","lat":39.00317,"lng":-76.97192},{"id":111166,"name":"Algonquin","lat":38.5829,"lng":-76.10577},{"id":111181,"name":"Allegany County","lat":39.62148,"lng":-78.6989},{"id":111332,"name":"Andrews AFB","lat":38.80531,"lng":-76.8746},{"id":111352,"name":"Annapolis","lat":38.97845,"lng":-76.49218},{"id":111353,"name":"Anne Arundel","lat":38.99416,"lng":-76.5676},{"id":111417,"name":"Arbutus","lat":39.25455,"lng":-76.69997},{"id":111439,"name":"Arden on the Severn","lat":39.06594,"lng":-76.57885},{"id":111461,"name":"Arlington","lat":39.34857,"lng":-76.68324},{"id":111485,"name":"Arnold","lat":39.03206,"lng":-76.50274},{"id":111547,"name":"Ashton-Sandy Spring","lat":39.14976,"lng":-77.00504},{"id":111553,"name":"Aspen Hill","lat":39.07955,"lng":-77.07303},{"id":111722,"name":"Baden","lat":38.65928,"lng":-76.77775},{"id":111772,"name":"Ballenger Creek","lat":39.3726,"lng":-77.43526},{"id":111783,"name":"Baltimore","lat":39.2908816,"lng":-76.610759},{"id":111784,"name":"Baltimore County","lat":39.44307,"lng":-76.61632},{"id":111785,"name":"Baltimore Highlands","lat":39.23316,"lng":-76.63663},{"id":111869,"name":"Bartonsville","lat":39.3926,"lng":-77.35804},{"id":112046,"name":"Bel Air","lat":39.53594,"lng":-76.34829},{"id":112047,"name":"Bel Air North","lat":39.55429,"lng":-76.37309},{"id":112048,"name":"Bel Air South","lat":39.50506,"lng":-76.31977},{"id":112151,"name":"Beltsville","lat":39.03483,"lng":-76.90747},{"id":112179,"name":"Bennsville","lat":38.60929,"lng":-77.0122},{"id":112234,"name":"Berlin","lat":38.32262,"lng":-75.21769},{"id":112266,"name":"Berwyn Heights","lat":38.994,"lng":-76.91053},{"id":112288,"name":"Bethesda","lat":38.98067,"lng":-77.10026},{"id":112400,"name":"Bladensburg","lat":38.93928,"lng":-76.93386},{"id":112565,"name":"Boonsboro","lat":39.50621,"lng":-77.65249},{"id":112623,"name":"Bowie","lat":38.94278,"lng":-76.73028},{"id":112626,"name":"Bowleys Quarters","lat":39.33539,"lng":-76.39024},{"id":112629,"name":"Bowling Green","lat":39.6237,"lng":-78.80446},{"id":112660,"name":"Braddock Heights","lat":39.41871,"lng":-77.5036},{"id":112692,"name":"Brandywine","lat":38.69678,"lng":-76.84775},{"id":112728,"name":"Brentwood","lat":38.94317,"lng":-76.95664},{"id":112832,"name":"Brock Hall","lat":38.85011,"lng":-76.76108},{"id":112876,"name":"Brooklyn Park","lat":39.22844,"lng":-76.61636},{"id":112878,"name":"Brookmont","lat":38.94206,"lng":-77.12026},{"id":112948,"name":"Brunswick","lat":39.31427,"lng":-77.62777},{"id":112962,"name":"Bryans Road","lat":38.62706,"lng":-77.07303},{"id":112978,"name":"Buckeystown","lat":39.33482,"lng":-77.43165},{"id":113098,"name":"Burtonsville","lat":39.11122,"lng":-76.93248},{"id":113105,"name":"Butcher's Hill","lat":39.28955,"lng":-76.5883},{"id":113152,"name":"Cabin John","lat":38.97539,"lng":-77.15803},{"id":113216,"name":"California","lat":38.3004,"lng":-76.50745},{"id":113235,"name":"Calvert","lat":38.53471,"lng":-76.53056},{"id":113236,"name":"Calverton","lat":39.05761,"lng":-76.93581},{"id":113250,"name":"Cambridge","lat":38.56317,"lng":-76.07883},{"id":113293,"name":"Camp Springs","lat":38.804,"lng":-76.90664},{"id":113373,"name":"Cape Saint Claire","lat":39.04317,"lng":-76.44496},{"id":113375,"name":"Capitol Heights","lat":38.88511,"lng":-76.91581},{"id":113428,"name":"Carney","lat":39.39427,"lng":-76.52358},{"id":113437,"name":"Caroline","lat":38.87173,"lng":-75.8316},{"id":113453,"name":"Carroll County","lat":39.56286,"lng":-77.02252},{"id":113575,"name":"Catonsville","lat":39.27205,"lng":-76.73192},{"id":113590,"name":"Cavetown","lat":39.64426,"lng":-77.58582},{"id":113598,"name":"Cecil","lat":39.56242,"lng":-75.94811},{"id":113693,"name":"Centreville","lat":39.04178,"lng":-76.06633},{"id":113757,"name":"Charles","lat":38.47368,"lng":-77.01348},{"id":113760,"name":"Charles Village","lat":39.32316,"lng":-76.6133},{"id":113771,"name":"Charlestown","lat":39.57373,"lng":-75.97495},{"id":113784,"name":"Charlotte Hall","lat":38.48096,"lng":-76.77802},{"id":113875,"name":"Chesapeake Beach","lat":38.68623,"lng":-76.53468},{"id":113876,"name":"Chesapeake Ranch Estates","lat":38.34624,"lng":-76.41773},{"id":113883,"name":"Chester","lat":38.97539,"lng":-76.2894},{"id":113910,"name":"Chestertown","lat":39.209,"lng":-76.06661},{"id":113919,"name":"Cheverly","lat":38.92817,"lng":-76.91581},{"id":113921,"name":"Chevy Chase","lat":39.00287,"lng":-77.07115},{"id":113955,"name":"Chillum","lat":38.96372,"lng":-76.99081},{"id":114048,"name":"City of Baltimore","lat":39.2972016,"lng":-76.6150479},{"id":114143,"name":"Clarksburg","lat":39.23872,"lng":-77.27943},{"id":114272,"name":"Clinton","lat":38.76511,"lng":-76.89831},{"id":114308,"name":"Clover Hill","lat":39.45621,"lng":-77.42887},{"id":114313,"name":"Cloverly","lat":39.10816,"lng":-76.99775},{"id":114345,"name":"Cobb Island","lat":38.25846,"lng":-76.84386},{"id":114355,"name":"Cockeysville","lat":39.48122,"lng":-76.64386},{"id":114403,"name":"Colesville","lat":39.07566,"lng":-77.00192},{"id":114414,"name":"College Park","lat":38.98067,"lng":-76.93692},{"id":114441,"name":"Colmar Manor","lat":38.93317,"lng":-76.94581},{"id":114467,"name":"Columbia","lat":39.24038,"lng":-76.83942},{"id":114625,"name":"Coral Hills","lat":38.87039,"lng":-76.92108},{"id":114690,"name":"Cottage City","lat":38.93817,"lng":-76.94831},{"id":114793,"name":"Cresaptown","lat":39.59287,"lng":-78.83335},{"id":114822,"name":"Crisfield","lat":37.98346,"lng":-75.85382},{"id":114833,"name":"Crofton","lat":39.00178,"lng":-76.68747},{"id":114841,"name":"Croom","lat":38.75262,"lng":-76.76386},{"id":114869,"name":"Crownsville","lat":39.02844,"lng":-76.60135},{"id":114907,"name":"Cumberland","lat":39.65287,"lng":-78.76252},{"id":115009,"name":"Damascus","lat":39.28844,"lng":-77.20387},{"id":115053,"name":"Darnestown","lat":39.10344,"lng":-77.29082},{"id":115065,"name":"Davidsonville","lat":38.92289,"lng":-76.6283},{"id":115144,"name":"Deale","lat":38.77651,"lng":-76.55524},{"id":115245,"name":"Denton","lat":38.88456,"lng":-75.82716},{"id":115268,"name":"Derwood","lat":39.11733,"lng":-77.16109},{"id":115355,"name":"District Heights","lat":38.85761,"lng":-76.88942},{"id":115410,"name":"Dorchester","lat":38.42261,"lng":-76.08332},{"id":115481,"name":"Drum Point","lat":38.32679,"lng":-76.42606},{"id":115526,"name":"Dundalk","lat":39.25066,"lng":-76.52052},{"id":115537,"name":"Dunkirk","lat":38.72178,"lng":-76.66052},{"id":115540,"name":"Dunkirk Town Center","lat":38.72039,"lng":-76.65857},{"id":115748,"name":"East Riverdale","lat":38.96206,"lng":-76.92192},{"id":115785,"name":"Easton","lat":38.77428,"lng":-76.07633},{"id":115844,"name":"Edgemere","lat":39.24205,"lng":-76.44802},{"id":115852,"name":"Edgewater","lat":38.95706,"lng":-76.54996},{"id":115859,"name":"Edgewood","lat":39.41872,"lng":-76.2944},{"id":115880,"name":"Edmonston","lat":38.94678,"lng":-76.93109},{"id":115949,"name":"Eldersburg","lat":39.40371,"lng":-76.95026},{"id":116011,"name":"Elkridge","lat":39.21261,"lng":-76.71358},{"id":116013,"name":"Elkton","lat":39.60678,"lng":-75.83327},{"id":116024,"name":"Ellicott City","lat":39.26733,"lng":-76.79831},{"id":116106,"name":"Emmitsburg","lat":39.70454,"lng":-77.32693},{"id":116191,"name":"Essex","lat":39.30927,"lng":-76.47496},{"id":116328,"name":"Fairland","lat":39.07622,"lng":-76.95775},{"id":116342,"name":"Fairmount Heights","lat":38.90095,"lng":-76.91553},{"id":116364,"name":"Fairwood","lat":38.95665,"lng":-76.77772},{"id":116385,"name":"Fallston","lat":39.51455,"lng":-76.41107},{"id":116466,"name":"Federalsburg","lat":38.69428,"lng":-75.77216},{"id":116486,"name":"Ferndale","lat":39.18316,"lng":-76.64024},{"id":116652,"name":"Forest Glen","lat":39.01455,"lng":-77.0547},{"id":116654,"name":"Forest Heights","lat":38.80956,"lng":-76.99803},{"id":116672,"name":"Forestville","lat":38.84511,"lng":-76.87497},{"id":116712,"name":"Fort George G Mead Junction","lat":39.12594,"lng":-76.78914},{"id":116729,"name":"Fort Meade","lat":39.10815,"lng":-76.74323},{"id":116761,"name":"Fort Washington","lat":38.70734,"lng":-77.02303},{"id":116786,"name":"Fountainhead-Orchard Hills","lat":39.68636,"lng":-77.71901},{"id":116787,"name":"Four Corners","lat":39.02039,"lng":-77.01275},{"id":116885,"name":"Frederick","lat":39.41427,"lng":-77.41054},{"id":116888,"name":"Frederick County","lat":39.47222,"lng":-77.39799},{"id":116947,"name":"Friendly","lat":38.75178,"lng":-76.97859},{"id":116951,"name":"Friendship Village","lat":38.96289,"lng":-77.08887},{"id":116964,"name":"Frostburg","lat":39.65814,"lng":-78.92836},{"id":116970,"name":"Fruitland","lat":38.32206,"lng":-75.6202},{"id":116987,"name":"Fulton","lat":39.15094,"lng":-76.92303},{"id":117019,"name":"Gaithersburg","lat":39.14344,"lng":-77.20137},{"id":117045,"name":"Gambrills","lat":39.06705,"lng":-76.66524},{"id":117100,"name":"Garrett","lat":39.5286,"lng":-79.27388},{"id":117101,"name":"Garrett Park","lat":39.03816,"lng":-77.09303},{"id":117102,"name":"Garrison","lat":39.40594,"lng":-76.76053},{"id":117172,"name":"Germantown","lat":39.17316,"lng":-77.27165},{"id":117253,"name":"Glassmanor","lat":38.819,"lng":-76.99859},{"id":117262,"name":"Glen Burnie","lat":39.16261,"lng":-76.62469},{"id":117275,"name":"Glenarden","lat":38.92928,"lng":-76.86164},{"id":117293,"name":"Glenmont","lat":39.05789,"lng":-77.0497},{"id":117297,"name":"Glenn Dale","lat":38.98761,"lng":-76.82053},{"id":117333,"name":"Goddard","lat":38.98955,"lng":-76.85331},{"id":117347,"name":"Golden Beach","lat":38.48985,"lng":-76.68218},{"id":117541,"name":"Grasonville","lat":38.95817,"lng":-76.21023},{"id":117582,"name":"Greater Upper Marlboro","lat":38.83142,"lng":-76.74827},{"id":117597,"name":"Green Haven","lat":39.13955,"lng":-76.54774},{"id":117609,"name":"Green Valley","lat":39.30927,"lng":-77.29721},{"id":117616,"name":"Greenbelt","lat":39.00455,"lng":-76.87553},{"id":117666,"name":"Greensboro","lat":38.97372,"lng":-75.80493},{"id":117838,"name":"Hagerstown","lat":39.64176,"lng":-77.71999},{"id":117857,"name":"Halfway","lat":39.62065,"lng":-77.75888},{"id":117923,"name":"Hampstead","lat":39.60483,"lng":-76.84998},{"id":117928,"name":"Hampton","lat":39.42288,"lng":-76.58469},{"id":117947,"name":"Hancock","lat":39.69898,"lng":-78.17973},{"id":117967,"name":"Hanover","lat":39.19289,"lng":-76.72414},{"id":118012,"name":"Harford","lat":39.53644,"lng":-76.29887},{"id":118155,"name":"Havre de Grace","lat":39.54928,"lng":-76.09162},{"id":118233,"name":"Hebron","lat":38.42012,"lng":-75.68771},{"id":118312,"name":"Herald Harbor","lat":39.05372,"lng":-76.56913},{"id":118390,"name":"Highfield-Cascade","lat":39.71616,"lng":-77.48282},{"id":118395,"name":"Highland","lat":39.179,"lng":-76.95748},{"id":118438,"name":"Hillandale","lat":39.0265,"lng":-76.97414},{"id":118441,"name":"Hillcrest Heights","lat":38.83289,"lng":-76.95942},{"id":118467,"name":"Hillsmere Shores","lat":38.94011,"lng":-76.49496},{"id":118713,"name":"Howard","lat":39.25072,"lng":-76.93119},{"id":118762,"name":"Hughesville","lat":38.53262,"lng":-76.78386},{"id":118787,"name":"Hunt Valley","lat":39.49983,"lng":-76.64108},{"id":118810,"name":"Huntingtown","lat":38.61595,"lng":-76.61302},{"id":118811,"name":"Huntingtown Town Center","lat":38.62095,"lng":-76.61607},{"id":118823,"name":"Hurlock","lat":38.62428,"lng":-75.85438},{"id":118844,"name":"Hyattsville","lat":38.95594,"lng":-76.94553},{"id":118877,"name":"Ilchester","lat":39.25094,"lng":-76.76469},{"id":118903,"name":"Indian Head","lat":38.60012,"lng":-77.1622},{"id":119008,"name":"Irvington","lat":39.28288,"lng":-76.68608},{"id":119135,"name":"Jarrettsville","lat":39.60455,"lng":-76.47774},{"id":119164,"name":"Jefferson","lat":39.36205,"lng":-77.53165},{"id":119237,"name":"Jessup","lat":39.14927,"lng":-76.77525},{"id":119314,"name":"Joppatowne","lat":39.45789,"lng":-76.35524},{"id":119417,"name":"Keedysville","lat":39.48621,"lng":-77.69971},{"id":119436,"name":"Kemp Mill","lat":39.039,"lng":-77.01914},{"id":119480,"name":"Kensington","lat":39.02567,"lng":-77.07637},{"id":119491,"name":"Kent","lat":39.2356,"lng":-76.09582},{"id":119526,"name":"Kettering","lat":38.88456,"lng":-76.81469},{"id":119633,"name":"Kingstown","lat":39.20483,"lng":-76.05133},{"id":119635,"name":"Kingsville","lat":39.44872,"lng":-76.41774},{"id":119773,"name":"La Plata","lat":38.52929,"lng":-76.97525},{"id":119791,"name":"La Vale","lat":39.65564,"lng":-78.81058},{"id":119864,"name":"Lake Arbor","lat":38.90789,"lng":-76.82969},{"id":119976,"name":"Lake Shore","lat":39.10705,"lng":-76.48496},{"id":120102,"name":"Landover","lat":38.934,"lng":-76.89664},{"id":120103,"name":"Landover Hills","lat":38.94317,"lng":-76.8922},{"id":120115,"name":"Langley Park","lat":38.98872,"lng":-76.98136},{"id":120117,"name":"Lanham","lat":38.96875,"lng":-76.8634},{"id":120118,"name":"Lanham-Seabrook","lat":38.96835,"lng":-76.85108},{"id":120122,"name":"Lansdowne","lat":39.24511,"lng":-76.66052},{"id":120144,"name":"Largo","lat":38.89761,"lng":-76.83025},{"id":120189,"name":"Laurel","lat":39.09928,"lng":-76.84831},{"id":120252,"name":"Layhill","lat":39.09233,"lng":-77.04442},{"id":120345,"name":"Leisure World","lat":39.1023,"lng":-77.06898},{"id":120390,"name":"Leonardtown","lat":38.29124,"lng":-76.63579},{"id":120455,"name":"Lexington Park","lat":38.26679,"lng":-76.45384},{"id":120578,"name":"Linganore","lat":39.44038,"lng":-77.20804},{"id":120588,"name":"Linthicum","lat":39.20511,"lng":-76.65275},{"id":120671,"name":"Lochearn","lat":39.34066,"lng":-76.72219},{"id":120719,"name":"Lonaconing","lat":39.56592,"lng":-78.9803},{"id":120725,"name":"Londontowne","lat":38.93345,"lng":-76.54941},{"id":120733,"name":"Long Beach","lat":38.46096,"lng":-76.46884},{"id":120891,"name":"Lusby","lat":38.41068,"lng":-76.45523},{"id":120895,"name":"Lutherville","lat":39.42122,"lng":-76.62608},{"id":120896,"name":"Lutherville-Timonium","lat":39.43997,"lng":-76.61099},{"id":121090,"name":"Manchester","lat":39.66121,"lng":-76.88498},{"id":121277,"name":"Marlboro Meadows","lat":38.83622,"lng":-76.71497},{"id":121278,"name":"Marlboro Village","lat":38.83054,"lng":-76.76965},{"id":121286,"name":"Marlow Heights","lat":38.83345,"lng":-76.95164},{"id":121287,"name":"Marlton","lat":38.77373,"lng":-76.78997},{"id":121355,"name":"Maryland City","lat":39.09205,"lng":-76.81775},{"id":121418,"name":"Maugansville","lat":39.69287,"lng":-77.74472},{"id":121443,"name":"Mayo","lat":38.88761,"lng":-76.5119},{"id":121446,"name":"Mays Chapel","lat":39.43316,"lng":-76.64941},{"id":121582,"name":"Mechanicsville","lat":38.4429,"lng":-76.74385},{"id":121626,"name":"Mellwood","lat":38.81039,"lng":-76.82414},{"id":121762,"name":"Middle River","lat":39.33427,"lng":-76.43941},{"id":121786,"name":"Middletown","lat":39.44371,"lng":-77.54471},{"id":121860,"name":"Milford Mill","lat":39.34788,"lng":-76.76997},{"id":122004,"name":"Mitchellville","lat":38.92511,"lng":-76.74275},{"id":122145,"name":"Montgomery County","lat":39.13638,"lng":-77.20424},{"id":122156,"name":"Montgomery Village","lat":39.17677,"lng":-77.19526},{"id":122257,"name":"Morningside","lat":38.83011,"lng":-76.89136},{"id":122330,"name":"Mount Airy","lat":39.37621,"lng":-77.1547},{"id":122387,"name":"Mount Rainier","lat":38.9415,"lng":-76.96498},{"id":122421,"name":"Mountain Lake Park","lat":39.39843,"lng":-79.38171},{"id":122519,"name":"Myersville","lat":39.5051,"lng":-77.56638},{"id":122592,"name":"National Harbor","lat":38.78264,"lng":-77.01506},{"id":122599,"name":"Naval Academy","lat":38.98568,"lng":-76.48774},{"id":122681,"name":"New Carrollton","lat":38.96983,"lng":-76.87997},{"id":122793,"name":"New Windsor","lat":39.54205,"lng":-77.10804},{"id":122977,"name":"North Beach","lat":38.70734,"lng":-76.53107},{"id":122979,"name":"North Bel Air","lat":39.53983,"lng":-76.35496},{"id":122989,"name":"North Bethesda","lat":39.04455,"lng":-77.11887},{"id":123017,"name":"North East","lat":39.60011,"lng":-75.94133},{"id":123046,"name":"North Kensington","lat":39.03039,"lng":-77.07248},{"id":123054,"name":"North Laurel","lat":39.139,"lng":-76.87053},{"id":123087,"name":"North Potomac","lat":39.08289,"lng":-77.26498},{"id":123284,"name":"Oakland","lat":39.40787,"lng":-79.40671},{"id":123326,"name":"Ocean City","lat":38.3365,"lng":-75.08491},{"id":123333,"name":"Ocean Pines","lat":38.39539,"lng":-75.15574},{"id":123356,"name":"Odenton","lat":39.084,"lng":-76.70025},{"id":123456,"name":"Olney","lat":39.15316,"lng":-77.06692},{"id":123652,"name":"Overlea","lat":39.36344,"lng":-76.52052},{"id":123668,"name":"Owings","lat":38.71762,"lng":-76.60135},{"id":123669,"name":"Owings Mills","lat":39.41955,"lng":-76.78025},{"id":123691,"name":"Oxon Hill","lat":38.80345,"lng":-76.9897},{"id":123692,"name":"Oxon Hill-Glassmanor","lat":38.79615,"lng":-76.97499},{"id":123825,"name":"Paramount-Long Meadow","lat":39.68042,"lng":-77.6929},{"id":123877,"name":"Parkville","lat":39.37733,"lng":-76.53969},{"id":123887,"name":"Parole","lat":38.97956,"lng":-76.53052},{"id":123895,"name":"Pasadena","lat":39.10733,"lng":-76.57108},{"id":124055,"name":"Peppermill Village","lat":38.89472,"lng":-76.88654},{"id":124083,"name":"Perry Hall","lat":39.41261,"lng":-76.46357},{"id":124085,"name":"Perryman","lat":39.46955,"lng":-76.2044},{"id":124090,"name":"Perryville","lat":39.56011,"lng":-76.07134},{"id":124197,"name":"Pikesville","lat":39.37427,"lng":-76.72247},{"id":124305,"name":"Pittsville","lat":38.39539,"lng":-75.41297},{"id":124373,"name":"Pleasant Hills","lat":39.47955,"lng":-76.39413},{"id":124420,"name":"Pocomoke City","lat":38.07568,"lng":-75.56798},{"id":124434,"name":"Point of Rocks","lat":39.27594,"lng":-77.53915},{"id":124480,"name":"Poolesville","lat":39.14594,"lng":-77.41693},{"id":124582,"name":"Potomac","lat":39.01817,"lng":-77.20859},{"id":124583,"name":"Potomac Heights","lat":38.60873,"lng":-77.14053},{"id":124585,"name":"Potomac Park","lat":39.61176,"lng":-78.80585},{"id":124673,"name":"Prince Frederick","lat":38.5404,"lng":-76.5844},{"id":124676,"name":"Prince George's","lat":38.82952,"lng":-76.84729},{"id":124679,"name":"Princess Anne","lat":38.2029,"lng":-75.69243},{"id":124745,"name":"Pumphrey","lat":39.21733,"lng":-76.63719},{"id":124785,"name":"Queen Anne","lat":38.89872,"lng":-76.6783},{"id":124786,"name":"Queen Anne's","lat":39.03763,"lng":-76.08504},{"id":124789,"name":"Queenland","lat":38.80524,"lng":-76.79126},{"id":124863,"name":"Randallstown","lat":39.36733,"lng":-76.79525},{"id":124974,"name":"Redland","lat":39.14539,"lng":-77.14415},{"id":125012,"name":"Reisterstown","lat":39.46976,"lng":-76.8319},{"id":125125,"name":"Ridgely","lat":38.94789,"lng":-75.88438},{"id":125170,"name":"Rising Sun","lat":39.69789,"lng":-76.06273},{"id":125175,"name":"Riva","lat":38.95206,"lng":-76.57802},{"id":125198,"name":"Riverdale Park","lat":38.96344,"lng":-76.93164},{"id":125202,"name":"Riverside","lat":39.47372,"lng":-76.24134},{"id":125222,"name":"Riviera Beach","lat":39.16678,"lng":-76.50802},{"id":125255,"name":"Robinwood","lat":39.63704,"lng":-77.65694},{"id":125278,"name":"Rock Hall","lat":39.13817,"lng":-76.23495},{"id":125322,"name":"Rockville","lat":39.084,"lng":-77.15276},{"id":125398,"name":"Rosaryville","lat":38.75678,"lng":-76.80969},{"id":125416,"name":"Rosedale","lat":39.32011,"lng":-76.51552},{"id":125453,"name":"Rossmoor","lat":39.10372,"lng":-77.07109},{"id":125458,"name":"Rossville","lat":39.33844,"lng":-76.47968},{"id":125611,"name":"Saint Charles","lat":38.60317,"lng":-76.93858},{"id":125652,"name":"Saint James","lat":39.5626,"lng":-77.75805},{"id":125691,"name":"Saint Mary's","lat":38.21586,"lng":-76.52906},{"id":125698,"name":"Saint Michaels","lat":38.78512,"lng":-76.22439},{"id":125754,"name":"Salisbury","lat":38.36067,"lng":-75.59937},{"id":125971,"name":"Savage","lat":39.13789,"lng":-76.82386},{"id":125994,"name":"Scaggsville","lat":39.14511,"lng":-76.90025},{"id":126078,"name":"Seabrook","lat":38.96805,"lng":-76.84658},{"id":126103,"name":"Seat Pleasant","lat":38.89622,"lng":-76.90664},{"id":126131,"name":"Selby-on-the-Bay","lat":38.91622,"lng":-76.52246},{"id":126178,"name":"Severn","lat":39.13705,"lng":-76.6983},{"id":126179,"name":"Severna Park","lat":39.07039,"lng":-76.54524},{"id":126207,"name":"Shady Side","lat":38.84178,"lng":-76.51218},{"id":126426,"name":"Silver Hill","lat":38.84178,"lng":-76.94581},{"id":126434,"name":"Silver Spring","lat":38.99067,"lng":-77.02609},{"id":126524,"name":"Smithsburg","lat":39.65482,"lng":-77.57277},{"id":126545,"name":"Snow Hill","lat":38.17706,"lng":-75.3927},{"id":126570,"name":"Solomons","lat":38.31846,"lng":-76.45412},{"id":126579,"name":"Somerset","lat":38.96594,"lng":-77.09609},{"id":126586,"name":"Somerset County","lat":38.08007,"lng":-75.85347},{"id":126621,"name":"South Bel Air","lat":39.53316,"lng":-76.33746},{"id":126658,"name":"South Gate","lat":39.129,"lng":-76.6258},{"id":126682,"name":"South Kensington","lat":39.019,"lng":-77.07998},{"id":126686,"name":"South Laurel","lat":39.06983,"lng":-76.85025},{"id":126831,"name":"Spencerville","lat":39.11427,"lng":-76.97831},{"id":126872,"name":"Spring Ridge","lat":39.40149,"lng":-77.35248},{"id":126884,"name":"Springdale","lat":38.93761,"lng":-76.83886},{"id":127047,"name":"Stevensville","lat":38.98067,"lng":-76.3144},{"id":127178,"name":"Suitland","lat":38.84872,"lng":-76.92386},{"id":127179,"name":"Suitland-Silver Hill","lat":38.84685,"lng":-76.92591},{"id":127203,"name":"Summerfield","lat":38.90454,"lng":-76.8683},{"id":127352,"name":"Sykesville","lat":39.37371,"lng":-76.96776},{"id":127382,"name":"Takoma Park","lat":38.97789,"lng":-77.00748},{"id":127384,"name":"Talbot","lat":38.7491,"lng":-76.17862},{"id":127411,"name":"Taneytown","lat":39.65788,"lng":-77.17443},{"id":127502,"name":"Temple Hills","lat":38.814,"lng":-76.94553},{"id":127629,"name":"Thurmont","lat":39.62371,"lng":-77.41082},{"id":127663,"name":"Timonium","lat":39.43705,"lng":-76.61969},{"id":127768,"name":"Towson","lat":39.4015,"lng":-76.60191},{"id":127781,"name":"Trappe","lat":38.65845,"lng":-76.058},{"id":127786,"name":"Travilah","lat":39.069,"lng":-77.26304},{"id":128032,"name":"University Park","lat":38.97039,"lng":-76.94192},{"id":128046,"name":"Upper Marlboro","lat":38.81595,"lng":-76.74969},{"id":128060,"name":"Urbana","lat":39.32594,"lng":-77.35137},{"id":128375,"name":"Waldorf","lat":38.62456,"lng":-76.93914},{"id":128389,"name":"Walker Mill","lat":38.87539,"lng":-76.88831},{"id":128390,"name":"Walkersville","lat":39.48621,"lng":-77.35193},{"id":128560,"name":"Washington County","lat":39.60367,"lng":-77.81398},{"id":128860,"name":"West Elkridge","lat":39.20705,"lng":-76.72692},{"id":128912,"name":"West Laurel","lat":39.10122,"lng":-76.8997},{"id":128943,"name":"West Ocean City","lat":38.3315,"lng":-75.10685},{"id":129026,"name":"Westernport","lat":39.48537,"lng":-79.04475},{"id":129043,"name":"Westminster","lat":39.57538,"lng":-76.99581},{"id":129069,"name":"Westphalia","lat":38.84539,"lng":-76.81108},{"id":129112,"name":"Wheaton","lat":39.03983,"lng":-77.05526},{"id":129145,"name":"White Marsh","lat":39.38372,"lng":-76.43218},{"id":129148,"name":"White Oak","lat":39.03983,"lng":-76.99303},{"id":129222,"name":"Wicomico","lat":38.36942,"lng":-75.63151},{"id":129279,"name":"Williamsport","lat":39.60065,"lng":-77.82055},{"id":129338,"name":"Wilson-Conococheague","lat":39.65351,"lng":-77.83157},{"id":129534,"name":"Woodlawn","lat":39.32288,"lng":-76.72803},{"id":129544,"name":"Woodmore","lat":38.92122,"lng":-76.80303},{"id":129552,"name":"Woodsboro","lat":39.53316,"lng":-77.31471},{"id":129586,"name":"Worcester County","lat":38.2165,"lng":-75.29667}]