[{"id":110982,"name":"Abilene","lat":38.91722,"lng":-97.21391},{"id":111188,"name":"Allen","lat":37.88573,"lng":-95.30139},{"id":111208,"name":"Alma","lat":39.01667,"lng":-96.28916},{"id":111233,"name":"Altamont","lat":37.19034,"lng":-95.29719},{"id":111315,"name":"Anderson County","lat":38.2142,"lng":-95.29333},{"id":111322,"name":"Andover","lat":37.7139,"lng":-97.13643},{"id":111368,"name":"Anthony","lat":37.15336,"lng":-98.03117},{"id":111457,"name":"Arkansas City","lat":37.06197,"lng":-97.03837},{"id":111475,"name":"Arma","lat":37.54394,"lng":-94.70024},{"id":111527,"name":"Ashland","lat":37.18864,"lng":-99.76568},{"id":111567,"name":"Atchison","lat":39.56305,"lng":-95.12164},{"id":111568,"name":"Atchison County","lat":39.53174,"lng":-95.31344},{"id":111615,"name":"Atwood","lat":39.80667,"lng":-101.0421},{"id":111622,"name":"Auburn","lat":38.90611,"lng":-95.8161},{"id":111647,"name":"Augusta","lat":37.68668,"lng":-96.9767},{"id":111759,"name":"Baldwin City","lat":38.77501,"lng":-95.18636},{"id":111812,"name":"Barber","lat":37.22884,"lng":-98.68479},{"id":111866,"name":"Barton","lat":38.47896,"lng":-98.75646},{"id":111876,"name":"Basehor","lat":39.14167,"lng":-94.93858},{"id":111919,"name":"Baxter Springs","lat":37.02368,"lng":-94.7355},{"id":112074,"name":"Bellaire","lat":37.76251,"lng":-97.26699},{"id":112088,"name":"Belle Plaine","lat":37.39391,"lng":-97.28115},{"id":112104,"name":"Belleville","lat":39.82445,"lng":-97.63254},{"id":112145,"name":"Beloit","lat":39.45612,"lng":-98.10616},{"id":112543,"name":"Bonner Springs","lat":39.05973,"lng":-94.88358},{"id":112613,"name":"Bourbon","lat":37.85523,"lng":-94.8493},{"id":112909,"name":"Brown","lat":39.8265,"lng":-95.56422},{"id":113024,"name":"Buhler","lat":38.13445,"lng":-97.77005},{"id":113066,"name":"Burlington","lat":38.19447,"lng":-95.74276},{"id":113115,"name":"Butler County","lat":37.78127,"lng":-96.83907},{"id":113179,"name":"Caldwell","lat":37.03225,"lng":-97.60699},{"id":113328,"name":"Caney","lat":37.01146,"lng":-95.93526},{"id":113387,"name":"Carbondale","lat":38.81862,"lng":-95.68915},{"id":113739,"name":"Chanute","lat":37.67921,"lng":-95.4572},{"id":113744,"name":"Chapman","lat":38.97222,"lng":-97.02251},{"id":113792,"name":"Chase","lat":38.30205,"lng":-96.59393},{"id":113814,"name":"Chautauqua","lat":37.15006,"lng":-96.24538},{"id":113839,"name":"Cheney","lat":37.63001,"lng":-97.78255},{"id":113851,"name":"Cherokee County","lat":37.16931,"lng":-94.84627},{"id":113868,"name":"Cherryvale","lat":37.27034,"lng":-95.55248},{"id":113916,"name":"Chetopa","lat":37.03729,"lng":-95.08996},{"id":113928,"name":"Cheyenne","lat":39.78587,"lng":-101.7311},{"id":114023,"name":"Cimarron","lat":37.80669,"lng":-100.3482},{"id":114124,"name":"Clark County","lat":37.23552,"lng":-99.82031},{"id":114170,"name":"Clay Center","lat":39.37694,"lng":-97.12474},{"id":114179,"name":"Clay County","lat":39.34971,"lng":-97.16517},{"id":114223,"name":"Clearwater","lat":37.5028,"lng":-97.50449},{"id":114306,"name":"Cloud","lat":39.4803,"lng":-97.64928},{"id":114370,"name":"Coffey","lat":38.23684,"lng":-95.73411},{"id":114371,"name":"Coffeyville","lat":37.0373,"lng":-95.61637},{"id":114381,"name":"Colby","lat":39.39584,"lng":-101.05238},{"id":114392,"name":"Coldwater","lat":37.26891,"lng":-99.32678},{"id":114492,"name":"Columbus","lat":37.16923,"lng":-94.84412},{"id":114507,"name":"Colwich","lat":37.77918,"lng":-97.53644},{"id":114512,"name":"Comanche County","lat":37.19128,"lng":-99.27187},{"id":114544,"name":"Concordia","lat":39.57084,"lng":-97.66254},{"id":114588,"name":"Conway Springs","lat":37.3903,"lng":-97.64227},{"id":114704,"name":"Cottonwood Falls","lat":38.37224,"lng":-96.54278},{"id":114713,"name":"Council Grove","lat":38.66112,"lng":-96.49195},{"id":114748,"name":"Cowley","lat":37.23775,"lng":-96.83749},{"id":114778,"name":"Crawford","lat":37.50732,"lng":-94.85181},{"id":115115,"name":"De Soto","lat":38.97917,"lng":-94.96858},{"id":115163,"name":"Decatur County","lat":39.78476,"lng":-100.4599},{"id":115260,"name":"Derby","lat":37.54557,"lng":-97.26893},{"id":115327,"name":"Dickinson","lat":38.8665,"lng":-97.1527},{"id":115336,"name":"Dighton","lat":38.48196,"lng":-100.46708},{"id":115376,"name":"Dodge City","lat":37.7528,"lng":-100.01708},{"id":115398,"name":"Doniphan","lat":39.78808,"lng":-95.14679},{"id":115427,"name":"Douglas County","lat":38.88466,"lng":-95.29261},{"id":115437,"name":"Douglass","lat":37.51946,"lng":-97.01281},{"id":115848,"name":"Edgerton","lat":38.76473,"lng":-95.00802},{"id":115890,"name":"Edwards","lat":37.88765,"lng":-99.31217},{"id":115893,"name":"Edwardsville","lat":39.06112,"lng":-94.81968},{"id":115920,"name":"El Dorado","lat":37.81724,"lng":-96.86225},{"id":115984,"name":"Elk","lat":37.45369,"lng":-96.24409},{"id":115999,"name":"Elkhart","lat":37.00808,"lng":-101.89017},{"id":116027,"name":"Ellinwood","lat":38.35557,"lng":-98.58091},{"id":116029,"name":"Ellis","lat":38.93807,"lng":-99.56067},{"id":116030,"name":"Ellis County","lat":38.91475,"lng":-99.31723},{"id":116037,"name":"Ellsworth","lat":38.73056,"lng":-98.22811},{"id":116040,"name":"Ellsworth County","lat":38.69663,"lng":-98.20473},{"id":116077,"name":"Elwood","lat":39.75555,"lng":-94.87247},{"id":116111,"name":"Emporia","lat":38.4039,"lng":-96.18166},{"id":116164,"name":"Erie","lat":37.56811,"lng":-95.24331},{"id":116223,"name":"Eudora","lat":38.94334,"lng":-95.09858},{"id":116232,"name":"Eureka","lat":37.82392,"lng":-96.28917},{"id":116362,"name":"Fairway","lat":39.02223,"lng":-94.6319},{"id":116518,"name":"Finney","lat":38.0443,"lng":-100.73699},{"id":116636,"name":"Ford","lat":37.6917,"lng":-99.88794},{"id":116746,"name":"Fort Riley North","lat":39.11081,"lng":-96.81392},{"id":116749,"name":"Fort Scott","lat":37.83976,"lng":-94.7083},{"id":116849,"name":"Franklin County","lat":38.56452,"lng":-95.28595},{"id":116895,"name":"Fredonia","lat":37.53394,"lng":-95.82665},{"id":116961,"name":"Frontenac","lat":37.4556,"lng":-94.68913},{"id":117022,"name":"Galena","lat":37.0759,"lng":-94.63967},{"id":117059,"name":"Garden City","lat":37.97169,"lng":-100.87266},{"id":117074,"name":"Gardner","lat":38.81084,"lng":-94.92719},{"id":117095,"name":"Garnett","lat":38.28058,"lng":-95.24192},{"id":117131,"name":"Geary","lat":39.00236,"lng":-96.75254},{"id":117227,"name":"Girard","lat":37.51116,"lng":-94.83802},{"id":117332,"name":"Goddard","lat":37.65974,"lng":-97.57533},{"id":117385,"name":"Goodland","lat":39.35083,"lng":-101.71017},{"id":117420,"name":"Gove","lat":38.95779,"lng":-100.48875},{"id":117421,"name":"Gove County","lat":38.9161,"lng":-100.4829},{"id":117437,"name":"Graham County","lat":39.34972,"lng":-99.88325},{"id":117482,"name":"Grandview Plaza","lat":39.02916,"lng":-96.78917},{"id":117516,"name":"Grant County","lat":37.56219,"lng":-101.30802},{"id":117553,"name":"Gray","lat":37.7382,"lng":-100.43786},{"id":117570,"name":"Great Bend","lat":38.36446,"lng":-98.76481},{"id":117588,"name":"Greeley County","lat":38.48054,"lng":-101.80597},{"id":117670,"name":"Greensburg","lat":37.6028,"lng":-99.29261},{"id":117709,"name":"Greenwood County","lat":37.87779,"lng":-96.23264},{"id":117877,"name":"Halstead","lat":38.0014,"lng":-97.50865},{"id":117904,"name":"Hamilton County","lat":37.99915,"lng":-101.79126},{"id":118031,"name":"Harper","lat":37.28669,"lng":-98.02589},{"id":118033,"name":"Harper County","lat":37.1916,"lng":-98.0755},{"id":118115,"name":"Harvey","lat":38.04322,"lng":-97.42727},{"id":118127,"name":"Haskell County","lat":37.56225,"lng":-100.87119},{"id":118148,"name":"Haven","lat":37.8989,"lng":-97.78283},{"id":118190,"name":"Hays","lat":38.87918,"lng":-99.32677},{"id":118193,"name":"Haysville","lat":37.56446,"lng":-97.35227},{"id":118316,"name":"Herington","lat":38.67112,"lng":-96.94251},{"id":118345,"name":"Hesston","lat":38.13834,"lng":-97.43143},{"id":118357,"name":"Hiawatha","lat":39.8525,"lng":-95.53582},{"id":118394,"name":"Highland","lat":39.85972,"lng":-95.2697},{"id":118434,"name":"Hill City","lat":39.36473,"lng":-99.84206},{"id":118445,"name":"Hillsboro","lat":38.35196,"lng":-97.20447},{"id":118507,"name":"Hodgeman","lat":38.08748,"lng":-99.89794},{"id":118513,"name":"Hoisington","lat":38.51807,"lng":-98.77814},{"id":118521,"name":"Holcomb","lat":37.98614,"lng":-100.98933},{"id":118578,"name":"Holton","lat":39.46527,"lng":-95.73637},{"id":118678,"name":"Horton","lat":39.66056,"lng":-95.52637},{"id":118707,"name":"Howard","lat":37.47031,"lng":-96.26361},{"id":118727,"name":"Hoxie","lat":39.3575,"lng":-100.44181},{"id":118768,"name":"Hugoton","lat":37.1753,"lng":-101.3496},{"id":118775,"name":"Humboldt","lat":37.8106,"lng":-95.43693},{"id":118835,"name":"Hutchinson","lat":38.06084,"lng":-97.92977},{"id":118889,"name":"Independence","lat":37.22424,"lng":-95.70831},{"id":118944,"name":"Inman","lat":38.23195,"lng":-97.77338},{"id":118966,"name":"Iola","lat":37.92448,"lng":-95.39998},{"id":119081,"name":"Jackson County","lat":39.41682,"lng":-95.79366},{"id":119181,"name":"Jefferson County","lat":39.23576,"lng":-95.38345},{"id":119241,"name":"Jetmore","lat":38.08446,"lng":-99.89346},{"id":119243,"name":"Jewell","lat":39.78473,"lng":-98.21834},{"id":119256,"name":"Johnson","lat":37.57057,"lng":-101.751},{"id":119264,"name":"Johnson County","lat":38.88376,"lng":-94.82226},{"id":119334,"name":"Junction City","lat":39.02861,"lng":-96.8314},{"id":119383,"name":"Kansas City","lat":39.11417,"lng":-94.62746},{"id":119414,"name":"Kearny","lat":38.0002,"lng":-101.31986},{"id":119416,"name":"Kechi","lat":37.79585,"lng":-97.27949},{"id":119594,"name":"Kingman","lat":37.64585,"lng":-98.11367},{"id":119596,"name":"Kingman County","lat":37.55888,"lng":-98.13633},{"id":119642,"name":"Kinsley","lat":37.92307,"lng":-99.40984},{"id":119644,"name":"Kiowa","lat":37.01725,"lng":-98.48535},{"id":119646,"name":"Kiowa County","lat":37.55826,"lng":-99.28605},{"id":119743,"name":"La Crosse","lat":38.5314,"lng":-99.30872},{"id":119746,"name":"La Cygne","lat":38.35002,"lng":-94.76135},{"id":119809,"name":"Labette","lat":37.19133,"lng":-95.29758},{"id":120056,"name":"Lakin","lat":37.94058,"lng":-101.25489},{"id":120105,"name":"Lane","lat":38.4813,"lng":-100.4664},{"id":120125,"name":"Lansing","lat":39.24861,"lng":-94.90024},{"id":120150,"name":"Larned","lat":38.18057,"lng":-99.09871},{"id":120226,"name":"Lawrence","lat":38.97167,"lng":-95.23525},{"id":120280,"name":"Leavenworth","lat":39.31111,"lng":-94.92246},{"id":120282,"name":"Leavenworth County","lat":39.19932,"lng":-95.0379},{"id":120283,"name":"Leawood","lat":38.96667,"lng":-94.6169},{"id":120369,"name":"Lenexa","lat":38.95362,"lng":-94.73357},{"id":120393,"name":"Leoti","lat":38.47974,"lng":-101.35877},{"id":120458,"name":"Liberal","lat":37.04308,"lng":-100.921},{"id":120501,"name":"Lincoln","lat":39.04084,"lng":-98.14477},{"id":120518,"name":"Lincoln County","lat":39.04533,"lng":-98.2077},{"id":120575,"name":"Lindsborg","lat":38.57362,"lng":-97.67448},{"id":120581,"name":"Linn County","lat":38.21227,"lng":-94.84293},{"id":120702,"name":"Logan County","lat":38.91734,"lng":-101.14839},{"id":120808,"name":"Louisburg","lat":38.61946,"lng":-94.68079},{"id":120922,"name":"Lyndon","lat":38.61001,"lng":-95.68443},{"id":120935,"name":"Lyon","lat":38.45619,"lng":-96.15264},{"id":120941,"name":"Lyons","lat":38.34501,"lng":-98.20173},{"id":121052,"name":"Maize","lat":37.77918,"lng":-97.46727},{"id":121113,"name":"Manhattan","lat":39.18361,"lng":-96.57167},{"id":121129,"name":"Mankato","lat":39.78723,"lng":-98.21005},{"id":121234,"name":"Marion","lat":38.34835,"lng":-97.01725},{"id":121253,"name":"Marion County","lat":38.35887,"lng":-97.09689},{"id":121311,"name":"Marshall County","lat":39.78362,"lng":-96.52294},{"id":121357,"name":"Marysville","lat":39.84111,"lng":-96.64724},{"id":121476,"name":"McConnell AFB","lat":37.63007,"lng":-97.25869},{"id":121545,"name":"McPherson","lat":38.37084,"lng":-97.66421},{"id":121546,"name":"McPherson County","lat":38.39167,"lng":-97.64808},{"id":121555,"name":"Meade","lat":37.28558,"lng":-100.34015},{"id":121557,"name":"Meade County","lat":37.2382,"lng":-100.36618},{"id":121601,"name":"Medicine Lodge","lat":37.28113,"lng":-98.58036},{"id":121702,"name":"Merriam","lat":39.02362,"lng":-94.69357},{"id":121751,"name":"Miami","lat":38.56358,"lng":-94.83806},{"id":121950,"name":"Minneapolis","lat":39.12194,"lng":-97.7067},{"id":121979,"name":"Mission","lat":39.02778,"lng":-94.65579},{"id":121986,"name":"Mission Hills","lat":39.01778,"lng":-94.6169},{"id":122000,"name":"Mitchell","lat":39.39327,"lng":-98.20936},{"id":122143,"name":"Montgomery County","lat":37.19252,"lng":-95.74288},{"id":122269,"name":"Morris","lat":38.68743,"lng":-96.64985},{"id":122296,"name":"Morton","lat":37.1914,"lng":-101.79925},{"id":122321,"name":"Mound City","lat":38.14281,"lng":-94.81357},{"id":122324,"name":"Moundridge","lat":38.20307,"lng":-97.51921},{"id":122464,"name":"Mulvane","lat":37.47446,"lng":-97.24393},{"id":122629,"name":"Nemaha","lat":39.78345,"lng":-96.0141},{"id":122631,"name":"Neodesha","lat":37.41839,"lng":-95.68026},{"id":122634,"name":"Neosho","lat":37.55849,"lng":-95.30679},{"id":122644,"name":"Ness","lat":38.47942,"lng":-99.91618},{"id":122643,"name":"Ness City","lat":38.45279,"lng":-99.90651},{"id":122692,"name":"New Century KS","lat":38.82253,"lng":-94.89971},{"id":122858,"name":"Newton","lat":38.04668,"lng":-97.34504},{"id":122894,"name":"Nickerson","lat":38.14723,"lng":-98.08367},{"id":123072,"name":"North Newton","lat":38.07223,"lng":-97.34559},{"id":123182,"name":"Norton","lat":39.83389,"lng":-99.89151},{"id":123186,"name":"Norton County","lat":39.78439,"lng":-99.90348},{"id":123299,"name":"Oakley","lat":39.13334,"lng":-100.86376},{"id":123316,"name":"Oberlin","lat":39.81834,"lng":-100.5282},{"id":123366,"name":"Ogden","lat":39.11111,"lng":-96.70612},{"id":123412,"name":"Olathe","lat":38.8814,"lng":-94.81913},{"id":123589,"name":"Osage","lat":38.65233,"lng":-95.72695},{"id":123588,"name":"Osage City","lat":38.6339,"lng":-95.82582},{"id":123593,"name":"Osawatomie","lat":38.49724,"lng":-94.95052},{"id":123594,"name":"Osborne","lat":39.43914,"lng":-98.69624},{"id":123595,"name":"Osborne County","lat":39.35033,"lng":-98.76799},{"id":123611,"name":"Oskaloosa","lat":39.21528,"lng":-95.31275},{"id":123621,"name":"Oswego","lat":37.16757,"lng":-95.10996},{"id":123636,"name":"Ottawa","lat":38.61557,"lng":-95.26775},{"id":123638,"name":"Ottawa County","lat":39.13254,"lng":-97.65022},{"id":123649,"name":"Overbrook","lat":38.78056,"lng":-95.5572},{"id":123651,"name":"Overland Park","lat":38.98223,"lng":-94.67079},{"id":123677,"name":"Oxford","lat":37.27419,"lng":-97.16893},{"id":123810,"name":"Paola","lat":38.57224,"lng":-94.87913},{"id":123837,"name":"Park City","lat":37.80001,"lng":-97.31838},{"id":123891,"name":"Parsons","lat":37.34034,"lng":-95.26108},{"id":123936,"name":"Pawnee County","lat":38.18133,"lng":-99.23673},{"id":123953,"name":"Peabody","lat":38.16946,"lng":-97.1067},{"id":124136,"name":"Phillips","lat":39.78458,"lng":-99.34702},{"id":124139,"name":"Phillipsburg","lat":39.75612,"lng":-99.32399},{"id":124292,"name":"Pittsburg","lat":37.41088,"lng":-94.70496},{"id":124325,"name":"Plains","lat":37.2603,"lng":-100.59265},{"id":124333,"name":"Plainville","lat":39.23473,"lng":-99.29816},{"id":124382,"name":"Pleasanton","lat":38.17781,"lng":-94.71135},{"id":124589,"name":"Pottawatomie","lat":39.37901,"lng":-96.34244},{"id":124632,"name":"Prairie Village","lat":38.99167,"lng":-94.63357},{"id":124636,"name":"Pratt","lat":37.64391,"lng":-98.73759},{"id":124637,"name":"Pratt County","lat":37.64774,"lng":-98.7396},{"id":124913,"name":"Rawlins","lat":39.78524,"lng":-101.07571},{"id":125021,"name":"Reno","lat":37.95295,"lng":-98.08601},{"id":125033,"name":"Republic","lat":39.8278,"lng":-97.65062},{"id":125053,"name":"Rice County","lat":38.34714,"lng":-98.20103},{"id":125138,"name":"Riley","lat":39.29646,"lng":-96.73518},{"id":125345,"name":"Roeland Park","lat":39.03751,"lng":-94.63218},{"id":125390,"name":"Rooks","lat":39.35023,"lng":-99.32505},{"id":125403,"name":"Rose Hill","lat":37.55835,"lng":-97.13504},{"id":125457,"name":"Rossville","lat":39.13611,"lng":-95.95166},{"id":125521,"name":"Rush","lat":38.52316,"lng":-99.30924},{"id":125533,"name":"Russell","lat":38.89527,"lng":-98.86103},{"id":125537,"name":"Russell County","lat":38.91478,"lng":-98.76235},{"id":125567,"name":"Sabetha","lat":39.90222,"lng":-95.80082},{"id":125635,"name":"Saint Francis","lat":39.77222,"lng":-101.7999},{"id":125660,"name":"Saint John","lat":38.00224,"lng":-98.76009},{"id":125692,"name":"Saint Marys","lat":39.19416,"lng":-96.0711},{"id":125744,"name":"Salina","lat":38.84028,"lng":-97.61142},{"id":125751,"name":"Saline","lat":38.78381,"lng":-97.64993},{"id":125954,"name":"Satanta","lat":37.43725,"lng":-100.97211},{"id":126053,"name":"Scott","lat":38.48217,"lng":-100.90686},{"id":126042,"name":"Scott City","lat":38.48252,"lng":-100.90709},{"id":126115,"name":"Sedan","lat":37.12672,"lng":-96.18694},{"id":126117,"name":"Sedgwick","lat":37.91668,"lng":-97.42254},{"id":126119,"name":"Sedgwick County","lat":37.68476,"lng":-97.46097},{"id":126154,"name":"Seneca","lat":39.83416,"lng":-96.06417},{"id":126189,"name":"Seward County","lat":37.1933,"lng":-100.85129},{"id":126232,"name":"Sharon Springs","lat":38.89779,"lng":-101.75212},{"id":126249,"name":"Shawnee","lat":39.04167,"lng":-94.72024},{"id":126251,"name":"Shawnee County","lat":39.04151,"lng":-95.75653},{"id":126324,"name":"Sheridan County","lat":39.35036,"lng":-100.44183},{"id":126333,"name":"Sherman County","lat":39.35143,"lng":-101.71998},{"id":126428,"name":"Silver Lake","lat":39.10417,"lng":-95.8586},{"id":126512,"name":"Smith","lat":39.78516,"lng":-98.78547},{"id":126511,"name":"Smith Center","lat":39.77918,"lng":-98.78507},{"id":126569,"name":"Solomon","lat":38.91944,"lng":-97.37114},{"id":126678,"name":"South Hutchinson","lat":38.02807,"lng":-97.94033},{"id":126861,"name":"Spring Hill","lat":38.74306,"lng":-94.82552},{"id":126936,"name":"Stafford County","lat":38.031,"lng":-98.71744},{"id":126973,"name":"Stanton County","lat":37.56306,"lng":-101.78418},{"id":127026,"name":"Sterling","lat":38.21001,"lng":-98.20701},{"id":127041,"name":"Stevens","lat":37.19232,"lng":-101.31205},{"id":127071,"name":"Stockton","lat":39.43807,"lng":-99.2651},{"id":127157,"name":"Sublette","lat":37.48169,"lng":-100.84377},{"id":127224,"name":"Sumner","lat":37.23728,"lng":-97.47655},{"id":127366,"name":"Syracuse","lat":37.98071,"lng":-101.7543},{"id":127580,"name":"Thomas","lat":39.35097,"lng":-101.05553},{"id":127719,"name":"Tonganoxie","lat":39.10972,"lng":-95.08775},{"id":127732,"name":"Topeka","lat":39.04833,"lng":-95.67804},{"id":127751,"name":"Towanda","lat":37.79752,"lng":-96.99976},{"id":127792,"name":"Trego","lat":38.91432,"lng":-99.87274},{"id":127820,"name":"Tribune","lat":38.46974,"lng":-101.75267},{"id":127842,"name":"Troy","lat":39.78305,"lng":-95.08997},{"id":127960,"name":"Ulysses","lat":37.58141,"lng":-101.35517},{"id":128099,"name":"Valley Center","lat":37.83473,"lng":-97.37338},{"id":128106,"name":"Valley Falls","lat":39.34333,"lng":-95.46025},{"id":128219,"name":"Victoria","lat":38.85279,"lng":-99.1476},{"id":128315,"name":"Wabaunsee","lat":38.95328,"lng":-96.20499},{"id":128308,"name":"WaKeeney","lat":39.02501,"lng":-99.87957},{"id":128399,"name":"Wallace","lat":38.91666,"lng":-101.76357},{"id":128444,"name":"Wamego","lat":39.20194,"lng":-96.305},{"id":128537,"name":"Washington","lat":39.81806,"lng":-97.05086},{"id":128558,"name":"Washington County","lat":39.7842,"lng":-97.08754},{"id":128633,"name":"Wathena","lat":39.75916,"lng":-94.94969},{"id":128777,"name":"Wellington","lat":37.2653,"lng":-97.37171},{"id":128791,"name":"Wellsville","lat":38.71834,"lng":-95.08164},{"id":129052,"name":"Westmoreland","lat":39.39389,"lng":-96.41361},{"id":129082,"name":"Westwood","lat":39.04056,"lng":-94.6169},{"id":129215,"name":"Wichita","lat":37.69224,"lng":-97.33754},{"id":129217,"name":"Wichita County","lat":38.48208,"lng":-101.34736},{"id":129334,"name":"Wilson County","lat":37.55924,"lng":-95.74339},{"id":129393,"name":"Winfield","lat":37.23975,"lng":-96.99559},{"id":129558,"name":"Woodson","lat":37.88667,"lng":-95.74017},{"id":129622,"name":"Wyandotte","lat":39.11465,"lng":-94.76448},{"id":129670,"name":"Yates Center","lat":37.88115,"lng":-95.73332}]