[{"id":110992,"name":"Acalanes Ridge","lat":37.90472,"lng":-122.07857},{"id":111001,"name":"Acton","lat":34.46999,"lng":-118.19674},{"id":111043,"name":"Adelanto","lat":34.58277,"lng":-117.40922},{"id":111056,"name":"Agoura","lat":34.14306,"lng":-118.73787},{"id":111057,"name":"Agoura Hills","lat":34.13639,"lng":-118.77453},{"id":111058,"name":"Agua Dulce","lat":34.49638,"lng":-118.32563},{"id":111061,"name":"Aguanga","lat":33.44281,"lng":-116.86502},{"id":111064,"name":"Ahwahnee","lat":37.3655,"lng":-119.72627},{"id":111088,"name":"Alameda","lat":37.76521,"lng":-122.24164},{"id":111089,"name":"Alameda County","lat":37.65055,"lng":-121.91789},{"id":111093,"name":"Alamo","lat":37.8502,"lng":-122.03218},{"id":111110,"name":"Albany","lat":37.88687,"lng":-122.29775},{"id":111169,"name":"Alhambra","lat":34.09529,"lng":-118.12701},{"id":111175,"name":"Aliso Viejo","lat":33.56504,"lng":-117.72712},{"id":111196,"name":"Allendale","lat":38.44463,"lng":-121.94302},{"id":111215,"name":"Alondra Park","lat":33.88946,"lng":-118.33091},{"id":111217,"name":"Alpaugh","lat":35.88773,"lng":-119.48734},{"id":111223,"name":"Alpine","lat":32.83505,"lng":-116.76641},{"id":111226,"name":"Alpine County","lat":38.59725,"lng":-119.82065},{"id":111230,"name":"Alta Sierra","lat":35.73126,"lng":-118.5539},{"id":111231,"name":"Altadena","lat":34.18973,"lng":-118.13118},{"id":111251,"name":"Alturas","lat":41.48714,"lng":-120.54349},{"id":111254,"name":"Alum Rock","lat":37.36605,"lng":-121.82718},{"id":111261,"name":"Amador","lat":38.44639,"lng":-120.65112},{"id":111271,"name":"American Canyon","lat":38.17492,"lng":-122.2608},{"id":111280,"name":"Amesti","lat":36.96356,"lng":-121.77912},{"id":111299,"name":"Anaheim","lat":33.83529,"lng":-117.9145},{"id":111314,"name":"Anderson","lat":40.44821,"lng":-122.29778},{"id":111337,"name":"Angels Camp","lat":38.06826,"lng":-120.53965},{"id":111343,"name":"Angwin","lat":38.57574,"lng":-122.44998},{"id":111364,"name":"Antelope","lat":38.70824,"lng":-121.32995},{"id":111373,"name":"Antioch","lat":38.00492,"lng":-121.80579},{"id":111378,"name":"Anza","lat":33.55503,"lng":-116.67363},{"id":111394,"name":"Apple Valley","lat":34.50083,"lng":-117.18588},{"id":111403,"name":"Aptos","lat":36.97717,"lng":-121.8994},{"id":111404,"name":"Aptos Hills-Larkin Valley","lat":36.96064,"lng":-121.83404},{"id":111416,"name":"Arbuckle","lat":39.0174,"lng":-122.05775},{"id":111425,"name":"Arcadia","lat":34.13973,"lng":-118.03534},{"id":111426,"name":"Arcata","lat":40.86652,"lng":-124.08284},{"id":111440,"name":"Arden-Arcade","lat":38.6025,"lng":-121.37854},{"id":111477,"name":"Armona","lat":36.31578,"lng":-119.70846},{"id":111488,"name":"Arnold","lat":38.25547,"lng":-120.35103},{"id":111491,"name":"Aromas","lat":36.88856,"lng":-121.643},{"id":111494,"name":"Arroyo Grande","lat":35.11859,"lng":-120.59073},{"id":111496,"name":"Artesia","lat":33.86585,"lng":-118.08312},{"id":111505,"name":"Arvin","lat":35.20913,"lng":-118.82843},{"id":111538,"name":"Ashland","lat":37.69465,"lng":-122.11385},{"id":111564,"name":"Atascadero","lat":35.48942,"lng":-120.67073},{"id":111582,"name":"Atherton","lat":37.46133,"lng":-122.19774},{"id":111613,"name":"Atwater","lat":37.34772,"lng":-120.60908},{"id":111617,"name":"Auberry","lat":37.08078,"lng":-119.48541},{"id":111631,"name":"Auburn","lat":38.89657,"lng":-121.07689},{"id":111635,"name":"Auburn Lake Trails","lat":38.91434,"lng":-120.95244},{"id":111644,"name":"August","lat":37.97881,"lng":-121.26217},{"id":111675,"name":"Avalon","lat":33.34281,"lng":-118.32785},{"id":111676,"name":"Avenal","lat":36.00412,"lng":-120.12903},{"id":111683,"name":"Avila Beach","lat":35.17998,"lng":-120.73184},{"id":111689,"name":"Avocado Heights","lat":34.03612,"lng":-117.99118},{"id":111713,"name":"Azusa","lat":34.13362,"lng":-117.90756},{"id":111744,"name":"Bakersfield","lat":35.37329,"lng":-119.01871},{"id":111763,"name":"Baldwin Park","lat":34.08529,"lng":-117.9609},{"id":111803,"name":"Banning","lat":33.92557,"lng":-116.87641},{"id":111857,"name":"Barstow","lat":34.89859,"lng":-117.02282},{"id":111858,"name":"Barstow Heights","lat":34.86971,"lng":-117.05615},{"id":111932,"name":"Bay Point","lat":38.02909,"lng":-121.96163},{"id":111957,"name":"Bayside","lat":40.84235,"lng":-124.06367},{"id":111959,"name":"Bayview","lat":40.77263,"lng":-124.18395},{"id":111971,"name":"Beale Air Force Base","lat":39.10917,"lng":-121.35444},{"id":111979,"name":"Bear Valley Springs","lat":35.15913,"lng":-118.62842},{"id":111990,"name":"Beaumont","lat":33.92946,"lng":-116.97725},{"id":112066,"name":"Bell","lat":33.97751,"lng":-118.18702},{"id":112070,"name":"Bell Gardens","lat":33.96529,"lng":-118.15146},{"id":112072,"name":"Bella Vista","lat":40.64071,"lng":-122.2325},{"id":112118,"name":"Bellflower","lat":33.88168,"lng":-118.11701},{"id":112142,"name":"Belmont","lat":37.52021,"lng":-122.2758},{"id":112153,"name":"Belvedere","lat":37.8727,"lng":-122.46442},{"id":112163,"name":"Ben Lomond","lat":37.08911,"lng":-122.08635},{"id":112168,"name":"Benicia","lat":38.04937,"lng":-122.15858},{"id":112223,"name":"Berkeley","lat":37.87159,"lng":-122.27275},{"id":112240,"name":"Bermuda Dunes","lat":33.7428,"lng":-116.28918},{"id":112253,"name":"Berry Creek","lat":39.64516,"lng":-121.4033},{"id":112260,"name":"Bertsch-Oceanview","lat":41.7525,"lng":-124.15875},{"id":112286,"name":"Bethel Island","lat":38.01492,"lng":-121.64051},{"id":112306,"name":"Beverly Hills","lat":34.07362,"lng":-118.40036},{"id":112315,"name":"Big Bear City","lat":34.26112,"lng":-116.84503},{"id":112316,"name":"Big Bear Lake","lat":34.2439,"lng":-116.91142},{"id":112328,"name":"Big Pine","lat":37.16493,"lng":-118.28955},{"id":112331,"name":"Big River","lat":34.14002,"lng":-114.36134},{"id":112340,"name":"Biggs","lat":39.41239,"lng":-121.71275},{"id":112352,"name":"Biola","lat":36.80217,"lng":-120.01627},{"id":112364,"name":"Bishop","lat":37.36354,"lng":-118.39511},{"id":112381,"name":"Black Point-Green Point","lat":38.11547,"lng":-122.51318},{"id":112387,"name":"Blackhawk","lat":37.82076,"lng":-121.90774},{"id":112453,"name":"Bloomington","lat":34.07029,"lng":-117.39588},{"id":112470,"name":"Blue Lake","lat":40.88291,"lng":-123.98395},{"id":112485,"name":"Blythe","lat":33.6103,"lng":-114.59635},{"id":112495,"name":"Bodega Bay","lat":38.33325,"lng":-123.04806},{"id":112496,"name":"Bodfish","lat":35.58801,"lng":-118.49203},{"id":112514,"name":"Bolinas","lat":37.90937,"lng":-122.68637},{"id":112529,"name":"Bonadelle Ranchos-Madera Ranchos","lat":36.98467,"lng":-119.87463},{"id":112537,"name":"Bonita","lat":32.65783,"lng":-117.03003},{"id":112548,"name":"Bonny Doon","lat":37.04162,"lng":-122.15052},{"id":112550,"name":"Bonsall","lat":33.28892,"lng":-117.22559},{"id":112571,"name":"Boonville","lat":39.00907,"lng":-123.36612},{"id":112578,"name":"Boron","lat":34.99942,"lng":-117.64978},{"id":112579,"name":"Boronda","lat":36.69885,"lng":-121.67495},{"id":112581,"name":"Borrego Springs","lat":33.25587,"lng":-116.37501},{"id":112591,"name":"Bostonia","lat":32.80755,"lng":-116.93642},{"id":112604,"name":"Boulder Creek","lat":37.12606,"lng":-122.12219},{"id":112646,"name":"Boyes Hot Springs","lat":38.3138,"lng":-122.48193},{"id":112649,"name":"Boyle Heights","lat":34.0339,"lng":-118.20535},{"id":112658,"name":"Bradbury","lat":34.14695,"lng":-117.9709},{"id":112700,"name":"Brawley","lat":32.97866,"lng":-115.53027},{"id":112707,"name":"Brea","lat":33.91668,"lng":-117.90006},{"id":112733,"name":"Brentwood","lat":37.93187,"lng":-121.69579},{"id":112736,"name":"Bret Harte","lat":37.60207,"lng":-121.00519},{"id":112765,"name":"Bridgeport","lat":38.25575,"lng":-119.23127},{"id":112800,"name":"Brisbane","lat":37.68077,"lng":-122.39997},{"id":112825,"name":"Broadmoor","lat":37.6866,"lng":-122.48275},{"id":112851,"name":"Brookdale","lat":37.10634,"lng":-122.10608},{"id":112893,"name":"Brooktrails","lat":39.44377,"lng":-123.38529},{"id":112983,"name":"Buckhorn","lat":38.45216,"lng":-120.52854},{"id":112997,"name":"Buellton","lat":34.6136,"lng":-120.19265},{"id":112999,"name":"Buena Park","lat":33.86751,"lng":-117.99812},{"id":113003,"name":"Buena Vista","lat":37.32133,"lng":-121.91662},{"id":113047,"name":"Burbank","lat":34.18084,"lng":-118.30897},{"id":113065,"name":"Burlingame","lat":37.5841,"lng":-122.36608},{"id":113082,"name":"Burney","lat":40.88238,"lng":-121.66082},{"id":113125,"name":"Butte","lat":39.66693,"lng":-121.60067},{"id":113129,"name":"Buttonwillow","lat":35.40052,"lng":-119.46956},{"id":113146,"name":"Byron","lat":37.86715,"lng":-121.63801},{"id":113148,"name":"Bystrom","lat":37.62076,"lng":-120.98577},{"id":113150,"name":"Cabazon","lat":33.91752,"lng":-116.78724},{"id":113173,"name":"Calabasas","lat":34.15778,"lng":-118.63842},{"id":113176,"name":"Calaveras","lat":38.20461,"lng":-120.55413},{"id":113196,"name":"Calexico","lat":32.67895,"lng":-115.49888},{"id":113218,"name":"California City","lat":35.1258,"lng":-117.9859},{"id":113219,"name":"Calimesa","lat":34.0039,"lng":-117.06198},{"id":113220,"name":"Calipatria","lat":33.1256,"lng":-115.51415},{"id":113221,"name":"Calistoga","lat":38.5788,"lng":-122.57971},{"id":113226,"name":"Callender","lat":35.05303,"lng":-120.59628},{"id":113242,"name":"Camarillo","lat":34.21639,"lng":-119.0376},{"id":113246,"name":"Cambria","lat":35.56414,"lng":-121.08075},{"id":113249,"name":"Cambrian Park","lat":37.25689,"lng":-121.93079},{"id":113281,"name":"Cameron Park","lat":38.66879,"lng":-120.98716},{"id":113285,"name":"Camino","lat":38.73824,"lng":-120.67493},{"id":113289,"name":"Camp Meeker","lat":38.42519,"lng":-122.95944},{"id":113290,"name":"Camp Pendleton North","lat":33.31465,"lng":-117.31603},{"id":113291,"name":"Camp Pendleton South","lat":33.22844,"lng":-117.37929},{"id":113298,"name":"Campbell","lat":37.28717,"lng":-121.94996},{"id":113308,"name":"Campo","lat":32.60645,"lng":-116.46891},{"id":113335,"name":"Canoga Park","lat":34.20112,"lng":-118.59814},{"id":113359,"name":"Canyon Lake","lat":33.68502,"lng":-117.27309},{"id":113376,"name":"Capitola","lat":36.97523,"lng":-121.95329},{"id":113408,"name":"Carlsbad","lat":33.15809,"lng":-117.35059},{"id":113420,"name":"Carmel Valley Village","lat":36.50605,"lng":-121.76594},{"id":113421,"name":"Carmel-by-the-Sea","lat":36.55524,"lng":-121.92329},{"id":113423,"name":"Carmichael","lat":38.61713,"lng":-121.32828},{"id":113440,"name":"Carpinteria","lat":34.39888,"lng":-119.51846},{"id":113474,"name":"Carson","lat":33.83141,"lng":-118.28202},{"id":113498,"name":"Caruthers","lat":36.54273,"lng":-119.8332},{"id":113509,"name":"Casa Conejo","lat":34.18362,"lng":-118.94343},{"id":113511,"name":"Casa de Oro-Mount Helix","lat":32.76397,"lng":-116.96877},{"id":113540,"name":"Castaic","lat":34.48888,"lng":-118.62287},{"id":113557,"name":"Castro Valley","lat":37.6941,"lng":-122.08635},{"id":113559,"name":"Castroville","lat":36.76579,"lng":-121.758},{"id":113570,"name":"Cathedral City","lat":33.77974,"lng":-116.46529},{"id":113592,"name":"Cayucos","lat":35.44275,"lng":-120.89213},{"id":113622,"name":"Cedar Ridge","lat":38.06576,"lng":-120.27686},{"id":113683,"name":"Central Valley (historical)","lat":40.68043,"lng":-122.37112},{"id":113698,"name":"Century City","lat":34.05557,"lng":-118.41786},{"id":113700,"name":"Ceres","lat":37.59493,"lng":-120.95771},{"id":113701,"name":"Cerritos","lat":33.85835,"lng":-118.06479},{"id":113714,"name":"Challenge-Brownsville","lat":39.46447,"lng":-121.26338},{"id":113734,"name":"Channel Islands Beach","lat":34.15806,"lng":-119.22316},{"id":113790,"name":"Charter Oak","lat":34.10306,"lng":-117.84589},{"id":113807,"name":"Chatsworth","lat":34.25723,"lng":-118.6012},{"id":113865,"name":"Cherry Valley","lat":33.97252,"lng":-116.97725},{"id":113867,"name":"Cherryland","lat":37.67938,"lng":-122.1033},{"id":113892,"name":"Chester","lat":40.30627,"lng":-121.23191},{"id":113943,"name":"Chico","lat":39.72849,"lng":-121.83748},{"id":113963,"name":"China Lake Acres","lat":35.64051,"lng":-117.76395},{"id":113964,"name":"Chinatown","lat":37.7966,"lng":-122.40858},{"id":113968,"name":"Chino","lat":34.01223,"lng":-117.68894},{"id":113969,"name":"Chino Hills","lat":33.9938,"lng":-117.75888},{"id":113993,"name":"Chowchilla","lat":37.123,"lng":-120.26018},{"id":114003,"name":"Chualar","lat":36.57052,"lng":-121.51855},{"id":114005,"name":"Chula Vista","lat":32.64005,"lng":-117.0842},{"id":114034,"name":"Citrus","lat":34.11501,"lng":-117.89173},{"id":114037,"name":"Citrus Heights","lat":38.70712,"lng":-121.28106},{"id":114046,"name":"City and County of San Francisco","lat":37.77823,"lng":-122.4425},{"id":153627,"name":"City of Industry","lat":34.01583333,"lng":-117.95083333},{"id":114106,"name":"Claremont","lat":34.09668,"lng":-117.71978},{"id":114169,"name":"Clay","lat":38.33602,"lng":-121.15939},{"id":114203,"name":"Clayton","lat":37.94103,"lng":-121.93579},{"id":114213,"name":"Clear Lake Riviera","lat":38.95406,"lng":-122.72082},{"id":114219,"name":"Clearlake","lat":38.95823,"lng":-122.62637},{"id":114220,"name":"Clearlake Oaks","lat":39.02628,"lng":-122.67193},{"id":114311,"name":"Cloverdale","lat":38.80546,"lng":-123.01722},{"id":114315,"name":"Clovis","lat":36.82523,"lng":-119.70292},{"id":114324,"name":"Coachella","lat":33.6803,"lng":-116.17389},{"id":114338,"name":"Coalinga","lat":36.13968,"lng":-120.36015},{"id":114340,"name":"Coarsegold","lat":37.26217,"lng":-119.70098},{"id":114343,"name":"Cobb","lat":38.82213,"lng":-122.72305},{"id":114408,"name":"Colfax","lat":39.10073,"lng":-120.95328},{"id":114425,"name":"Collierville","lat":38.21464,"lng":-121.26884},{"id":114440,"name":"Colma","lat":37.67688,"lng":-122.45969},{"id":114463,"name":"Colton","lat":34.0739,"lng":-117.31365},{"id":114474,"name":"Columbia","lat":38.03631,"lng":-120.40131},{"id":114504,"name":"Colusa","lat":39.21433,"lng":-122.00942},{"id":114505,"name":"Colusa County","lat":39.17757,"lng":-122.23703},{"id":114525,"name":"Commerce","lat":34.00057,"lng":-118.15979},{"id":114529,"name":"Compton","lat":33.89585,"lng":-118.22007},{"id":114543,"name":"Concord","lat":37.97798,"lng":-122.03107},{"id":114576,"name":"Contra Costa","lat":37.92342,"lng":-121.95121},{"id":114575,"name":"Contra Costa Centre","lat":37.92752,"lng":-122.05786},{"id":114596,"name":"Cool","lat":38.88722,"lng":-121.01472},{"id":114622,"name":"Copperopolis","lat":37.98104,"lng":-120.64187},{"id":114633,"name":"Corcoran","lat":36.09801,"lng":-119.5604},{"id":114654,"name":"Corning","lat":39.92766,"lng":-122.17916},{"id":114662,"name":"Corona","lat":33.87529,"lng":-117.56644},{"id":114664,"name":"Coronado","lat":32.68589,"lng":-117.18309},{"id":114667,"name":"Corralitos","lat":36.98856,"lng":-121.80634},{"id":114672,"name":"Corte Madera","lat":37.92548,"lng":-122.52748},{"id":114686,"name":"Costa Mesa","lat":33.64113,"lng":-117.91867},{"id":114688,"name":"Cotati","lat":38.32686,"lng":-122.70721},{"id":114689,"name":"Coto De Caza","lat":33.60419,"lng":-117.58699},{"id":114702,"name":"Cottonwood","lat":40.38571,"lng":-122.28084},{"id":114715,"name":"Country Club","lat":37.96881,"lng":-121.34078},{"id":114731,"name":"Covelo","lat":39.79327,"lng":-123.24922},{"id":114734,"name":"Covina","lat":34.09001,"lng":-117.89034},{"id":114796,"name":"Crescent City","lat":41.75595,"lng":-124.20175},{"id":114802,"name":"Crest","lat":32.80727,"lng":-116.86808},{"id":114805,"name":"Crestline","lat":34.24195,"lng":-117.2856},{"id":114830,"name":"Crockett","lat":38.05242,"lng":-122.21302},{"id":114890,"name":"Cudahy","lat":33.96057,"lng":-118.18535},{"id":114904,"name":"Culver City","lat":34.02112,"lng":-118.39647},{"id":114924,"name":"Cupertino","lat":37.323,"lng":-122.03218},{"id":114947,"name":"Cutler","lat":36.52328,"lng":-119.28678},{"id":114951,"name":"Cutten","lat":40.76985,"lng":-124.14284},{"id":114954,"name":"Cypress","lat":33.81696,"lng":-118.03729},{"id":115006,"name":"Daly City","lat":37.70577,"lng":-122.46192},{"id":115012,"name":"Dana Point","lat":33.46697,"lng":-117.69811},{"id":115038,"name":"Danville","lat":37.82159,"lng":-121.99996},{"id":115073,"name":"Davis","lat":38.54491,"lng":-121.74052},{"id":115090,"name":"Day Valley","lat":37.03578,"lng":-121.86246},{"id":115178,"name":"Deer Park","lat":38.68185,"lng":-120.82327},{"id":115186,"name":"Del Aire","lat":33.91613,"lng":-118.36952},{"id":115188,"name":"Del Mar","lat":32.95949,"lng":-117.26531},{"id":115189,"name":"Del Monte Forest","lat":36.58635,"lng":-121.94746},{"id":115191,"name":"Del Norte","lat":41.74496,"lng":-123.95781},{"id":115192,"name":"Del Rey","lat":36.65912,"lng":-119.59374},{"id":115193,"name":"Del Rey Oaks","lat":36.59329,"lng":-121.83495},{"id":115194,"name":"Del Rio","lat":37.74354,"lng":-121.01188},{"id":115199,"name":"Delano","lat":35.76884,"lng":-119.24705},{"id":115213,"name":"Delhi","lat":37.43216,"lng":-120.77854},{"id":115234,"name":"Denair","lat":37.52632,"lng":-120.79687},{"id":115276,"name":"Descanso","lat":32.85283,"lng":-116.61585},{"id":115280,"name":"Desert Edge","lat":33.92417,"lng":-116.44139},{"id":115282,"name":"Desert Hot Springs","lat":33.96173,"lng":-116.50353},{"id":115283,"name":"Desert Shores","lat":33.4042,"lng":-116.03972},{"id":115284,"name":"Desert View Highlands","lat":34.59082,"lng":-118.15257},{"id":115312,"name":"Diablo","lat":37.83493,"lng":-121.95801},{"id":115314,"name":"Diamond Bar","lat":34.02862,"lng":-117.81034},{"id":115316,"name":"Diamond Springs","lat":38.69463,"lng":-120.81494},{"id":115351,"name":"Dinuba","lat":36.54328,"lng":-119.38707},{"id":115353,"name":"Discovery Bay","lat":37.90854,"lng":-121.60023},{"id":115367,"name":"Dixon","lat":38.44546,"lng":-121.8233},{"id":115369,"name":"Dixon Lane-Meadow Creek","lat":37.38639,"lng":-118.41527},{"id":115385,"name":"Dogtown","lat":38.21381,"lng":-121.08855},{"id":115390,"name":"Dollar Point","lat":39.18796,"lng":-120.09991},{"id":115414,"name":"Dos Palos","lat":36.98606,"lng":-120.62657},{"id":115460,"name":"Downey","lat":33.94001,"lng":-118.13257},{"id":115461,"name":"Downieville","lat":39.55934,"lng":-120.82689},{"id":115490,"name":"Duarte","lat":34.13945,"lng":-117.97729},{"id":115496,"name":"Dublin","lat":37.70215,"lng":-121.93579},{"id":115551,"name":"Dunnigan","lat":38.88518,"lng":-121.96969},{"id":115553,"name":"Dunsmuir","lat":41.20821,"lng":-122.27195},{"id":115573,"name":"Durham","lat":39.64627,"lng":-121.79998},{"id":115618,"name":"Earlimart","lat":35.88412,"lng":-119.27233},{"id":115663,"name":"East Foothills","lat":37.38105,"lng":-121.81745},{"id":115689,"name":"East Hemet","lat":33.74002,"lng":-116.93891},{"id":115699,"name":"East La Mirada","lat":33.92446,"lng":-117.98895},{"id":115706,"name":"East Los Angeles","lat":34.0239,"lng":-118.17202},{"id":115725,"name":"East Oakdale","lat":37.78798,"lng":-120.80382},{"id":115728,"name":"East Palo Alto","lat":37.46883,"lng":-122.14108},{"id":115729,"name":"East Pasadena","lat":34.13814,"lng":-118.07384},{"id":115739,"name":"East Porterville","lat":36.05745,"lng":-118.97566},{"id":115742,"name":"East Quincy","lat":39.93406,"lng":-120.89801},{"id":115744,"name":"East Rancho Dominguez","lat":33.89807,"lng":-118.19535},{"id":115746,"name":"East Richmond Heights","lat":37.94492,"lng":-122.31358},{"id":115755,"name":"East San Gabriel","lat":34.09168,"lng":-118.09118},{"id":115759,"name":"East Sonora","lat":37.9777,"lng":-120.3613},{"id":115791,"name":"Easton","lat":36.65023,"lng":-119.7907},{"id":115797,"name":"Eastvale","lat":33.96358,"lng":-117.56418},{"id":115814,"name":"Echo Park","lat":34.07808,"lng":-118.26066},{"id":115888,"name":"Edwards Air Force Base","lat":34.91637,"lng":-117.93535},{"id":115911,"name":"El Cajon","lat":32.79477,"lng":-116.96253},{"id":115914,"name":"El Centro","lat":32.792,"lng":-115.56305},{"id":115915,"name":"El Cerrito","lat":37.91576,"lng":-122.31164},{"id":115916,"name":"El Cerrito Corona","lat":33.84057,"lng":-117.52283},{"id":115921,"name":"El Dorado","lat":38.77874,"lng":-120.52465},{"id":115922,"name":"El Dorado Hills","lat":38.68574,"lng":-121.08217},{"id":115924,"name":"El Granada","lat":37.50272,"lng":-122.46942},{"id":115928,"name":"El Monte","lat":34.06862,"lng":-118.02757},{"id":115936,"name":"El Rio","lat":34.23578,"lng":-119.16383},{"id":115937,"name":"El Segundo","lat":33.91918,"lng":-118.41647},{"id":115938,"name":"El Sobrante","lat":37.97715,"lng":-122.29525},{"id":115940,"name":"El Verano","lat":38.29769,"lng":-122.49165},{"id":115957,"name":"Eldridge","lat":38.3488,"lng":-122.51081},{"id":115987,"name":"Elk Grove","lat":38.4088,"lng":-121.37162},{"id":116003,"name":"Elkhorn","lat":36.8244,"lng":-121.7405},{"id":116075,"name":"Elverta","lat":38.71379,"lng":-121.46273},{"id":116090,"name":"Emerald Lake Hills","lat":37.46466,"lng":-122.26802},{"id":116097,"name":"Emeryville","lat":37.83132,"lng":-122.28525},{"id":116110,"name":"Empire","lat":37.63826,"lng":-120.90215},{"id":116118,"name":"Encinitas","lat":33.03699,"lng":-117.29198},{"id":116119,"name":"Encino","lat":34.15917,"lng":-118.50119},{"id":116178,"name":"Escalon","lat":37.79781,"lng":-120.99792},{"id":116184,"name":"Escondido","lat":33.11921,"lng":-117.08642},{"id":116187,"name":"Esparto","lat":38.69213,"lng":-122.01719},{"id":116221,"name":"Eucalyptus Hills","lat":32.87977,"lng":-116.94669},{"id":116235,"name":"Eureka","lat":40.80207,"lng":-124.16367},{"id":116274,"name":"Exeter","lat":36.29606,"lng":-119.14205},{"id":116286,"name":"Fair Oaks","lat":38.64463,"lng":-121.27217},{"id":116292,"name":"Fairbanks Ranch","lat":32.99393,"lng":-117.18726},{"id":116306,"name":"Fairfax","lat":37.98715,"lng":-122.58887},{"id":116316,"name":"Fairfield","lat":38.24936,"lng":-122.03997},{"id":116333,"name":"Fairmead","lat":37.07633,"lng":-120.19295},{"id":116355,"name":"Fairview","lat":37.67854,"lng":-122.0458},{"id":116376,"name":"Fallbrook","lat":33.37642,"lng":-117.25115},{"id":116407,"name":"Farmersville","lat":36.29773,"lng":-119.20678},{"id":116471,"name":"Felton","lat":37.05134,"lng":-122.0733},{"id":116489,"name":"Ferndale","lat":40.57624,"lng":-124.26394},{"id":116503,"name":"Fetters Hot Springs-Agua Caliente","lat":38.3214,"lng":-122.48682},{"id":116508,"name":"Fillmore","lat":34.39916,"lng":-118.91815},{"id":116520,"name":"Firebaugh","lat":36.85884,"lng":-120.45601},{"id":116589,"name":"Florence-Graham","lat":33.96772,"lng":-118.24438},{"id":116595,"name":"Florin","lat":38.49602,"lng":-121.40884},{"id":116626,"name":"Folsom","lat":38.67796,"lng":-121.17606},{"id":116631,"name":"Fontana","lat":34.09223,"lng":-117.43505},{"id":116632,"name":"Foothill Farms","lat":38.67877,"lng":-121.35114},{"id":116633,"name":"Foothill Ranch","lat":33.68641,"lng":-117.66088},{"id":116635,"name":"Ford City","lat":35.15441,"lng":-119.45623},{"id":116662,"name":"Forest Meadows","lat":38.16851,"lng":-120.40659},{"id":116667,"name":"Forest Ranch","lat":39.88211,"lng":-121.67275},{"id":116671,"name":"Foresthill","lat":39.02018,"lng":-120.81799},{"id":116673,"name":"Forestville","lat":38.47352,"lng":-122.89027},{"id":116695,"name":"Fort Bragg","lat":39.44572,"lng":-123.80529},{"id":116719,"name":"Fort Irwin","lat":35.26275,"lng":-116.68475},{"id":116767,"name":"Fortuna","lat":40.59819,"lng":-124.15728},{"id":116776,"name":"Foster City","lat":37.55855,"lng":-122.27108},{"id":116784,"name":"Fountain Valley","lat":33.70918,"lng":-117.95367},{"id":116797,"name":"Fowler","lat":36.63051,"lng":-119.67847},{"id":116883,"name":"Frazier Park","lat":34.82276,"lng":-118.94482},{"id":116903,"name":"Freedom","lat":36.93523,"lng":-121.77301},{"id":116924,"name":"Fremont","lat":37.54827,"lng":-121.98857},{"id":116929,"name":"French Camp","lat":37.88409,"lng":-121.27106},{"id":116939,"name":"Fresno","lat":36.74773,"lng":-119.77237},{"id":116940,"name":"Fresno County","lat":36.75818,"lng":-119.64932},{"id":116975,"name":"Fruitridge Pocket","lat":38.53265,"lng":-121.45581},{"id":116983,"name":"Fullerton","lat":33.87029,"lng":-117.92534},{"id":117040,"name":"Galt","lat":38.25464,"lng":-121.29995},{"id":117053,"name":"Garden Acres","lat":37.96381,"lng":-121.22939},{"id":117065,"name":"Garden Grove","lat":33.77391,"lng":-117.94145},{"id":117069,"name":"Gardena","lat":33.88835,"lng":-118.30896},{"id":117094,"name":"Garnet","lat":33.90196,"lng":-116.54557},{"id":117165,"name":"Georgetown","lat":38.90684,"lng":-120.83855},{"id":117169,"name":"Gerber","lat":40.05627,"lng":-122.15027},{"id":117225,"name":"Gilroy","lat":37.00578,"lng":-121.56828},{"id":117261,"name":"Glen Avon","lat":34.01168,"lng":-117.48477},{"id":117286,"name":"Glendale","lat":34.14251,"lng":-118.25508},{"id":117291,"name":"Glendora","lat":34.13612,"lng":-117.86534},{"id":117296,"name":"Glenn","lat":39.5984,"lng":-122.39221},{"id":117345,"name":"Gold River","lat":38.62629,"lng":-121.24662},{"id":117351,"name":"Golden Hills","lat":35.14247,"lng":-118.49036},{"id":117367,"name":"Goleta","lat":34.43583,"lng":-119.82764},{"id":117372,"name":"Gonzales","lat":36.50663,"lng":-121.44438},{"id":117378,"name":"Good Hope","lat":33.76474,"lng":-117.26698},{"id":117410,"name":"Goshen","lat":36.35106,"lng":-119.42012},{"id":117476,"name":"Grand Terrace","lat":34.0339,"lng":-117.31365},{"id":117493,"name":"Granite Bay","lat":38.76323,"lng":-121.16384},{"id":117499,"name":"Granite Hills","lat":32.80311,"lng":-116.90475},{"id":117543,"name":"Grass Valley","lat":39.21906,"lng":-121.06106},{"id":117545,"name":"Graton","lat":38.4363,"lng":-122.86972},{"id":117590,"name":"Green Acres","lat":33.73808,"lng":-117.07642},{"id":117611,"name":"Green Valley","lat":38.25297,"lng":-122.16219},{"id":117654,"name":"Greenfield","lat":36.3208,"lng":-121.24381},{"id":117696,"name":"Greenville","lat":40.13961,"lng":-120.95107},{"id":117730,"name":"Gridley","lat":39.36378,"lng":-121.69358},{"id":117760,"name":"Grover Beach","lat":35.12164,"lng":-120.62128},{"id":117777,"name":"Guadalupe","lat":34.97164,"lng":-120.57184},{"id":117780,"name":"Guerneville","lat":38.50186,"lng":-122.99611},{"id":117810,"name":"Gustine","lat":37.25772,"lng":-120.99882},{"id":117825,"name":"Hacienda Heights","lat":33.99307,"lng":-117.96868},{"id":117856,"name":"Half Moon Bay","lat":37.46355,"lng":-122.42859},{"id":117895,"name":"Hamilton City","lat":39.74266,"lng":-122.01359},{"id":117960,"name":"Hanford","lat":36.32745,"lng":-119.64568},{"id":117982,"name":"Happy Camp","lat":41.79275,"lng":-123.3808},{"id":117986,"name":"Harbison Canyon","lat":32.82033,"lng":-116.83002},{"id":118099,"name":"Hartley","lat":38.41713,"lng":-121.94691},{"id":118160,"name":"Hawaiian Gardens","lat":33.8314,"lng":-118.07284},{"id":118175,"name":"Hawthorne","lat":33.9164,"lng":-118.35257},{"id":118186,"name":"Hayfork","lat":40.55431,"lng":-123.18308},{"id":118197,"name":"Hayward","lat":37.66882,"lng":-122.0808},{"id":118217,"name":"Healdsburg","lat":38.61047,"lng":-122.86916},{"id":118228,"name":"Heber","lat":32.73089,"lng":-115.52972},{"id":118264,"name":"Hemet","lat":33.74761,"lng":-116.97307},{"id":118311,"name":"Herald","lat":38.29575,"lng":-121.24439},{"id":118314,"name":"Hercules","lat":38.01714,"lng":-122.28858},{"id":118331,"name":"Hermosa Beach","lat":33.86224,"lng":-118.39952},{"id":118344,"name":"Hesperia","lat":34.42639,"lng":-117.30088},{"id":118376,"name":"Hidden Hills","lat":34.16028,"lng":-118.65231},{"id":118377,"name":"Hidden Meadows","lat":33.22531,"lng":-117.11253},{"id":118380,"name":"Hidden Valley Lake","lat":38.80796,"lng":-122.55832},{"id":118391,"name":"Highgrove","lat":34.01585,"lng":-117.33338},{"id":118398,"name":"Highland","lat":34.12834,"lng":-117.20865},{"id":118421,"name":"Highlands-Baywood Park","lat":37.52272,"lng":-122.34506},{"id":118455,"name":"Hillsborough","lat":37.5741,"lng":-122.37942},{"id":118471,"name":"Hilmar-Irwin","lat":37.40454,"lng":-120.85042},{"id":118552,"name":"Hollister","lat":36.85245,"lng":-121.4016},{"id":118567,"name":"Hollywood","lat":34.09834,"lng":-118.32674},{"id":118582,"name":"Holtville","lat":32.81116,"lng":-115.38026},{"id":118586,"name":"Home Garden","lat":36.30328,"lng":-119.63624},{"id":118587,"name":"Home Gardens","lat":33.87807,"lng":-117.52088},{"id":118590,"name":"Homeland","lat":33.74308,"lng":-117.1092},{"id":118764,"name":"Hughson","lat":37.59688,"lng":-120.86604},{"id":118779,"name":"Humboldt County","lat":40.70501,"lng":-123.91582},{"id":118781,"name":"Humboldt Hill","lat":40.72596,"lng":-124.18978},{"id":118805,"name":"Huntington Beach","lat":33.6603,"lng":-117.99923},{"id":118807,"name":"Huntington Park","lat":33.98168,"lng":-118.22507},{"id":118825,"name":"Huron","lat":36.20273,"lng":-120.10292},{"id":118855,"name":"Hydesville","lat":40.54763,"lng":-124.09727},{"id":118874,"name":"Idyllwild","lat":33.74002,"lng":-116.71891},{"id":118875,"name":"Idyllwild-Pine Cove","lat":33.74429,"lng":-116.72587},{"id":118883,"name":"Imperial","lat":32.84755,"lng":-115.56944},{"id":118885,"name":"Imperial Beach","lat":32.58394,"lng":-117.11308},{"id":118886,"name":"Imperial County","lat":33.03951,"lng":-115.36532},{"id":118921,"name":"Indian Wells","lat":33.71791,"lng":-116.34311},{"id":118929,"name":"Indio","lat":33.7207,"lng":-116.21677},{"id":118937,"name":"Inglewood","lat":33.96168,"lng":-118.35313},{"id":118951,"name":"Interlaken","lat":36.95134,"lng":-121.73384},{"id":118957,"name":"Inverness","lat":38.10103,"lng":-122.85694},{"id":118964,"name":"Inyo","lat":36.51113,"lng":-117.41079},{"id":118965,"name":"Inyokern","lat":35.6469,"lng":-117.81257},{"id":118970,"name":"Ione","lat":38.35269,"lng":-120.93272},{"id":119004,"name":"Irvine","lat":33.66946,"lng":-117.82311},{"id":119014,"name":"Irwindale","lat":34.10695,"lng":-117.93534},{"id":119021,"name":"Isla Vista","lat":34.41333,"lng":-119.86097},{"id":119049,"name":"Ivanhoe","lat":36.38717,"lng":-119.21789},{"id":119073,"name":"Jackson","lat":38.3488,"lng":-120.7741},{"id":119126,"name":"Jamestown","lat":37.95326,"lng":-120.4227},{"id":119128,"name":"Jamul","lat":32.717,"lng":-116.87613},{"id":119132,"name":"Janesville","lat":40.29656,"lng":-120.52411},{"id":119283,"name":"Johnstonville","lat":40.38434,"lng":-120.58745},{"id":119323,"name":"Joshua Tree","lat":34.13473,"lng":-116.31307},{"id":119330,"name":"Julian","lat":33.07866,"lng":-116.60196},{"id":119343,"name":"Jurupa Valley","lat":33.99251,"lng":-117.51644},{"id":119431,"name":"Kelseyville","lat":38.97795,"lng":-122.83944},{"id":119469,"name":"Kennedy","lat":37.92992,"lng":-121.25272},{"id":119484,"name":"Kensington","lat":37.91048,"lng":-122.28025},{"id":119495,"name":"Kentfield","lat":37.95215,"lng":-122.5572},{"id":119505,"name":"Kenwood","lat":38.4138,"lng":-122.54609},{"id":119512,"name":"Kerman","lat":36.72356,"lng":-120.05988},{"id":119514,"name":"Kern","lat":35.34285,"lng":-118.7299},{"id":119516,"name":"Kernville","lat":35.75467,"lng":-118.42536},{"id":119528,"name":"Kettleman City","lat":36.00829,"lng":-119.9618},{"id":119543,"name":"Keyes","lat":37.5566,"lng":-120.91549},{"id":119579,"name":"King City","lat":36.21274,"lng":-121.12603},{"id":119600,"name":"Kings","lat":36.07536,"lng":-119.8155},{"id":119598,"name":"Kings Beach","lat":39.23768,"lng":-120.02658},{"id":119609,"name":"Kingsburg","lat":36.51384,"lng":-119.55402},{"id":119675,"name":"Knightsen","lat":37.96881,"lng":-121.66801},{"id":119708,"name":"Koreatown","lat":34.05779,"lng":-118.30091},{"id":119736,"name":"La Cañada Flintridge","lat":34.19917,"lng":-118.18785},{"id":119742,"name":"La Crescenta-Montrose","lat":34.23216,"lng":-118.23529},{"id":119755,"name":"La Habra","lat":33.93196,"lng":-117.94617},{"id":119756,"name":"La Habra Heights","lat":33.96085,"lng":-117.95062},{"id":119760,"name":"La Jolla","lat":32.84727,"lng":-117.2742},{"id":119765,"name":"La Mesa","lat":32.76783,"lng":-117.02308},{"id":119767,"name":"La Mirada","lat":33.91724,"lng":-118.01201},{"id":119769,"name":"La Palma","lat":33.8464,"lng":-118.04673},{"id":119779,"name":"La Presa","lat":32.70811,"lng":-116.99725},{"id":119782,"name":"La Puente","lat":34.02001,"lng":-117.94951},{"id":119783,"name":"La Quinta","lat":33.66336,"lng":-116.31001},{"id":119784,"name":"La Riviera","lat":38.56685,"lng":-121.3569},{"id":119789,"name":"La Selva Beach","lat":36.93662,"lng":-121.86468},{"id":119793,"name":"La Verne","lat":34.10084,"lng":-117.76784},{"id":119823,"name":"Ladera","lat":37.39994,"lng":-122.1983},{"id":119824,"name":"Ladera Heights","lat":33.99418,"lng":-118.37535},{"id":119825,"name":"Ladera Ranch","lat":33.57086,"lng":-117.63561},{"id":119835,"name":"Lafayette","lat":37.88576,"lng":-122.11802},{"id":119849,"name":"Laguna","lat":38.42102,"lng":-121.42384},{"id":119852,"name":"Laguna Beach","lat":33.54225,"lng":-117.78311},{"id":119854,"name":"Laguna Hills","lat":33.61252,"lng":-117.71283},{"id":119855,"name":"Laguna Niguel","lat":33.52253,"lng":-117.70755},{"id":119858,"name":"Laguna Woods","lat":33.6103,"lng":-117.72533},{"id":119859,"name":"Lagunitas-Forest Knolls","lat":38.01793,"lng":-122.69124},{"id":119896,"name":"Lake","lat":39.09965,"lng":-122.75318},{"id":119866,"name":"Lake Arrowhead","lat":34.24834,"lng":-117.18921},{"id":119906,"name":"Lake Elsinore","lat":33.66808,"lng":-117.32726},{"id":119911,"name":"Lake Forest","lat":33.64697,"lng":-117.68922},{"id":119923,"name":"Lake Isabella","lat":35.61801,"lng":-118.47314},{"id":119931,"name":"Lake Los Angeles","lat":34.61249,"lng":-117.82812},{"id":119950,"name":"Lake Nacimiento","lat":35.7283,"lng":-120.87963},{"id":120005,"name":"Lake of the Pines","lat":39.03962,"lng":-121.05661},{"id":119973,"name":"Lake San Marcos","lat":33.12615,"lng":-117.20837},{"id":119993,"name":"Lake Wildwood","lat":39.23295,"lng":-121.20051},{"id":120020,"name":"Lakeland Village","lat":33.63863,"lng":-117.34393},{"id":120023,"name":"Lakeport","lat":39.04295,"lng":-122.91583},{"id":120032,"name":"Lakeside","lat":32.85727,"lng":-116.92225},{"id":120040,"name":"Lakeview","lat":33.83863,"lng":-117.11809},{"id":120051,"name":"Lakewood","lat":33.85363,"lng":-118.13396},{"id":120074,"name":"Lamont","lat":35.25968,"lng":-118.91427},{"id":120089,"name":"Lancaster","lat":34.69804,"lng":-118.13674},{"id":120147,"name":"Larkfield-Wikiup","lat":38.51342,"lng":-122.75094},{"id":120148,"name":"Larkspur","lat":37.93409,"lng":-122.53525},{"id":120156,"name":"Las Flores","lat":33.58808,"lng":-117.62672},{"id":120158,"name":"Las Lomas","lat":36.86523,"lng":-121.73495},{"id":120166,"name":"Lassen","lat":40.67359,"lng":-120.59433},{"id":120170,"name":"Lathrop","lat":37.8227,"lng":-121.27661},{"id":120174,"name":"Laton","lat":36.43328,"lng":-119.6868},{"id":120222,"name":"Lawndale","lat":33.88724,"lng":-118.35257},{"id":120255,"name":"Laytonville","lat":39.68821,"lng":-123.48279},{"id":120260,"name":"Le Grand","lat":37.22855,"lng":-120.24823},{"id":120298,"name":"Lebec","lat":34.84164,"lng":-118.86482},{"id":120359,"name":"Lemon Grove","lat":32.74255,"lng":-117.03142},{"id":120362,"name":"Lemoore","lat":36.30078,"lng":-119.78291},{"id":120363,"name":"Lemoore Station","lat":36.26326,"lng":-119.90476},{"id":120371,"name":"Lennox","lat":33.93807,"lng":-118.35258},{"id":120378,"name":"Lenwood","lat":34.87665,"lng":-117.10393},{"id":120387,"name":"Leona Valley","lat":34.61832,"lng":-118.28813},{"id":120427,"name":"Lewiston","lat":40.70737,"lng":-122.80752},{"id":120454,"name":"Lexington Hills","lat":37.16467,"lng":-121.97301},{"id":120509,"name":"Lincoln","lat":38.89156,"lng":-121.29301},{"id":120557,"name":"Linda","lat":39.12767,"lng":-121.5508},{"id":120566,"name":"Linden","lat":38.02131,"lng":-121.08383},{"id":120574,"name":"Lindsay","lat":36.20301,"lng":-119.08816},{"id":120633,"name":"Littlerock","lat":34.5211,"lng":-117.98368},{"id":120640,"name":"Live Oak","lat":36.98356,"lng":-121.98052},{"id":120644,"name":"Livermore","lat":37.68187,"lng":-121.76801},{"id":120652,"name":"Livingston","lat":37.38688,"lng":-120.72353},{"id":120675,"name":"Lockeford","lat":38.16353,"lng":-121.14994},{"id":120691,"name":"Lodi","lat":38.1302,"lng":-121.27245},{"id":120712,"name":"Loma Linda","lat":34.04835,"lng":-117.26115},{"id":120713,"name":"Loma Rica","lat":39.31183,"lng":-121.41774},{"id":120716,"name":"Lomita","lat":33.79224,"lng":-118.31507},{"id":120717,"name":"Lompico","lat":37.1055,"lng":-122.05274},{"id":120718,"name":"Lompoc","lat":34.63915,"lng":-120.45794},{"id":120722,"name":"London","lat":36.47606,"lng":-119.44318},{"id":120729,"name":"Lone Pine","lat":36.60626,"lng":-118.06462},{"id":120738,"name":"Long Beach","lat":33.76696,"lng":-118.18923},{"id":120767,"name":"Loomis","lat":38.82129,"lng":-121.193},{"id":120778,"name":"Los Alamitos","lat":33.80307,"lng":-118.07256},{"id":120779,"name":"Los Alamos","lat":34.74443,"lng":-120.27821},{"id":120782,"name":"Los Altos","lat":37.38522,"lng":-122.11413},{"id":120783,"name":"Los Altos Hills","lat":37.37966,"lng":-122.13746},{"id":120784,"name":"Los Angeles","lat":34.05223,"lng":-118.24368},{"id":120785,"name":"Los Angeles County","lat":34.19801,"lng":-118.26102},{"id":120786,"name":"Los Banos","lat":37.05828,"lng":-120.84992},{"id":120789,"name":"Los Gatos","lat":37.22661,"lng":-121.97468},{"id":120792,"name":"Los Molinos","lat":40.02127,"lng":-122.10027},{"id":120793,"name":"Los Olivos","lat":34.66776,"lng":-120.11487},{"id":120794,"name":"Los Osos","lat":35.31109,"lng":-120.8324},{"id":120796,"name":"Los Serranos","lat":33.97279,"lng":-117.70811},{"id":120798,"name":"Lost Hills","lat":35.61635,"lng":-119.69429},{"id":120842,"name":"Lower Lake","lat":38.91045,"lng":-122.61026},{"id":120855,"name":"Loyola","lat":37.35133,"lng":-122.10052},{"id":120862,"name":"Lucas Valley-Marinwood","lat":38.04011,"lng":-122.5755},{"id":120865,"name":"Lucerne","lat":36.38078,"lng":-119.6643},{"id":120866,"name":"Lucerne Valley","lat":34.44389,"lng":-116.96781},{"id":120934,"name":"Lynwood","lat":33.93029,"lng":-118.21146},{"id":120980,"name":"Madera","lat":36.96134,"lng":-120.06072},{"id":120981,"name":"Madera Acres","lat":37.01911,"lng":-120.06683},{"id":120982,"name":"Madera County","lat":37.21804,"lng":-119.76265},{"id":121031,"name":"Magalia","lat":39.81211,"lng":-121.57831},{"id":121062,"name":"Malibu","lat":34.02577,"lng":-118.7804},{"id":121077,"name":"Mammoth Lakes","lat":37.64855,"lng":-118.97208},{"id":121117,"name":"Manhattan Beach","lat":33.88474,"lng":-118.41091},{"id":121154,"name":"Manteca","lat":37.79743,"lng":-121.21605},{"id":121196,"name":"March Air Force Base","lat":33.89209,"lng":-117.2631},{"id":121212,"name":"Maricopa","lat":35.05886,"lng":-119.40095},{"id":121222,"name":"Marin","lat":38.05518,"lng":-122.74886},{"id":121221,"name":"Marin City","lat":37.86854,"lng":-122.50914},{"id":121223,"name":"Marina","lat":36.6844,"lng":-121.80217},{"id":121224,"name":"Marina del Rey","lat":33.98029,"lng":-118.45174},{"id":121264,"name":"Mariposa","lat":37.48494,"lng":-119.96628},{"id":121265,"name":"Mariposa County","lat":37.58152,"lng":-119.90552},{"id":121345,"name":"Martinez","lat":38.01937,"lng":-122.13413},{"id":121360,"name":"Marysville","lat":39.14573,"lng":-121.59135},{"id":121401,"name":"Matheny","lat":36.17066,"lng":-119.35158},{"id":121430,"name":"Maxwell","lat":39.27628,"lng":-122.19137},{"id":121439,"name":"Mayflower Village","lat":34.11501,"lng":-118.00979},{"id":121459,"name":"Maywood","lat":33.98668,"lng":-118.18535},{"id":121471,"name":"McCloud","lat":41.25571,"lng":-122.13945},{"id":121500,"name":"McFarland","lat":35.67801,"lng":-119.22927},{"id":121524,"name":"McKinleyville","lat":40.94652,"lng":-124.10062},{"id":121554,"name":"Mead Valley","lat":33.83335,"lng":-117.29615},{"id":121563,"name":"Meadow Vista","lat":39.00101,"lng":-121.02189},{"id":121567,"name":"Meadowbrook","lat":33.72578,"lng":-117.28509},{"id":121578,"name":"Mecca","lat":33.57219,"lng":-116.0782},{"id":121619,"name":"Meiners Oaks","lat":34.44694,"lng":-119.27928},{"id":121652,"name":"Mendocino","lat":39.43362,"lng":-123.43155},{"id":121657,"name":"Mendota","lat":36.75356,"lng":-120.38156},{"id":121659,"name":"Menifee","lat":33.72835,"lng":-117.14642},{"id":121661,"name":"Menlo Park","lat":37.45383,"lng":-122.18219},{"id":121667,"name":"Mentone","lat":34.07001,"lng":-117.13448},{"id":121671,"name":"Merced","lat":37.30216,"lng":-120.48297},{"id":121672,"name":"Merced County","lat":37.19186,"lng":-120.71767},{"id":121722,"name":"Mesa Verde","lat":33.60586,"lng":-114.73107},{"id":121794,"name":"Middletown","lat":38.7524,"lng":-122.61499},{"id":121809,"name":"Midpines","lat":37.54438,"lng":-119.92045},{"id":121821,"name":"Midway City","lat":33.74474,"lng":-117.98923},{"id":121868,"name":"Mill Valley","lat":37.90604,"lng":-122.54498},{"id":121871,"name":"Millbrae","lat":37.59855,"lng":-122.38719},{"id":121909,"name":"Milpitas","lat":37.42827,"lng":-121.90662},{"id":121949,"name":"Minkler","lat":36.72384,"lng":-119.45818},{"id":121971,"name":"Mira Mesa","lat":32.9156,"lng":-117.14392},{"id":121972,"name":"Mira Monte","lat":34.43361,"lng":-119.28511},{"id":121985,"name":"Mission","lat":37.75993,"lng":-122.41914},{"id":121984,"name":"Mission Canyon","lat":34.45083,"lng":-119.71291},{"id":121987,"name":"Mission Hills","lat":34.68609,"lng":-120.43683},{"id":121988,"name":"Mission Viejo","lat":33.60002,"lng":-117.672},{"id":122014,"name":"Modesto","lat":37.6391,"lng":-120.99688},{"id":122015,"name":"Modoc","lat":41.58985,"lng":-120.72497},{"id":122023,"name":"Mojave","lat":35.05247,"lng":-118.17396},{"id":122048,"name":"Mono","lat":37.93899,"lng":-118.88671},{"id":122049,"name":"Mono Vista","lat":37.9977,"lng":-120.26991},{"id":122088,"name":"Monrovia","lat":34.14806,"lng":-117.99895},{"id":122098,"name":"Montague","lat":41.7282,"lng":-122.5278},{"id":122100,"name":"Montalvin","lat":37.99548,"lng":-122.33275},{"id":122102,"name":"Montara","lat":37.54216,"lng":-122.51609},{"id":122107,"name":"Montclair","lat":34.07751,"lng":-117.68978},{"id":122109,"name":"Monte Rio","lat":38.46547,"lng":-123.00889},{"id":122110,"name":"Monte Sereno","lat":37.23633,"lng":-121.99246},{"id":122114,"name":"Montebello","lat":34.00946,"lng":-118.10535},{"id":122115,"name":"Montecito","lat":34.43666,"lng":-119.63208},{"id":122120,"name":"Monterey","lat":36.60024,"lng":-121.89468},{"id":122121,"name":"Monterey County","lat":36.23977,"lng":-121.3089},{"id":122122,"name":"Monterey Park","lat":34.06251,"lng":-118.12285},{"id":122193,"name":"Monument Hills","lat":38.66429,"lng":-121.87566},{"id":122213,"name":"Moorpark","lat":34.28556,"lng":-118.88204},{"id":122221,"name":"Morada","lat":38.03853,"lng":-121.24578},{"id":122222,"name":"Moraga","lat":37.83493,"lng":-122.12969},{"id":122231,"name":"Moreno Valley","lat":33.93752,"lng":-117.23059},{"id":122246,"name":"Morgan Hill","lat":37.1305,"lng":-121.65439},{"id":122261,"name":"Morongo Valley","lat":34.04695,"lng":-116.58085},{"id":122288,"name":"Morro Bay","lat":35.36581,"lng":-120.8499},{"id":122307,"name":"Moss Beach","lat":37.52744,"lng":-122.51331},{"id":122347,"name":"Mount Hermon","lat":37.05106,"lng":-122.05857},{"id":122388,"name":"Mount Shasta","lat":41.31024,"lng":-122.31225},{"id":122418,"name":"Mountain House","lat":37.78326,"lng":-121.54273},{"id":122425,"name":"Mountain Ranch","lat":38.22825,"lng":-120.54076},{"id":122431,"name":"Mountain View","lat":37.38605,"lng":-122.08385},{"id":122434,"name":"Mountain View Acres","lat":34.49666,"lng":-117.34894},{"id":122488,"name":"Murphys","lat":38.13762,"lng":-120.46105},{"id":122498,"name":"Murrieta","lat":33.55391,"lng":-117.21392},{"id":122499,"name":"Murrieta Hot Springs","lat":33.56058,"lng":-117.15809},{"id":122506,"name":"Muscoy","lat":34.15418,"lng":-117.34421},{"id":122525,"name":"Myrtletown","lat":40.78874,"lng":-124.13034},{"id":122546,"name":"Napa","lat":38.29714,"lng":-122.28553},{"id":122547,"name":"Napa County","lat":38.50647,"lng":-122.33053},{"id":122591,"name":"National City","lat":32.67811,"lng":-117.0992},{"id":122614,"name":"Needles","lat":34.84806,"lng":-114.61413},{"id":122653,"name":"Nevada","lat":39.30137,"lng":-120.76875},{"id":122651,"name":"Nevada City","lat":39.26173,"lng":-121.01779},{"id":122805,"name":"Newark","lat":37.52966,"lng":-122.04024},{"id":122821,"name":"Newcastle","lat":38.87407,"lng":-121.13328},{"id":122834,"name":"Newman","lat":37.31383,"lng":-121.02076},{"id":122853,"name":"Newport Beach","lat":33.61891,"lng":-117.92895},{"id":122885,"name":"Nice","lat":39.12323,"lng":-122.84833},{"id":122899,"name":"Niland","lat":33.24004,"lng":-115.51888},{"id":122905,"name":"Nipomo","lat":35.04275,"lng":-120.476},{"id":122925,"name":"Noe Valley","lat":37.75018,"lng":-122.43369},{"id":122939,"name":"Norco","lat":33.93113,"lng":-117.54866},{"id":122968,"name":"North Auburn","lat":38.93129,"lng":-121.08189},{"id":123020,"name":"North Edwards","lat":35.01664,"lng":-117.83284},{"id":123021,"name":"North El Monte","lat":34.10279,"lng":-118.02423},{"id":123024,"name":"North Fair Oaks","lat":37.47438,"lng":-122.19663},{"id":123039,"name":"North Highlands","lat":38.68574,"lng":-121.37217},{"id":123041,"name":"North Hills","lat":34.23639,"lng":-118.48472},{"id":123042,"name":"North Hollywood","lat":34.17223,"lng":-118.37897},{"id":123050,"name":"North Lakeport","lat":39.08831,"lng":-122.90538},{"id":123094,"name":"North Richmond","lat":37.95881,"lng":-122.36747},{"id":123117,"name":"North Tustin","lat":33.76446,"lng":-117.79394},{"id":123163,"name":"Northridge","lat":34.22834,"lng":-118.53675},{"id":123191,"name":"Norwalk","lat":33.90224,"lng":-118.08173},{"id":123207,"name":"Novato","lat":38.10742,"lng":-122.5697},{"id":123216,"name":"Nuevo","lat":33.80141,"lng":-117.14587},{"id":123248,"name":"Oak Hills","lat":34.38313,"lng":-117.38135},{"id":123257,"name":"Oak Park","lat":34.17917,"lng":-118.76287},{"id":123266,"name":"Oak View","lat":34.4,"lng":-119.30011},{"id":123274,"name":"Oakdale","lat":37.76659,"lng":-120.84715},{"id":123281,"name":"Oakhurst","lat":37.328,"lng":-119.64932},{"id":123293,"name":"Oakland","lat":37.80437,"lng":-122.2708},{"id":123298,"name":"Oakley","lat":37.99742,"lng":-121.71245},{"id":123313,"name":"Oasis","lat":33.46586,"lng":-116.09889},{"id":123321,"name":"Occidental","lat":38.40741,"lng":-122.94833},{"id":123341,"name":"Oceano","lat":35.09886,"lng":-120.61239},{"id":123344,"name":"Oceanside","lat":33.19587,"lng":-117.37948},{"id":123388,"name":"Oildale","lat":35.41968,"lng":-119.01955},{"id":123390,"name":"Ojai","lat":34.44805,"lng":-119.24289},{"id":123418,"name":"Old Fig Garden","lat":36.79885,"lng":-119.80515},{"id":123441,"name":"Olivehurst","lat":39.09545,"lng":-121.55219},{"id":123486,"name":"Ontario","lat":34.06334,"lng":-117.65089},{"id":123495,"name":"Opal Cliffs","lat":36.96078,"lng":-121.96413},{"id":123510,"name":"Orange","lat":33.78779,"lng":-117.85311},{"id":123521,"name":"Orange County","lat":33.67691,"lng":-117.77617},{"id":123522,"name":"Orange Cove","lat":36.62439,"lng":-119.31373},{"id":123530,"name":"Orangevale","lat":38.67851,"lng":-121.22578},{"id":123541,"name":"Orcutt","lat":34.86526,"lng":-120.436},{"id":123554,"name":"Orinda","lat":37.87715,"lng":-122.17969},{"id":123559,"name":"Orland","lat":39.74738,"lng":-122.19637},{"id":123577,"name":"Orosi","lat":36.54495,"lng":-119.28734},{"id":123578,"name":"Oroville","lat":39.51394,"lng":-121.55776},{"id":123580,"name":"Oroville East","lat":39.51126,"lng":-121.47519},{"id":123689,"name":"Oxnard","lat":34.1975,"lng":-119.17705},{"id":123705,"name":"Pacheco","lat":37.98353,"lng":-122.07524},{"id":123710,"name":"Pacific Grove","lat":36.61774,"lng":-121.91662},{"id":123711,"name":"Pacifica","lat":37.61383,"lng":-122.48692},{"id":123729,"name":"Pajaro","lat":36.90412,"lng":-121.74856},{"id":123735,"name":"Palermo","lat":39.43544,"lng":-121.53802},{"id":123748,"name":"Palm Desert","lat":33.72255,"lng":-116.37697},{"id":123752,"name":"Palm Springs","lat":33.8303,"lng":-116.54529},{"id":123757,"name":"Palmdale","lat":34.57943,"lng":-118.11646},{"id":123781,"name":"Palo Alto","lat":37.44188,"lng":-122.14302},{"id":123783,"name":"Palo Cedro","lat":40.56376,"lng":-122.23889},{"id":123791,"name":"Palos Verdes Estates","lat":33.80105,"lng":-118.39245},{"id":123818,"name":"Paradise","lat":39.75961,"lng":-121.62192},{"id":123824,"name":"Paramount","lat":33.88946,"lng":-118.15979},{"id":123874,"name":"Parksdale","lat":36.94717,"lng":-120.02294},{"id":123881,"name":"Parkway","lat":38.49602,"lng":-121.45884},{"id":123882,"name":"Parkwood","lat":36.92689,"lng":-120.04461},{"id":123884,"name":"Parlier","lat":36.61162,"lng":-119.52707},{"id":123897,"name":"Pasadena","lat":34.14778,"lng":-118.14452},{"id":123899,"name":"Pasatiempo","lat":37.00439,"lng":-122.0258},{"id":123904,"name":"Paso Robles","lat":35.62664,"lng":-120.691},{"id":123916,"name":"Patterson","lat":37.4716,"lng":-121.12966},{"id":123917,"name":"Patterson Tract","lat":36.37952,"lng":-119.2956},{"id":123983,"name":"Pedley","lat":33.97529,"lng":-117.47588},{"id":124024,"name":"Penn Valley","lat":39.196,"lng":-121.19107},{"id":124028,"name":"Penngrove","lat":38.29964,"lng":-122.66665},{"id":124066,"name":"Perris","lat":33.78252,"lng":-117.22865},{"id":124101,"name":"Petaluma","lat":38.23242,"lng":-122.63665},{"id":124119,"name":"Phelan","lat":34.42611,"lng":-117.57228},{"id":124150,"name":"Phoenix Lake","lat":38.00594,"lng":-120.30702},{"id":124162,"name":"Pico Rivera","lat":33.98307,"lng":-118.09673},{"id":124168,"name":"Piedmont","lat":37.82437,"lng":-122.23163},{"id":124222,"name":"Pine Grove","lat":38.41297,"lng":-120.65882},{"id":124226,"name":"Pine Hills","lat":40.73318,"lng":-124.15228},{"id":124239,"name":"Pine Mountain Club","lat":34.84637,"lng":-119.14955},{"id":124246,"name":"Pine Valley","lat":32.82144,"lng":-116.52918},{"id":124271,"name":"Pinole","lat":38.00437,"lng":-122.29886},{"id":124309,"name":"Piñon Hills","lat":34.43333,"lng":-117.64672},{"id":124274,"name":"Pioneer","lat":38.43186,"lng":-120.57187},{"id":124280,"name":"Piru","lat":34.41527,"lng":-118.79398},{"id":124283,"name":"Pismo Beach","lat":35.14275,"lng":-120.64128},{"id":124294,"name":"Pittsburg","lat":38.02798,"lng":-121.88468},{"id":124308,"name":"Pixley","lat":35.96856,"lng":-119.29178},{"id":124310,"name":"Placentia","lat":33.87224,"lng":-117.87034},{"id":124311,"name":"Placer","lat":39.06343,"lng":-120.71766},{"id":124312,"name":"Placerville","lat":38.72963,"lng":-120.79855},{"id":124338,"name":"Planada","lat":37.29077,"lng":-120.31852},{"id":124372,"name":"Pleasant Hill","lat":37.94798,"lng":-122.0608},{"id":124384,"name":"Pleasanton","lat":37.66243,"lng":-121.87468},{"id":124395,"name":"Plumas","lat":40.00468,"lng":-120.8386},{"id":124396,"name":"Plumas Lake","lat":39.02073,"lng":-121.55802},{"id":124453,"name":"Pollock Pines","lat":38.76158,"lng":-120.58611},{"id":124459,"name":"Pomona","lat":34.05529,"lng":-117.75228},{"id":124486,"name":"Poplar-Cotton Center","lat":36.05635,"lng":-119.14919},{"id":124510,"name":"Port Hueneme","lat":34.14778,"lng":-119.19511},{"id":124556,"name":"Porterville","lat":36.06523,"lng":-119.01677},{"id":124566,"name":"Portola","lat":39.81046,"lng":-120.4691},{"id":124567,"name":"Portola Hills","lat":33.67919,"lng":-117.63116},{"id":124568,"name":"Portola Valley","lat":37.38411,"lng":-122.23524},{"id":124606,"name":"Poway","lat":32.96282,"lng":-117.03586},{"id":124725,"name":"Prunedale","lat":36.77579,"lng":-121.66967},{"id":124777,"name":"Quail Valley","lat":33.70697,"lng":-117.24504},{"id":124782,"name":"Quartz Hill","lat":34.64526,"lng":-118.21813},{"id":124799,"name":"Quincy","lat":39.93682,"lng":-120.94647},{"id":124823,"name":"Rainbow","lat":33.41031,"lng":-117.14781},{"id":124838,"name":"Ramona","lat":33.04171,"lng":-116.86808},{"id":124848,"name":"Rancho Calaveras","lat":38.12742,"lng":-120.85827},{"id":124849,"name":"Rancho Cordova","lat":38.58907,"lng":-121.30273},{"id":124850,"name":"Rancho Cucamonga","lat":34.1064,"lng":-117.59311},{"id":124851,"name":"Rancho Mirage","lat":33.73974,"lng":-116.41279},{"id":124852,"name":"Rancho Murieta","lat":38.50185,"lng":-121.09467},{"id":124853,"name":"Rancho Palos Verdes","lat":33.74446,"lng":-118.38702},{"id":124854,"name":"Rancho Penasquitos","lat":32.95949,"lng":-117.11531},{"id":124855,"name":"Rancho San Diego","lat":32.74727,"lng":-116.9353},{"id":124856,"name":"Rancho Santa Fe","lat":33.02032,"lng":-117.20281},{"id":124857,"name":"Rancho Santa Margarita","lat":33.64086,"lng":-117.6031},{"id":124858,"name":"Rancho Tehama Reserve","lat":40.01569,"lng":-122.40072},{"id":124940,"name":"Red Bluff","lat":40.17849,"lng":-122.23583},{"id":124945,"name":"Red Corral","lat":38.41165,"lng":-120.60552},{"id":124966,"name":"Redding","lat":40.58654,"lng":-122.39168},{"id":124976,"name":"Redlands","lat":34.05557,"lng":-117.18254},{"id":124980,"name":"Redondo Beach","lat":33.84918,"lng":-118.38841},{"id":124983,"name":"Redway","lat":40.12014,"lng":-123.82336},{"id":124986,"name":"Redwood City","lat":37.48522,"lng":-122.23635},{"id":124989,"name":"Redwood Shores","lat":37.53188,"lng":-122.24802},{"id":124990,"name":"Redwood Valley","lat":39.26544,"lng":-123.20445},{"id":124993,"name":"Reedley","lat":36.59634,"lng":-119.4504},{"id":125049,"name":"Rialto","lat":34.1064,"lng":-117.37032},{"id":125066,"name":"Richgrove","lat":35.79662,"lng":-119.10788},{"id":125096,"name":"Richmond","lat":37.93576,"lng":-122.34775},{"id":125118,"name":"Ridgecrest","lat":35.62246,"lng":-117.6709},{"id":125127,"name":"Ridgemark","lat":36.81246,"lng":-121.36577},{"id":125151,"name":"Rio Del Mar","lat":36.96828,"lng":-121.90023},{"id":125152,"name":"Rio Dell","lat":40.4993,"lng":-124.10644},{"id":125157,"name":"Rio Linda","lat":38.69101,"lng":-121.44857},{"id":125161,"name":"Rio Vista","lat":38.16389,"lng":-121.69583},{"id":125168,"name":"Ripon","lat":37.74159,"lng":-121.12438},{"id":125190,"name":"Riverbank","lat":37.73604,"lng":-120.93549},{"id":125196,"name":"Riverdale","lat":36.43106,"lng":-119.85958},{"id":125199,"name":"Riverdale Park","lat":37.60938,"lng":-121.05188},{"id":125209,"name":"Riverside","lat":33.95335,"lng":-117.39616},{"id":125210,"name":"Riverside County","lat":33.74368,"lng":-115.99386},{"id":125313,"name":"Rocklin","lat":38.79073,"lng":-121.23578},{"id":125341,"name":"Rodeo","lat":38.03298,"lng":-122.26691},{"id":125358,"name":"Rohnert Park","lat":38.33964,"lng":-122.7011},{"id":125366,"name":"Rolling Hills","lat":33.75739,"lng":-118.35752},{"id":125367,"name":"Rolling Hills Estates","lat":33.78779,"lng":-118.35813},{"id":125370,"name":"Rollingwood","lat":37.9652,"lng":-122.32997},{"id":125384,"name":"Romoland","lat":33.74585,"lng":-117.17503},{"id":125397,"name":"Rosamond","lat":34.86414,"lng":-118.16341},{"id":125419,"name":"Rosedale","lat":35.38357,"lng":-119.14538},{"id":125424,"name":"Roseland","lat":38.42213,"lng":-122.72804},{"id":125429,"name":"Rosemead","lat":34.08057,"lng":-118.07285},{"id":125431,"name":"Rosemont","lat":38.55185,"lng":-121.36467},{"id":125441,"name":"Roseville","lat":38.75212,"lng":-121.28801},{"id":125451,"name":"Ross","lat":37.96242,"lng":-122.55498},{"id":125455,"name":"Rossmoor","lat":33.78557,"lng":-118.08506},{"id":125480,"name":"Rowland Heights","lat":33.97612,"lng":-117.90534},{"id":125501,"name":"Rubidoux","lat":33.99613,"lng":-117.4056},{"id":125514,"name":"Running Springs","lat":34.20779,"lng":-117.1092},{"id":125577,"name":"Sacramento","lat":38.58157,"lng":-121.4944},{"id":125578,"name":"Sacramento County","lat":38.44932,"lng":-121.34424},{"id":125647,"name":"Saint Helena","lat":38.50519,"lng":-122.47026},{"id":125742,"name":"Salida","lat":37.70576,"lng":-121.08494},{"id":125747,"name":"Salinas","lat":36.67774,"lng":-121.6555},{"id":125770,"name":"Salton City","lat":33.29865,"lng":-115.95611},{"id":125783,"name":"San Andreas","lat":38.19603,"lng":-120.68049},{"id":125785,"name":"San Anselmo","lat":37.97465,"lng":-122.56164},{"id":125788,"name":"San Antonio Heights","lat":34.15556,"lng":-117.65644},{"id":125792,"name":"San Benito","lat":36.60571,"lng":-121.075},{"id":125793,"name":"San Bernardino","lat":34.10834,"lng":-117.28977},{"id":125794,"name":"San Bernardino County","lat":34.84143,"lng":-116.17846},{"id":125795,"name":"San Bruno","lat":37.63049,"lng":-122.41108},{"id":125798,"name":"San Carlos","lat":37.50716,"lng":-122.26052},{"id":125800,"name":"San Clemente","lat":33.42697,"lng":-117.61199},{"id":125802,"name":"San Diego","lat":32.71571,"lng":-117.16472},{"id":125803,"name":"San Diego Country Estates","lat":33.00671,"lng":-116.78364},{"id":125804,"name":"San Diego County","lat":33.0282,"lng":-116.77021},{"id":125805,"name":"San Dimas","lat":34.10668,"lng":-117.80673},{"id":125808,"name":"San Fernando","lat":34.28195,"lng":-118.43897},{"id":125809,"name":"San Francisco","lat":37.77493,"lng":-122.41942},{"id":125810,"name":"San Gabriel","lat":34.09611,"lng":-118.10583},{"id":125811,"name":"San Jacinto","lat":33.78391,"lng":-116.95864},{"id":125813,"name":"San Joaquin","lat":36.60662,"lng":-120.18904},{"id":125814,"name":"San Joaquin County","lat":37.93478,"lng":-121.27145},{"id":125815,"name":"San Joaquin Hills","lat":33.61169,"lng":-117.83672},{"id":125816,"name":"San Jose","lat":37.33939,"lng":-121.89496},{"id":125818,"name":"San Juan Bautista","lat":36.84551,"lng":-121.538},{"id":125819,"name":"San Juan Capistrano","lat":33.50169,"lng":-117.66255},{"id":125824,"name":"San Leandro","lat":37.72493,"lng":-122.15608},{"id":125826,"name":"San Lorenzo","lat":37.68104,"lng":-122.12441},{"id":125829,"name":"San Luis Obispo","lat":35.28275,"lng":-120.65962},{"id":125830,"name":"San Luis Obispo County","lat":35.38742,"lng":-120.4522},{"id":125833,"name":"San Marcos","lat":33.14337,"lng":-117.16614},{"id":125834,"name":"San Marino","lat":34.1214,"lng":-118.10646},{"id":125835,"name":"San Martin","lat":37.08495,"lng":-121.61022},{"id":125836,"name":"San Mateo","lat":37.56299,"lng":-122.32553},{"id":125837,"name":"San Mateo County","lat":37.43621,"lng":-122.35566},{"id":125838,"name":"San Miguel","lat":35.75247,"lng":-120.69628},{"id":125842,"name":"San Pablo","lat":37.96215,"lng":-122.34553},{"id":125843,"name":"San Pasqual","lat":33.09171,"lng":-116.95392},{"id":125845,"name":"San Pedro","lat":33.73585,"lng":-118.29229},{"id":125846,"name":"San Rafael","lat":37.97353,"lng":-122.53109},{"id":125847,"name":"San Ramon","lat":37.77993,"lng":-121.97802},{"id":125892,"name":"Sanger","lat":36.70801,"lng":-119.55597},{"id":125899,"name":"Santa Ana","lat":33.74557,"lng":-117.86783},{"id":125901,"name":"Santa Barbara","lat":34.42083,"lng":-119.69819},{"id":125902,"name":"Santa Barbara County","lat":34.53834,"lng":-120.03078},{"id":125903,"name":"Santa Clara","lat":37.35411,"lng":-121.95524},{"id":125906,"name":"Santa Clara County","lat":37.23249,"lng":-121.69627},{"id":125908,"name":"Santa Clarita","lat":34.39166,"lng":-118.54259},{"id":125910,"name":"Santa Cruz","lat":36.97412,"lng":-122.0308},{"id":125912,"name":"Santa Cruz County","lat":37.02161,"lng":-122.00979},{"id":125916,"name":"Santa Fe Springs","lat":33.94724,"lng":-118.08535},{"id":125917,"name":"Santa Margarita","lat":35.38997,"lng":-120.60906},{"id":125918,"name":"Santa Maria","lat":34.95303,"lng":-120.43572},{"id":125919,"name":"Santa Monica","lat":34.01945,"lng":-118.49119},{"id":125920,"name":"Santa Paula","lat":34.35417,"lng":-119.05927},{"id":125922,"name":"Santa Rosa","lat":38.44047,"lng":-122.71443},{"id":125925,"name":"Santa Susana","lat":34.27167,"lng":-118.70898},{"id":125927,"name":"Santa Venetia","lat":37.99853,"lng":-122.52525},{"id":125928,"name":"Santa Ynez","lat":34.61443,"lng":-120.07987},{"id":125930,"name":"Santee","lat":32.83838,"lng":-116.97392},{"id":125937,"name":"Saranap","lat":37.88492,"lng":-122.07607},{"id":125941,"name":"Saratoga","lat":37.26383,"lng":-122.02301},{"id":125956,"name":"Saticoy","lat":34.28306,"lng":-119.14983},{"id":125970,"name":"Sausalito","lat":37.85909,"lng":-122.48525},{"id":126059,"name":"Scotts Valley","lat":37.05106,"lng":-122.01468},{"id":126075,"name":"Sea Ranch","lat":38.71519,"lng":-123.45445},{"id":126083,"name":"Seacliff","lat":36.97412,"lng":-121.91579},{"id":126090,"name":"Seal Beach","lat":33.74141,"lng":-118.10479},{"id":126095,"name":"Searles Valley","lat":35.76745,"lng":-117.40395},{"id":126099,"name":"Seaside","lat":36.61107,"lng":-121.85162},{"id":126108,"name":"Sebastopol","lat":38.40214,"lng":-122.82388},{"id":126116,"name":"Sedco Hills","lat":33.64169,"lng":-117.29087},{"id":126124,"name":"Seeley","lat":32.79311,"lng":-115.69111},{"id":126141,"name":"Selma","lat":36.57078,"lng":-119.61208},{"id":126176,"name":"Seven Trees","lat":37.28605,"lng":-121.83856},{"id":126198,"name":"Shackelford","lat":37.61382,"lng":-120.99271},{"id":126202,"name":"Shadow Hills","lat":34.26195,"lng":-118.35175},{"id":126210,"name":"Shafter","lat":35.50051,"lng":-119.27178},{"id":126217,"name":"Shandon","lat":35.65525,"lng":-120.37543},{"id":126238,"name":"Shasta","lat":40.59932,"lng":-122.49196},{"id":126239,"name":"Shasta County","lat":40.76377,"lng":-122.04052},{"id":126240,"name":"Shasta Lake","lat":40.68043,"lng":-122.37084},{"id":126321,"name":"Sheridan","lat":38.97962,"lng":-121.37551},{"id":126336,"name":"Sherman Oaks","lat":34.15112,"lng":-118.44925},{"id":126351,"name":"Shingle Springs","lat":38.66574,"lng":-120.92605},{"id":126353,"name":"Shingletown","lat":40.49238,"lng":-121.88916},{"id":126402,"name":"Sierra","lat":39.5804,"lng":-120.516},{"id":126404,"name":"Sierra Madre","lat":34.16167,"lng":-118.05285},{"id":126411,"name":"Signal Hill","lat":33.80446,"lng":-118.16785},{"id":126431,"name":"Silver Lake","lat":34.08668,"lng":-118.27023},{"id":126432,"name":"Silver Lakes","lat":34.74558,"lng":-117.34098},{"id":126445,"name":"Simi Valley","lat":34.26945,"lng":-118.78148},{"id":126465,"name":"Siskiyou","lat":41.59265,"lng":-122.54037},{"id":126486,"name":"Sky Valley","lat":33.89001,"lng":-116.35251},{"id":126499,"name":"Sleepy Hollow","lat":38.01048,"lng":-122.58442},{"id":126561,"name":"Soda Bay","lat":39.00101,"lng":-122.78916},{"id":126565,"name":"Solana Beach","lat":32.99115,"lng":-117.27115},{"id":126566,"name":"Solano","lat":38.26692,"lng":-121.94001},{"id":126568,"name":"Soledad","lat":36.42469,"lng":-121.32632},{"id":126572,"name":"Solvang","lat":34.59582,"lng":-120.13765},{"id":126598,"name":"Sonoma","lat":38.29186,"lng":-122.45804},{"id":126599,"name":"Sonoma County","lat":38.52529,"lng":-122.92254},{"id":126600,"name":"Sonora","lat":37.98409,"lng":-120.38214},{"id":126604,"name":"Soquel","lat":36.98801,"lng":-121.95663},{"id":126606,"name":"Sorrento Valley","lat":32.89991,"lng":-117.19451},{"id":126608,"name":"Soulsbyville","lat":37.98465,"lng":-120.2638},{"id":126648,"name":"South Dos Palos","lat":36.96439,"lng":-120.65324},{"id":126650,"name":"South El Monte","lat":34.05195,"lng":-118.04673},{"id":126659,"name":"South Gate","lat":33.95474,"lng":-118.21202},{"id":126684,"name":"South Lake Tahoe","lat":38.93324,"lng":-119.98435},{"id":126699,"name":"South Oroville","lat":39.49655,"lng":-121.55219},{"id":126706,"name":"South Pasadena","lat":34.11612,"lng":-118.15035},{"id":126723,"name":"South San Francisco","lat":37.65466,"lng":-122.40775},{"id":126724,"name":"South San Gabriel","lat":34.04915,"lng":-118.09462},{"id":126725,"name":"South San Jose Hills","lat":34.01279,"lng":-117.90478},{"id":126733,"name":"South Taft","lat":35.13469,"lng":-119.45623},{"id":126748,"name":"South Whittier","lat":33.95015,"lng":-118.03917},{"id":126756,"name":"South Yuba City","lat":39.11656,"lng":-121.63913},{"id":126880,"name":"Spring Valley","lat":32.74477,"lng":-116.99892},{"id":126882,"name":"Spring Valley Lake","lat":34.49364,"lng":-117.26832},{"id":126924,"name":"Squaw Valley","lat":36.74023,"lng":-119.24679},{"id":126941,"name":"Stallion Springs","lat":35.08886,"lng":-118.64259},{"id":126954,"name":"Stanford","lat":37.42411,"lng":-122.16608},{"id":126957,"name":"Stanislaus","lat":37.55914,"lng":-120.99769},{"id":126969,"name":"Stanton","lat":33.80252,"lng":-117.99312},{"id":127046,"name":"Stevenson Ranch","lat":34.39048,"lng":-118.57372},{"id":127074,"name":"Stockton","lat":37.9577,"lng":-121.29078},{"id":127127,"name":"Stratford","lat":36.1894,"lng":-119.82319},{"id":127131,"name":"Strathmore","lat":36.14551,"lng":-119.06066},{"id":127133,"name":"Strawberry","lat":37.89687,"lng":-122.50886},{"id":127146,"name":"Studio City","lat":34.14862,"lng":-118.39647},{"id":127177,"name":"Suisun","lat":38.23825,"lng":-122.04024},{"id":127204,"name":"Summerland","lat":34.42138,"lng":-119.59652},{"id":127233,"name":"Sun City","lat":33.70919,"lng":-117.19726},{"id":127243,"name":"Sun Village","lat":34.55952,"lng":-117.95676},{"id":127253,"name":"Sunland","lat":34.26695,"lng":-118.3023},{"id":127259,"name":"Sunnyside","lat":36.74912,"lng":-119.69931},{"id":127261,"name":"Sunnyside-Tahoe City","lat":39.15023,"lng":-120.1612},{"id":127262,"name":"Sunnyslope","lat":34.01196,"lng":-117.43338},{"id":127265,"name":"Sunnyvale","lat":37.36883,"lng":-122.03635},{"id":127296,"name":"Susanville","lat":40.41628,"lng":-120.65301},{"id":127308,"name":"Sutter","lat":39.15989,"lng":-121.75275},{"id":127309,"name":"Sutter County","lat":39.03452,"lng":-121.69484},{"id":127310,"name":"Sutter Creek","lat":38.39297,"lng":-120.80244},{"id":127373,"name":"Taft","lat":35.14247,"lng":-119.45651},{"id":127374,"name":"Taft Heights","lat":35.13469,"lng":-119.47262},{"id":127375,"name":"Taft Mosswood","lat":37.91385,"lng":-121.28316},{"id":127378,"name":"Tahoe Vista","lat":39.23991,"lng":-120.05102},{"id":127380,"name":"Tahoma","lat":39.06741,"lng":-120.12824},{"id":127397,"name":"Talmage","lat":39.13323,"lng":-123.16778},{"id":127402,"name":"Tamalpais Valley","lat":37.87965,"lng":-122.54581},{"id":127403,"name":"Tamalpais-Homestead Valley","lat":37.87834,"lng":-122.53625},{"id":127427,"name":"Tara Hills","lat":37.99353,"lng":-122.31636},{"id":127432,"name":"Tarpey Village","lat":36.79301,"lng":-119.70097},{"id":127483,"name":"Tehachapi","lat":35.13219,"lng":-118.44897},{"id":127484,"name":"Tehama","lat":40.12574,"lng":-122.23388},{"id":127492,"name":"Temecula","lat":33.49364,"lng":-117.14836},{"id":127493,"name":"Temelec","lat":38.26658,"lng":-122.49276},{"id":127501,"name":"Temple City","lat":34.10723,"lng":-118.05785},{"id":127505,"name":"Templeton","lat":35.54969,"lng":-120.706},{"id":127515,"name":"Terra Bella","lat":35.96245,"lng":-119.04427},{"id":127541,"name":"Teviston","lat":35.92894,"lng":-119.27831},{"id":127570,"name":"Thermal","lat":33.6403,"lng":-116.13945},{"id":127571,"name":"Thermalito","lat":39.51128,"lng":-121.58692},{"id":127604,"name":"Thornton","lat":38.22603,"lng":-121.42467},{"id":127609,"name":"Thousand Oaks","lat":34.17056,"lng":-118.83759},{"id":127610,"name":"Thousand Palms","lat":33.82002,"lng":-116.39029},{"id":127620,"name":"Three Rivers","lat":36.43884,"lng":-118.90454},{"id":127632,"name":"Tiburon","lat":37.87354,"lng":-122.45664},{"id":127637,"name":"Tierra Buena","lat":39.14878,"lng":-121.66691},{"id":127678,"name":"Tipton","lat":36.0594,"lng":-119.31206},{"id":127730,"name":"Topanga","lat":34.09362,"lng":-118.60147},{"id":127741,"name":"Toro Canyon","lat":34.42,"lng":-119.56707},{"id":127742,"name":"Torrance","lat":33.83585,"lng":-118.34063},{"id":127769,"name":"Trabuco Canyon","lat":33.66252,"lng":-117.59033},{"id":127771,"name":"Tracy","lat":37.73987,"lng":-121.42618},{"id":127829,"name":"Trinity County","lat":40.65069,"lng":-123.11263},{"id":127853,"name":"Truckee","lat":39.32796,"lng":-120.18325},{"id":127878,"name":"Tujunga","lat":34.25223,"lng":-118.28841},{"id":127882,"name":"Tulare","lat":36.20773,"lng":-119.34734},{"id":127883,"name":"Tulare County","lat":36.22016,"lng":-118.80047},{"id":127896,"name":"Tuolumne","lat":38.0276,"lng":-119.95475},{"id":127895,"name":"Tuolumne City","lat":37.9627,"lng":-120.2413},{"id":127900,"name":"Turlock","lat":37.49466,"lng":-120.84659},{"id":127917,"name":"Tustin","lat":33.74585,"lng":-117.82617},{"id":127920,"name":"Twain Harte","lat":38.03965,"lng":-120.23269},{"id":127921,"name":"Twentynine Palms","lat":34.13556,"lng":-116.05417},{"id":127930,"name":"Twin Lakes","lat":36.96745,"lng":-121.99802},{"id":127958,"name":"Ukiah","lat":39.15017,"lng":-123.20778},{"id":127987,"name":"Union City","lat":37.59577,"lng":-122.01913},{"id":128023,"name":"Universal City","lat":34.1389,"lng":-118.35341},{"id":128039,"name":"Upland","lat":34.09751,"lng":-117.64839},{"id":128045,"name":"Upper Lake","lat":39.16461,"lng":-122.91055},{"id":128072,"name":"Vacaville","lat":38.35658,"lng":-121.98774},{"id":128078,"name":"Val Verde","lat":34.445,"lng":-118.65759},{"id":128087,"name":"Valencia","lat":34.44361,"lng":-118.60953},{"id":128093,"name":"Valinda","lat":34.04529,"lng":-117.94367},{"id":128094,"name":"Valle Vista","lat":33.7478,"lng":-116.89336},{"id":128096,"name":"Vallejo","lat":38.10409,"lng":-122.25664},{"id":128100,"name":"Valley Center","lat":33.21837,"lng":-117.0342},{"id":128109,"name":"Valley Glen","lat":34.18991,"lng":-118.44953},{"id":128115,"name":"Valley Springs","lat":38.19159,"lng":-120.8291},{"id":128137,"name":"Van Nuys","lat":34.18667,"lng":-118.44897},{"id":128147,"name":"Vandenberg Air Force Base","lat":34.7483,"lng":-120.51817},{"id":128148,"name":"Vandenberg Village","lat":34.70832,"lng":-120.46766},{"id":128172,"name":"Venice","lat":33.99084,"lng":-118.46008},{"id":128175,"name":"Ventura","lat":34.27834,"lng":-119.29317},{"id":128176,"name":"Ventura County","lat":34.35753,"lng":-119.12603},{"id":128224,"name":"Victorville","lat":34.53611,"lng":-117.29116},{"id":128238,"name":"View Park-Windsor Hills","lat":33.99551,"lng":-118.34835},{"id":128244,"name":"Villa Park","lat":33.81446,"lng":-117.81311},{"id":128265,"name":"Vincent","lat":34.50055,"lng":-118.11646},{"id":128269,"name":"Vine Hill","lat":38.00853,"lng":-122.09608},{"id":128273,"name":"Vineyard","lat":38.46449,"lng":-121.34692},{"id":128293,"name":"Visalia","lat":36.33023,"lng":-119.29206},{"id":128294,"name":"Visitacion Valley","lat":37.71715,"lng":-122.40433},{"id":128295,"name":"Vista","lat":33.20004,"lng":-117.24254},{"id":128297,"name":"Vista Santa Rosa","lat":33.6278,"lng":-116.21806},{"id":128374,"name":"Waldon","lat":37.92631,"lng":-122.05552},{"id":128414,"name":"Walnut","lat":34.02029,"lng":-117.86534},{"id":128416,"name":"Walnut Creek","lat":37.90631,"lng":-122.06496},{"id":128419,"name":"Walnut Grove","lat":38.24214,"lng":-121.51162},{"id":128422,"name":"Walnut Park","lat":33.96807,"lng":-118.22507},{"id":128528,"name":"Wasco","lat":35.59412,"lng":-119.34095},{"id":128609,"name":"Waterford","lat":37.64132,"lng":-120.76048},{"id":128641,"name":"Watsonville","lat":36.91023,"lng":-121.75689},{"id":128723,"name":"Weaverville","lat":40.73098,"lng":-122.94197},{"id":128751,"name":"Weed","lat":41.42265,"lng":-122.38613},{"id":128752,"name":"Weedpatch","lat":35.23802,"lng":-118.9151},{"id":128770,"name":"Weldon","lat":35.66579,"lng":-118.29036},{"id":128818,"name":"West Athens","lat":33.92335,"lng":-118.30341},{"id":128826,"name":"West Bishop","lat":37.36104,"lng":-118.45511},{"id":128842,"name":"West Carson","lat":33.82168,"lng":-118.29257},{"id":128853,"name":"West Covina","lat":34.06862,"lng":-117.93895},{"id":128897,"name":"West Hills","lat":34.19731,"lng":-118.64398},{"id":128899,"name":"West Hollywood","lat":34.09001,"lng":-118.36174},{"id":128929,"name":"West Menlo Park","lat":37.43355,"lng":-122.20302},{"id":128934,"name":"West Modesto","lat":37.61754,"lng":-121.03914},{"id":128950,"name":"West Park","lat":36.71023,"lng":-119.85126},{"id":128964,"name":"West Puente Valley","lat":34.05168,"lng":-117.9684},{"id":128966,"name":"West Rancho Dominguez","lat":33.8939,"lng":-118.27063},{"id":128971,"name":"West Sacramento","lat":38.58046,"lng":-121.53023},{"id":129005,"name":"West Whittier-Los Nietos","lat":33.976,"lng":-118.06909},{"id":129037,"name":"Westhaven-Moonstone","lat":41.04489,"lng":-124.10239},{"id":129040,"name":"Westlake Village","lat":34.14584,"lng":-118.80565},{"id":129048,"name":"Westminster","lat":33.75918,"lng":-118.00673},{"id":129051,"name":"Westmont","lat":33.9414,"lng":-118.3023},{"id":129057,"name":"Westmorland","lat":33.03727,"lng":-115.62138},{"id":129087,"name":"Westwood","lat":34.05612,"lng":-118.43063},{"id":129108,"name":"Wheatland","lat":39.00989,"lng":-121.42301},{"id":129210,"name":"Whittier","lat":33.97918,"lng":-118.03284},{"id":129235,"name":"Wildomar","lat":33.59891,"lng":-117.28004},{"id":129261,"name":"Williams","lat":39.15461,"lng":-122.14942},{"id":129302,"name":"Willits","lat":39.40961,"lng":-123.35557},{"id":129305,"name":"Willow Creek","lat":40.93958,"lng":-123.63144},{"id":129315,"name":"Willowbrook","lat":33.91696,"lng":-118.25507},{"id":129316,"name":"Willows","lat":39.52433,"lng":-122.19359},{"id":157017,"name":"Wilmington","lat":33.7895355,"lng":-118.2590928},{"id":129346,"name":"Wilton","lat":38.41186,"lng":-121.27217},{"id":129360,"name":"Winchester","lat":33.70697,"lng":-117.08447},{"id":129386,"name":"Windsor","lat":38.54713,"lng":-122.81638},{"id":129439,"name":"Winter Gardens","lat":32.83116,"lng":-116.93336},{"id":129445,"name":"Winters","lat":38.52491,"lng":-121.9708},{"id":129454,"name":"Winton","lat":37.38938,"lng":-120.61325},{"id":129467,"name":"Wofford Heights","lat":35.7069,"lng":-118.4562},{"id":129493,"name":"Woodacre","lat":38.0127,"lng":-122.64526},{"id":129502,"name":"Woodbridge","lat":38.15408,"lng":-121.30134},{"id":129516,"name":"Woodcrest","lat":33.88224,"lng":-117.35727},{"id":129524,"name":"Woodlake","lat":36.41356,"lng":-119.09872},{"id":129526,"name":"Woodland","lat":38.67852,"lng":-121.7733},{"id":129530,"name":"Woodland Hills","lat":34.16834,"lng":-118.60592},{"id":129556,"name":"Woodside","lat":37.42994,"lng":-122.25386},{"id":129574,"name":"Woodville","lat":36.09356,"lng":-119.199},{"id":129617,"name":"Wrightwood","lat":34.36083,"lng":-117.63339},{"id":129686,"name":"Yolo","lat":38.68665,"lng":-121.90162},{"id":129689,"name":"Yorba Linda","lat":33.88863,"lng":-117.81311},{"id":129711,"name":"Yosemite Lakes","lat":37.19106,"lng":-119.77265},{"id":129712,"name":"Yosemite Valley","lat":37.74075,"lng":-119.57788},{"id":129723,"name":"Yountville","lat":38.40158,"lng":-122.36081},{"id":129725,"name":"Yreka","lat":41.73542,"lng":-122.63447},{"id":129727,"name":"Yuba","lat":39.26902,"lng":-121.35126},{"id":129726,"name":"Yuba City","lat":39.14045,"lng":-121.61691},{"id":129728,"name":"Yucaipa","lat":34.03363,"lng":-117.04309},{"id":129729,"name":"Yucca Valley","lat":34.11417,"lng":-116.43224}]