[{"id":111137,"name":"Alderson","lat":37.72595,"lng":-80.64202},{"id":111253,"name":"Alum Creek","lat":38.28676,"lng":-81.80513},{"id":111363,"name":"Ansted","lat":38.13622,"lng":-81.09955},{"id":111814,"name":"Barbour","lat":39.13293,"lng":-80.00303},{"id":111817,"name":"Barboursville","lat":38.40953,"lng":-82.29459},{"id":111840,"name":"Barrackville","lat":39.5037,"lng":-80.16675},{"id":111992,"name":"Beaver","lat":37.74781,"lng":-81.14352},{"id":112017,"name":"Beckley","lat":37.77817,"lng":-81.18816},{"id":112064,"name":"Belington","lat":39.0251,"lng":-79.93563},{"id":112079,"name":"Belle","lat":38.23205,"lng":-81.53762},{"id":112211,"name":"Benwood","lat":40.01813,"lng":-80.73425},{"id":112225,"name":"Berkeley","lat":39.46407,"lng":-78.02754},{"id":112228,"name":"Berkeley Springs","lat":39.6248,"lng":-78.22472},{"id":112275,"name":"Bethany","lat":40.20563,"lng":-80.55674},{"id":112290,"name":"Bethlehem","lat":39.39203,"lng":-80.28064},{"id":112429,"name":"Blennerhassett","lat":39.26369,"lng":-81.62929},{"id":112479,"name":"Bluefield","lat":37.26984,"lng":-81.22232},{"id":112480,"name":"Bluewell","lat":37.31262,"lng":-81.25982},{"id":112491,"name":"Boaz","lat":39.36146,"lng":-81.50207},{"id":112519,"name":"Bolivar","lat":39.32343,"lng":-77.75277},{"id":112557,"name":"Boone County","lat":38.023,"lng":-81.71121},{"id":112671,"name":"Bradley","lat":37.86539,"lng":-81.19399},{"id":112701,"name":"Braxton","lat":38.69987,"lng":-80.71929},{"id":112760,"name":"Bridgeport","lat":39.28648,"lng":-80.2562},{"id":112852,"name":"Brooke","lat":40.27381,"lng":-80.57642},{"id":112859,"name":"Brookhaven","lat":39.61175,"lng":-79.90451},{"id":112954,"name":"Brush Fork","lat":37.28095,"lng":-81.25593},{"id":112981,"name":"Buckhannon","lat":38.99399,"lng":-80.23203},{"id":113011,"name":"Buffalo","lat":38.61759,"lng":-81.9818},{"id":113151,"name":"Cabell","lat":38.4203,"lng":-82.24172},{"id":113208,"name":"Calhoun County","lat":38.8445,"lng":-81.11757},{"id":113699,"name":"Ceredo","lat":38.39647,"lng":-82.55877},{"id":113745,"name":"Chapmanville","lat":37.97371,"lng":-82.01735},{"id":113759,"name":"Charles Town","lat":39.28899,"lng":-77.85972},{"id":113766,"name":"Charleston","lat":38.34982,"lng":-81.63262},{"id":113818,"name":"Cheat Lake","lat":39.67202,"lng":-79.85339},{"id":113873,"name":"Chesapeake","lat":38.22344,"lng":-81.53623},{"id":113890,"name":"Chester","lat":40.61312,"lng":-80.56285},{"id":114144,"name":"Clarksburg","lat":39.28065,"lng":-80.34453},{"id":114167,"name":"Clay","lat":38.46038,"lng":-81.08511},{"id":114186,"name":"Clay County","lat":38.46253,"lng":-81.07509},{"id":114235,"name":"Clendenin","lat":38.48871,"lng":-81.34817},{"id":114326,"name":"Coal City","lat":37.679,"lng":-81.21038},{"id":114330,"name":"Coal Fork","lat":38.3176,"lng":-81.52095},{"id":114753,"name":"Crab Orchard","lat":37.74067,"lng":-81.23066},{"id":114760,"name":"Craigsville","lat":38.33067,"lng":-80.65315},{"id":114850,"name":"Cross Lanes","lat":38.42037,"lng":-81.79068},{"id":114897,"name":"Culloden","lat":38.42009,"lng":-82.05542},{"id":115023,"name":"Daniels","lat":37.74327,"lng":-81.12408},{"id":115288,"name":"Despard","lat":39.2887,"lng":-80.30592},{"id":115374,"name":"Doddridge","lat":39.26917,"lng":-80.70697},{"id":115520,"name":"Dunbar","lat":38.36065,"lng":-81.73735},{"id":115958,"name":"Eleanor","lat":38.53759,"lng":-81.93236},{"id":115971,"name":"Elizabeth","lat":39.06341,"lng":-81.39512},{"id":116006,"name":"Elkins","lat":38.92594,"lng":-79.84673},{"id":116015,"name":"Elkview","lat":38.44288,"lng":-81.4804},{"id":116331,"name":"Fairlea","lat":37.78068,"lng":-80.45702},{"id":116335,"name":"Fairmont","lat":39.48508,"lng":-80.14258},{"id":116450,"name":"Fayette County","lat":38.02878,"lng":-81.08119},{"id":116459,"name":"Fayetteville","lat":38.05289,"lng":-81.10399},{"id":116622,"name":"Follansbee","lat":40.32757,"lng":-80.59591},{"id":116688,"name":"Fort Ashby","lat":39.50315,"lng":-78.76863},{"id":116832,"name":"Franklin","lat":38.64289,"lng":-79.33115},{"id":117205,"name":"Gilbert Creek","lat":37.57594,"lng":-81.89484},{"id":117223,"name":"Gilmer","lat":38.92406,"lng":-80.85708},{"id":117282,"name":"Glendale","lat":39.94924,"lng":-80.75425},{"id":117310,"name":"Glenville","lat":38.93426,"lng":-80.8376},{"id":117428,"name":"Grafton","lat":39.34092,"lng":-80.01897},{"id":117511,"name":"Grant County","lat":39.10513,"lng":-79.19557},{"id":117530,"name":"Grantsville","lat":38.92342,"lng":-81.09595},{"id":117533,"name":"Granville","lat":39.64591,"lng":-79.98729},{"id":117621,"name":"Greenbrier","lat":37.94693,"lng":-80.45295},{"id":117908,"name":"Hamlin","lat":38.2787,"lng":-82.10292},{"id":117921,"name":"Hampshire","lat":39.31707,"lng":-78.61417},{"id":117958,"name":"Hancock County","lat":40.52185,"lng":-80.57389},{"id":118011,"name":"Hardy","lat":39.0075,"lng":-78.85792},{"id":118066,"name":"Harrison County","lat":39.28353,"lng":-80.37987},{"id":118073,"name":"Harrisville","lat":39.20952,"lng":-81.05178},{"id":118489,"name":"Hinton","lat":37.67401,"lng":-80.88925},{"id":118639,"name":"Hooverson Heights","lat":40.32479,"lng":-80.57757},{"id":118800,"name":"Huntington","lat":38.41925,"lng":-82.44515},{"id":118827,"name":"Hurricane","lat":38.43259,"lng":-82.02014},{"id":118962,"name":"Inwood","lat":39.35788,"lng":-78.04},{"id":119089,"name":"Jackson County","lat":38.83447,"lng":-81.67479},{"id":119188,"name":"Jefferson County","lat":39.30762,"lng":-77.86274},{"id":119374,"name":"Kanawha","lat":38.33657,"lng":-81.52812},{"id":119478,"name":"Kenova","lat":38.39897,"lng":-82.57821},{"id":119545,"name":"Keyser","lat":39.44093,"lng":-78.97392},{"id":119637,"name":"Kingwood","lat":39.47176,"lng":-79.68339},{"id":120215,"name":"Lavalette","lat":38.32286,"lng":-82.44682},{"id":120395,"name":"Lesage","lat":38.50647,"lng":-82.29848},{"id":120413,"name":"Lewis","lat":38.99587,"lng":-80.50216},{"id":120420,"name":"Lewisburg","lat":37.80179,"lng":-80.44563},{"id":120525,"name":"Lincoln County","lat":38.17536,"lng":-82.07039},{"id":120693,"name":"Logan","lat":37.84871,"lng":-81.99346},{"id":120699,"name":"Logan County","lat":37.83153,"lng":-81.93534},{"id":120858,"name":"Lubeck","lat":39.23535,"lng":-81.63124},{"id":120950,"name":"Mabscott","lat":37.77095,"lng":-81.20843},{"id":120952,"name":"MacArthur","lat":37.75845,"lng":-81.2126},{"id":120993,"name":"Madison","lat":38.06705,"lng":-81.81929},{"id":121063,"name":"Mallory","lat":37.73066,"lng":-81.8379},{"id":121137,"name":"Mannington","lat":39.53092,"lng":-80.34342},{"id":121260,"name":"Marion County","lat":39.51,"lng":-80.2434},{"id":121284,"name":"Marlinton","lat":38.22345,"lng":-80.09451},{"id":121290,"name":"Marmet","lat":38.24538,"lng":-81.56706},{"id":121316,"name":"Marshall County","lat":39.86061,"lng":-80.66339},{"id":121346,"name":"Martinsburg","lat":39.45621,"lng":-77.96389},{"id":121379,"name":"Mason County","lat":38.76974,"lng":-82.02654},{"id":121496,"name":"McDowell","lat":37.3785,"lng":-81.65358},{"id":121537,"name":"McMechen","lat":39.98813,"lng":-80.73147},{"id":121676,"name":"Mercer County","lat":37.40552,"lng":-81.11144},{"id":121767,"name":"Middlebourne","lat":39.4923,"lng":-80.90372},{"id":121914,"name":"Milton","lat":38.43453,"lng":-82.13236},{"id":121934,"name":"Mineral","lat":39.41472,"lng":-78.94375},{"id":121942,"name":"Mineral Wells","lat":39.19035,"lng":-81.53207},{"id":121946,"name":"Mingo","lat":37.7264,"lng":-82.13476},{"id":122054,"name":"Monongah","lat":39.46258,"lng":-80.21814},{"id":122056,"name":"Monongalia","lat":39.63028,"lng":-80.04654},{"id":122077,"name":"Monroe County","lat":37.56037,"lng":-80.55055},{"id":122132,"name":"Montgomery","lat":38.18038,"lng":-81.32845},{"id":122205,"name":"Moorefield","lat":39.06233,"lng":-78.96947},{"id":122243,"name":"Morgan County","lat":39.56043,"lng":-78.25773},{"id":122253,"name":"Morgantown","lat":39.62953,"lng":-79.9559},{"id":122327,"name":"Moundsville","lat":39.92035,"lng":-80.74314},{"id":122343,"name":"Mount Gay-Shamrock","lat":37.83857,"lng":-82.0297},{"id":122353,"name":"Mount Hope","lat":37.89539,"lng":-81.16427},{"id":122460,"name":"Mullens","lat":37.58317,"lng":-81.38038},{"id":122698,"name":"New Cumberland","lat":40.49673,"lng":-80.60674},{"id":122715,"name":"New Haven","lat":38.98647,"lng":-81.97347},{"id":122753,"name":"New Martinsville","lat":39.64452,"lng":-80.8576},{"id":122824,"name":"Newell","lat":40.6184,"lng":-80.60424},{"id":122888,"name":"Nicholas","lat":38.2917,"lng":-80.79933},{"id":122909,"name":"Nitro","lat":38.41481,"lng":-81.84402},{"id":123220,"name":"Nutter Fort","lat":39.26342,"lng":-80.31981},{"id":123245,"name":"Oak Hill","lat":37.97233,"lng":-81.14871},{"id":123339,"name":"Oceana","lat":37.69206,"lng":-81.624},{"id":123384,"name":"Ohio","lat":40.09692,"lng":-80.61906},{"id":123714,"name":"Paden City","lat":39.60285,"lng":-80.93677},{"id":123868,"name":"Parkersburg","lat":39.26674,"lng":-81.56151},{"id":123893,"name":"Parsons","lat":39.09649,"lng":-79.6809},{"id":123952,"name":"Pea Ridge","lat":38.41397,"lng":-82.31987},{"id":124020,"name":"Pendleton","lat":38.68073,"lng":-79.35089},{"id":124035,"name":"Pennsboro","lat":39.28508,"lng":-80.96844},{"id":124104,"name":"Petersburg","lat":38.99261,"lng":-79.12392},{"id":124130,"name":"Philippi","lat":39.15232,"lng":-80.04036},{"id":124208,"name":"Pinch","lat":38.40871,"lng":-81.48179},{"id":124263,"name":"Pineville","lat":37.58317,"lng":-81.53705},{"id":124378,"name":"Pleasant Valley","lat":39.45536,"lng":-80.14175},{"id":124385,"name":"Pleasants","lat":39.37094,"lng":-81.16063},{"id":124415,"name":"Pocahontas County","lat":38.3318,"lng":-80.00775},{"id":124430,"name":"Point Pleasant","lat":38.84453,"lng":-82.13709},{"id":124659,"name":"Preston","lat":39.4693,"lng":-79.66816},{"id":124685,"name":"Princeton","lat":37.36623,"lng":-81.10259},{"id":124713,"name":"Prosperity","lat":37.8365,"lng":-81.20177},{"id":124765,"name":"Putnam","lat":38.50862,"lng":-81.90899},{"id":124825,"name":"Rainelle","lat":37.96873,"lng":-80.76703},{"id":124832,"name":"Raleigh","lat":37.77136,"lng":-81.24863},{"id":124861,"name":"Rand","lat":38.2826,"lng":-81.56234},{"id":124878,"name":"Randolph","lat":38.77472,"lng":-79.8758},{"id":124890,"name":"Ranson","lat":39.2951,"lng":-77.86055},{"id":124910,"name":"Ravenswood","lat":38.94814,"lng":-81.76096},{"id":154482,"name":"Red House","lat":38.5417811,"lng":-81.9041186},{"id":125112,"name":"Richwood","lat":38.22484,"lng":-80.53314},{"id":125164,"name":"Ripley","lat":38.8187,"lng":-81.71069},{"id":125173,"name":"Ritchie","lat":39.17827,"lng":-81.06295},{"id":125225,"name":"Roane","lat":38.71403,"lng":-81.34835},{"id":125383,"name":"Romney","lat":39.34204,"lng":-78.75668},{"id":125387,"name":"Ronceverte","lat":37.74984,"lng":-80.46285},{"id":125594,"name":"Saint Albans","lat":38.38565,"lng":-81.83624},{"id":125693,"name":"Saint Marys","lat":39.39174,"lng":-81.20511},{"id":125733,"name":"Salem","lat":39.28287,"lng":-80.55899},{"id":126208,"name":"Shady Spring","lat":37.70567,"lng":-81.09843},{"id":126222,"name":"Shannondale","lat":39.21705,"lng":-77.80749},{"id":126311,"name":"Shepherdstown","lat":39.4301,"lng":-77.80416},{"id":126355,"name":"Shinnston","lat":39.39564,"lng":-80.30009},{"id":126467,"name":"Sissonville","lat":38.52815,"lng":-81.63096},{"id":126469,"name":"Sistersville","lat":39.56424,"lng":-80.99594},{"id":126603,"name":"Sophia","lat":37.70761,"lng":-81.25066},{"id":126636,"name":"South Charleston","lat":38.36843,"lng":-81.69957},{"id":126824,"name":"Spencer","lat":38.80203,"lng":-81.35095},{"id":126947,"name":"Stanaford","lat":37.81595,"lng":-81.15232},{"id":126980,"name":"Star City","lat":39.65841,"lng":-79.98645},{"id":127094,"name":"Stonewood","lat":39.25092,"lng":-80.31231},{"id":127206,"name":"Summers","lat":37.65587,"lng":-80.85857},{"id":127208,"name":"Summersville","lat":38.28122,"lng":-80.8526},{"id":127311,"name":"Sutton","lat":38.66454,"lng":-80.70982},{"id":127455,"name":"Taylor County","lat":39.33599,"lng":-80.04618},{"id":127477,"name":"Teays Valley","lat":38.45009,"lng":-81.9293},{"id":127514,"name":"Terra Alta","lat":39.44565,"lng":-79.54644},{"id":127739,"name":"Tornado","lat":38.34287,"lng":-81.8443},{"id":127871,"name":"Tucker","lat":39.1136,"lng":-79.56497},{"id":127943,"name":"Tyler County","lat":39.46528,"lng":-80.88483},{"id":127976,"name":"Union","lat":37.59151,"lng":-80.54368},{"id":128053,"name":"Upshur","lat":38.89783,"lng":-80.23342},{"id":128233,"name":"Vienna","lat":39.32702,"lng":-81.54846},{"id":128544,"name":"Washington","lat":39.26119,"lng":-81.6718},{"id":128681,"name":"Wayne","lat":38.22147,"lng":-82.44237},{"id":128697,"name":"Wayne County","lat":38.14595,"lng":-82.42695},{"id":128740,"name":"Webster","lat":38.49474,"lng":-80.42187},{"id":128745,"name":"Webster Springs","lat":38.47927,"lng":-80.41342},{"id":128759,"name":"Weirton","lat":40.41896,"lng":-80.58952},{"id":128760,"name":"Weirton Heights","lat":40.4084,"lng":-80.53924},{"id":128765,"name":"Welch","lat":37.43289,"lng":-81.58455},{"id":128789,"name":"Wellsburg","lat":40.27201,"lng":-80.60952},{"id":128918,"name":"West Liberty","lat":40.16979,"lng":-80.59369},{"id":128994,"name":"West Union","lat":39.29647,"lng":-80.77705},{"id":129060,"name":"Weston","lat":39.03843,"lng":-80.46731},{"id":129068,"name":"Westover","lat":39.63453,"lng":-79.96979},{"id":129093,"name":"Wetzel","lat":39.60526,"lng":-80.6391},{"id":129121,"name":"Wheeling","lat":40.06396,"lng":-80.72091},{"id":129162,"name":"White Sulphur Springs","lat":37.79651,"lng":-80.29757},{"id":129243,"name":"Wiley Ford","lat":39.61453,"lng":-78.77502},{"id":129273,"name":"Williamson","lat":37.67427,"lng":-82.27736},{"id":129287,"name":"Williamstown","lat":39.40063,"lng":-81.44818},{"id":129396,"name":"Winfield","lat":38.53314,"lng":-81.89347},{"id":129455,"name":"Wirt","lat":39.02242,"lng":-81.37862},{"id":129485,"name":"Wood","lat":39.21113,"lng":-81.51497},{"id":129639,"name":"Wyoming County","lat":37.60961,"lng":-81.54918}]