[{"id":65631,"name":"Bakanas","lat":44.80838,"lng":76.27214},{"id":65633,"name":"Balpyk Bī","lat":44.90225,"lng":78.23157},{"id":65656,"name":"Burunday","lat":43.35567,"lng":76.85477},{"id":65661,"name":"Chemolgan","lat":43.37633,"lng":76.62456},{"id":65668,"name":"Druzhba","lat":45.25332,"lng":82.48044},{"id":65675,"name":"Esik","lat":43.3552,"lng":77.45245},{"id":65689,"name":"Kapshagay","lat":43.86681,"lng":77.06304},{"id":65694,"name":"Kegen","lat":43.02143,"lng":79.22055},{"id":65715,"name":"Lepsy","lat":46.235,"lng":78.94556},{"id":65726,"name":"Matay","lat":45.895,"lng":78.71806},{"id":65742,"name":"Otegen Batyra","lat":43.41949,"lng":77.0202},{"id":65746,"name":"Pervomayka","lat":43.37361,"lng":76.94},{"id":65763,"name":"Sarkand","lat":45.41126,"lng":79.91545},{"id":65767,"name":"Saryozek","lat":44.36178,"lng":77.97279},{"id":65800,"name":"Taldykorgan","lat":45.01556,"lng":78.37389},{"id":65801,"name":"Talghar","lat":43.30348,"lng":77.24085},{"id":65807,"name":"Tekeli","lat":44.83322,"lng":78.83089},{"id":65818,"name":"Turgen","lat":43.40056,"lng":77.59333},{"id":65852,"name":"Ülken","lat":45.21194,"lng":73.97861},{"id":65823,"name":"Ush-Tyube","lat":45.25201,"lng":77.98007},{"id":65841,"name":"Zharkent","lat":44.1666,"lng":80.00655}]