[{"id":110974,"name":"Aberdeen","lat":33.82511,"lng":-88.54366},{"id":110996,"name":"Ackerman","lat":33.31012,"lng":-89.17284},{"id":111018,"name":"Adams County","lat":31.48294,"lng":-91.3535},{"id":111134,"name":"Alcorn","lat":34.88077,"lng":-88.58026},{"id":111289,"name":"Amite","lat":31.1744,"lng":-90.80443},{"id":111294,"name":"Amory","lat":33.98428,"lng":-88.4881},{"id":111489,"name":"Arnold Line","lat":31.33517,"lng":-89.3734},{"id":111530,"name":"Ashland","lat":34.83287,"lng":-89.1759},{"id":111607,"name":"Attala","lat":33.08629,"lng":-89.58155},{"id":111766,"name":"Baldwyn","lat":34.50954,"lng":-88.63533},{"id":111894,"name":"Batesville","lat":34.3115,"lng":-89.94426},{"id":111933,"name":"Bay Saint Louis","lat":30.30881,"lng":-89.33005},{"id":111935,"name":"Bay Springs","lat":31.97904,"lng":-89.28728},{"id":112041,"name":"Beechwood","lat":32.32765,"lng":-90.82677},{"id":112135,"name":"Belmont","lat":34.50982,"lng":-88.20921},{"id":112158,"name":"Belzoni","lat":33.18429,"lng":-90.48926},{"id":112201,"name":"Benton County","lat":34.81729,"lng":-89.18848},{"id":112347,"name":"Biloxi","lat":30.39603,"lng":-88.88531},{"id":112521,"name":"Bolivar","lat":33.79554,"lng":-90.8804},{"id":112564,"name":"Booneville","lat":34.65815,"lng":-88.56672},{"id":112689,"name":"Brandon","lat":32.2732,"lng":-89.98592},{"id":112857,"name":"Brookhaven","lat":31.57906,"lng":-90.44065},{"id":112892,"name":"Brooksville","lat":33.23457,"lng":-88.58227},{"id":112942,"name":"Bruce","lat":33.99206,"lng":-89.34896},{"id":112995,"name":"Bude","lat":31.46295,"lng":-90.8501},{"id":113135,"name":"Byhalia","lat":34.87232,"lng":-89.69064},{"id":113139,"name":"Byram","lat":32.17932,"lng":-90.24537},{"id":113188,"name":"Caledonia","lat":33.68289,"lng":-88.32448},{"id":113199,"name":"Calhoun City","lat":33.85539,"lng":-89.31146},{"id":113205,"name":"Calhoun County","lat":33.93645,"lng":-89.33645},{"id":113340,"name":"Canton","lat":32.61264,"lng":-90.03675},{"id":113445,"name":"Carriere","lat":30.61686,"lng":-89.65256},{"id":113455,"name":"Carroll County","lat":33.44853,"lng":-89.9202},{"id":113468,"name":"Carrollton","lat":33.50818,"lng":-89.92036},{"id":113492,"name":"Carthage","lat":32.73264,"lng":-89.53618},{"id":113694,"name":"Centreville","lat":31.08962,"lng":-91.06844},{"id":113764,"name":"Charleston","lat":34.00678,"lng":-90.05676},{"id":113939,"name":"Chickasaw","lat":33.9208,"lng":-88.94786},{"id":113987,"name":"Choctaw County","lat":33.34731,"lng":-89.24838},{"id":114093,"name":"Claiborne County","lat":31.97369,"lng":-90.91181},{"id":114136,"name":"Clarke","lat":32.0414,"lng":-88.6894},{"id":114145,"name":"Clarksdale","lat":34.20011,"lng":-90.57093},{"id":114182,"name":"Clay County","lat":33.65567,"lng":-88.78157},{"id":114228,"name":"Cleary","lat":32.16543,"lng":-90.18064},{"id":114243,"name":"Cleveland","lat":33.744,"lng":-90.72482},{"id":114274,"name":"Clinton","lat":32.34153,"lng":-90.32176},{"id":114325,"name":"Coahoma","lat":34.22917,"lng":-90.60269},{"id":114393,"name":"Coldwater","lat":34.69177,"lng":-89.97731},{"id":114431,"name":"Collins","lat":31.64544,"lng":-89.55535},{"id":114435,"name":"Collinsville","lat":32.49792,"lng":-88.84588},{"id":114469,"name":"Columbia","lat":31.25184,"lng":-89.83758},{"id":114494,"name":"Columbus","lat":33.49567,"lng":-88.42726},{"id":114501,"name":"Columbus Air Force Base","lat":33.63239,"lng":-88.45153},{"id":114527,"name":"Como","lat":34.51066,"lng":-89.93981},{"id":114551,"name":"Conehatta","lat":32.45125,"lng":-89.28534},{"id":114617,"name":"Copiah","lat":31.86924,"lng":-90.4488},{"id":114643,"name":"Corinth","lat":34.93425,"lng":-88.52227},{"id":114743,"name":"Covington","lat":31.63322,"lng":-89.55263},{"id":114884,"name":"Crystal Springs","lat":31.98738,"lng":-90.35704},{"id":114961,"name":"D'Iberville","lat":30.42631,"lng":-88.89086},{"id":115106,"name":"De Kalb","lat":32.76763,"lng":-88.65088},{"id":115111,"name":"De Lisle","lat":30.37936,"lng":-89.26449},{"id":115119,"name":"De Soto","lat":34.8754,"lng":-89.99178},{"id":115153,"name":"Decatur","lat":32.43903,"lng":-89.10839},{"id":115263,"name":"Derma","lat":33.85567,"lng":-89.28452},{"id":115317,"name":"Diamondhead","lat":30.39464,"lng":-89.36394},{"id":115473,"name":"Drew","lat":33.80956,"lng":-90.52648},{"id":115504,"name":"Duck Hill","lat":33.63318,"lng":-89.71119},{"id":115566,"name":"Durant","lat":33.07513,"lng":-89.85453},{"id":115886,"name":"Edwards","lat":32.33015,"lng":-90.60565},{"id":116035,"name":"Ellisville","lat":31.60405,"lng":-89.19561},{"id":116182,"name":"Escatawpa","lat":30.44048,"lng":-88.54363},{"id":116231,"name":"Eupora","lat":33.54068,"lng":-89.26701},{"id":116414,"name":"Farmington","lat":34.93009,"lng":-88.45227},{"id":116440,"name":"Fayette","lat":31.71155,"lng":-91.06066},{"id":116571,"name":"Flora","lat":32.5432,"lng":-90.30926},{"id":116579,"name":"Florence","lat":32.15348,"lng":-90.1312},{"id":116604,"name":"Flowood","lat":32.30959,"lng":-90.13898},{"id":116643,"name":"Forest","lat":32.36459,"lng":-89.47423},{"id":116680,"name":"Forrest","lat":31.18887,"lng":-89.25786},{"id":116852,"name":"Franklin County","lat":31.47715,"lng":-90.89785},{"id":116942,"name":"Friars Point","lat":34.37088,"lng":-90.63834},{"id":116988,"name":"Fulton","lat":34.27399,"lng":-88.40921},{"id":117126,"name":"Gautier","lat":30.38575,"lng":-88.61169},{"id":117153,"name":"George","lat":30.86261,"lng":-88.64403},{"id":117281,"name":"Glendale","lat":31.36462,"lng":-89.30617},{"id":117388,"name":"Goodman","lat":32.97013,"lng":-89.91231},{"id":117637,"name":"Greene County","lat":31.21422,"lng":-88.63916},{"id":117686,"name":"Greenville","lat":33.40898,"lng":-91.05978},{"id":117705,"name":"Greenwood","lat":33.51623,"lng":-90.17953},{"id":117720,"name":"Grenada","lat":33.769,"lng":-89.80842},{"id":117721,"name":"Grenada County","lat":33.76995,"lng":-89.80201},{"id":117793,"name":"Gulf Hills","lat":30.43048,"lng":-88.84225},{"id":117794,"name":"Gulf Park Estates","lat":30.39187,"lng":-88.76114},{"id":117797,"name":"Gulfport","lat":30.36742,"lng":-89.09282},{"id":117807,"name":"Guntown","lat":34.44316,"lng":-88.65978},{"id":117953,"name":"Hancock County","lat":30.39378,"lng":-89.47456},{"id":118064,"name":"Harrison County","lat":30.41605,"lng":-89.08164},{"id":118140,"name":"Hattiesburg","lat":31.32712,"lng":-89.29034},{"id":118212,"name":"Hazlehurst","lat":31.86044,"lng":-90.39593},{"id":118249,"name":"Helena","lat":30.49464,"lng":-88.49585},{"id":118333,"name":"Hernando","lat":34.82399,"lng":-89.9937},{"id":118368,"name":"Hickory Hills","lat":30.45687,"lng":-88.63919},{"id":118381,"name":"Hide-A-Way Lake","lat":30.56492,"lng":-89.6402},{"id":118448,"name":"Hillsboro","lat":32.45931,"lng":-89.51146},{"id":118479,"name":"Hinds","lat":32.2667,"lng":-90.44282},{"id":118541,"name":"Hollandale","lat":33.16901,"lng":-90.85399},{"id":118563,"name":"Holly Springs","lat":34.7676,"lng":-89.44869},{"id":118572,"name":"Holmes","lat":33.12351,"lng":-90.09205},{"id":118666,"name":"Horn Lake","lat":34.95537,"lng":-90.03481},{"id":118698,"name":"Houston","lat":33.89845,"lng":-88.99923},{"id":118784,"name":"Humphreys","lat":33.1287,"lng":-90.52662},{"id":118819,"name":"Hurley","lat":30.66103,"lng":-88.49418},{"id":118925,"name":"Indianola","lat":33.45095,"lng":-90.65509},{"id":119037,"name":"Issaquena","lat":32.74139,"lng":-90.98921},{"id":119042,"name":"Itawamba","lat":34.27999,"lng":-88.36132},{"id":119045,"name":"Itta Bena","lat":33.49512,"lng":-90.31981},{"id":119046,"name":"Iuka","lat":34.81176,"lng":-88.19004},{"id":119065,"name":"Jackson","lat":32.29876,"lng":-90.18481},{"id":119084,"name":"Jackson County","lat":30.46289,"lng":-88.62284},{"id":119148,"name":"Jasper County","lat":32.01911,"lng":-89.11886},{"id":119184,"name":"Jefferson County","lat":31.73421,"lng":-91.03718},{"id":119199,"name":"Jefferson Davis","lat":31.56964,"lng":-89.823},{"id":119293,"name":"Jones","lat":31.62256,"lng":-89.16879},{"id":119306,"name":"Jonestown","lat":34.31955,"lng":-90.45565},{"id":119410,"name":"Kearney Park","lat":32.58903,"lng":-90.31537},{"id":119437,"name":"Kemper","lat":32.75456,"lng":-88.64116},{"id":119564,"name":"Kiln","lat":30.40908,"lng":-89.43505},{"id":119709,"name":"Kosciusko","lat":33.058,"lng":-89.58956},{"id":119841,"name":"Lafayette County","lat":34.35675,"lng":-89.48492},{"id":120063,"name":"Lamar","lat":31.20587,"lng":-89.50869},{"id":120067,"name":"Lambert","lat":34.20178,"lng":-90.28343},{"id":120172,"name":"Latimer","lat":30.53464,"lng":-88.8667},{"id":120180,"name":"Lauderdale","lat":32.40429,"lng":-88.66254},{"id":120190,"name":"Laurel","lat":31.69405,"lng":-89.13061},{"id":120235,"name":"Lawrence County","lat":31.5502,"lng":-90.10699},{"id":120275,"name":"Leake","lat":32.75353,"lng":-89.52406},{"id":120276,"name":"Leakesville","lat":31.15574,"lng":-88.5578},{"id":120311,"name":"Lee","lat":34.28989,"lng":-88.68042},{"id":120331,"name":"Leflore","lat":33.55052,"lng":-90.30106},{"id":120349,"name":"Leland","lat":33.40539,"lng":-90.8976},{"id":120441,"name":"Lexington","lat":33.11318,"lng":-90.05314},{"id":120463,"name":"Liberty","lat":31.15823,"lng":-90.81232},{"id":120521,"name":"Lincoln County","lat":31.53239,"lng":-90.454},{"id":120735,"name":"Long Beach","lat":30.35048,"lng":-89.15282},{"id":120814,"name":"Louisville","lat":33.12374,"lng":-89.05506},{"id":120848,"name":"Lowndes","lat":33.47291,"lng":-88.44331},{"id":120864,"name":"Lucedale","lat":30.92519,"lng":-88.59002},{"id":120879,"name":"Lumberton","lat":31.00129,"lng":-89.45229},{"id":120908,"name":"Lyman","lat":30.49474,"lng":-89.12561},{"id":120914,"name":"Lynchburg","lat":34.96232,"lng":-90.09593},{"id":120966,"name":"Macon","lat":33.1054,"lng":-88.56088},{"id":120989,"name":"Madison","lat":32.46181,"lng":-90.11536},{"id":121009,"name":"Madison County","lat":32.63466,"lng":-90.03376},{"id":121032,"name":"Magee","lat":31.87377,"lng":-89.73369},{"id":121036,"name":"Magnolia","lat":31.14323,"lng":-90.45871},{"id":121153,"name":"Mantachie","lat":34.32427,"lng":-88.49116},{"id":121237,"name":"Marion","lat":32.41736,"lng":-88.64782},{"id":121256,"name":"Marion County","lat":31.23082,"lng":-89.82244},{"id":121272,"name":"Marks","lat":34.25683,"lng":-90.27298},{"id":121313,"name":"Marshall County","lat":34.76225,"lng":-89.50305},{"id":121434,"name":"Mayersville","lat":32.90207,"lng":-91.05122},{"id":121474,"name":"McComb","lat":31.24379,"lng":-90.45315},{"id":121574,"name":"Meadville","lat":31.47239,"lng":-90.89677},{"id":121650,"name":"Mendenhall","lat":31.96182,"lng":-89.87008},{"id":121690,"name":"Meridian","lat":32.36431,"lng":-88.70366},{"id":121697,"name":"Meridian Station","lat":32.55049,"lng":-88.61849},{"id":121732,"name":"Metcalfe","lat":33.454,"lng":-91.00733},{"id":121830,"name":"Mikoma","lat":33.95039,"lng":-90.28398},{"id":122075,"name":"Monroe County","lat":33.89224,"lng":-88.48047},{"id":122147,"name":"Montgomery County","lat":33.4941,"lng":-89.6164},{"id":122163,"name":"Monticello","lat":31.55378,"lng":-90.10731},{"id":122211,"name":"Moorhead","lat":33.45012,"lng":-90.50564},{"id":122252,"name":"Morgantown","lat":31.57267,"lng":-91.34761},{"id":122291,"name":"Morton","lat":32.35376,"lng":-89.65452},{"id":122309,"name":"Moss Point","lat":30.41159,"lng":-88.53446},{"id":122319,"name":"Mound Bayou","lat":33.87817,"lng":-90.72732},{"id":122587,"name":"Natchez","lat":31.56017,"lng":-91.40329},{"id":122621,"name":"Nellieburg","lat":32.40681,"lng":-88.77727},{"id":122641,"name":"Neshoba","lat":32.7535,"lng":-89.11757},{"id":122646,"name":"Nettleton","lat":34.089,"lng":-88.62227},{"id":122655,"name":"New Albany","lat":34.49427,"lng":-89.00784},{"id":122657,"name":"New Augusta","lat":31.20263,"lng":-89.03668},{"id":122724,"name":"New Hope","lat":33.46817,"lng":-88.3267},{"id":122860,"name":"Newton","lat":32.32126,"lng":-89.16339},{"id":122871,"name":"Newton County","lat":32.40023,"lng":-89.11881},{"id":122893,"name":"Nicholson","lat":30.47714,"lng":-89.69367},{"id":123116,"name":"North Tunica","lat":34.70093,"lng":-90.37815},{"id":123212,"name":"Noxubee","lat":33.11011,"lng":-88.56982},{"id":123337,"name":"Ocean Springs","lat":30.41131,"lng":-88.82781},{"id":123409,"name":"Okolona","lat":34.00178,"lng":-88.75533},{"id":123410,"name":"Oktibbeha","lat":33.42495,"lng":-88.8793},{"id":123439,"name":"Olive Branch","lat":34.96176,"lng":-89.82953},{"id":123678,"name":"Oxford","lat":34.3665,"lng":-89.51925},{"id":123803,"name":"Panola","lat":34.36394,"lng":-89.95057},{"id":123900,"name":"Pascagoula","lat":30.36576,"lng":-88.55613},{"id":123906,"name":"Pass Christian","lat":30.31575,"lng":-89.24754},{"id":123963,"name":"Pearl","lat":32.27459,"lng":-90.13203},{"id":123967,"name":"Pearl River","lat":32.78347,"lng":-89.22784},{"id":123969,"name":"Pearl River County","lat":30.76858,"lng":-89.58978},{"id":123971,"name":"Pearlington","lat":30.24658,"lng":-89.61117},{"id":123987,"name":"Pelahatchie","lat":32.31292,"lng":-89.79841},{"id":124080,"name":"Perry County","lat":31.17202,"lng":-88.99233},{"id":124100,"name":"Petal","lat":31.34656,"lng":-89.26006},{"id":124125,"name":"Philadelphia","lat":32.77152,"lng":-89.11673},{"id":124153,"name":"Picayune","lat":30.52556,"lng":-89.67788},{"id":124154,"name":"Pickens","lat":32.88374,"lng":-89.97147},{"id":124192,"name":"Pike","lat":31.17491,"lng":-90.40416},{"id":124290,"name":"Pittsboro","lat":33.94039,"lng":-89.33757},{"id":124348,"name":"Plantersville","lat":34.21344,"lng":-88.6645},{"id":124476,"name":"Pontotoc","lat":34.24788,"lng":-88.99867},{"id":124477,"name":"Pontotoc County","lat":34.22544,"lng":-89.03741},{"id":124487,"name":"Poplarville","lat":30.84019,"lng":-89.53423},{"id":124507,"name":"Port Gibson","lat":31.96099,"lng":-90.98399},{"id":124640,"name":"Prentiss","lat":31.5985,"lng":-89.86702},{"id":124641,"name":"Prentiss County","lat":34.61829,"lng":-88.5201},{"id":124758,"name":"Purvis","lat":31.14324,"lng":-89.40979},{"id":124806,"name":"Quitman","lat":32.04015,"lng":-88.7281},{"id":124809,"name":"Quitman County","lat":34.25141,"lng":-90.28912},{"id":124830,"name":"Raleigh","lat":32.03349,"lng":-89.52229},{"id":124885,"name":"Rankin","lat":32.26412,"lng":-89.9458},{"id":124914,"name":"Rawls Springs","lat":31.38073,"lng":-89.37145},{"id":124917,"name":"Raymond","lat":32.25931,"lng":-90.4226},{"id":125069,"name":"Richland","lat":32.23904,"lng":-90.15842},{"id":125107,"name":"Richton","lat":31.34934,"lng":-88.94005},{"id":125123,"name":"Ridgeland","lat":32.42848,"lng":-90.13231},{"id":125162,"name":"Ripley","lat":34.72982,"lng":-88.95062},{"id":125365,"name":"Rolling Fork","lat":32.90652,"lng":-90.87816},{"id":125417,"name":"Rosedale","lat":33.85344,"lng":-91.02789},{"id":125506,"name":"Ruleville","lat":33.72595,"lng":-90.55148},{"id":125686,"name":"Saint Martin","lat":30.43798,"lng":-88.86809},{"id":125769,"name":"Saltillo","lat":34.37649,"lng":-88.68172},{"id":125948,"name":"Sardis","lat":34.43705,"lng":-89.91592},{"id":125958,"name":"Saucier","lat":30.63575,"lng":-89.13504},{"id":126048,"name":"Scott","lat":32.40638,"lng":-89.53764},{"id":126153,"name":"Senatobia","lat":34.6176,"lng":-89.9687},{"id":126219,"name":"Shannon","lat":34.11622,"lng":-88.71172},{"id":126226,"name":"Sharkey","lat":32.87972,"lng":-90.81321},{"id":126227,"name":"Sharon","lat":31.7896,"lng":-89.09867},{"id":126244,"name":"Shaw","lat":33.601791,"lng":-90.7813872},{"id":126269,"name":"Shelby","lat":33.95094,"lng":-90.76788},{"id":126450,"name":"Simpson","lat":31.91317,"lng":-89.91949},{"id":126513,"name":"Smith","lat":32.01769,"lng":-89.50668},{"id":126760,"name":"Southaven","lat":34.98898,"lng":-90.01259},{"id":126989,"name":"Starkville","lat":33.45049,"lng":-88.81961},{"id":127082,"name":"Stone","lat":30.78995,"lng":-89.11771},{"id":127092,"name":"Stonewall","lat":32.13181,"lng":-88.79338},{"id":127211,"name":"Summit","lat":31.28379,"lng":-90.46843},{"id":127226,"name":"Sumrall","lat":31.41739,"lng":-89.54229},{"id":127251,"name":"Sunflower","lat":33.5429,"lng":-90.53703},{"id":127252,"name":"Sunflower County","lat":33.60231,"lng":-90.58862},{"id":127392,"name":"Tallahatchie","lat":33.95047,"lng":-90.17326},{"id":127438,"name":"Tate","lat":34.65032,"lng":-89.94478},{"id":127464,"name":"Taylorsville","lat":31.8296,"lng":-89.42812},{"id":127472,"name":"Tchula","lat":33.1829,"lng":-90.22286},{"id":127530,"name":"Terry","lat":32.09626,"lng":-90.29426},{"id":127672,"name":"Tippah","lat":34.7684,"lng":-88.9089},{"id":127683,"name":"Tishomingo","lat":34.74043,"lng":-88.23932},{"id":127891,"name":"Tunica","lat":34.68455,"lng":-90.38288},{"id":127892,"name":"Tunica County","lat":34.65194,"lng":-90.37551},{"id":127893,"name":"Tunica Resorts","lat":34.83613,"lng":-90.34723},{"id":127897,"name":"Tupelo","lat":34.25807,"lng":-88.70464},{"id":127919,"name":"Tutwiler","lat":34.01483,"lng":-90.43176},{"id":127944,"name":"Tylertown","lat":31.11601,"lng":-90.14203},{"id":127972,"name":"Union","lat":32.57153,"lng":-89.12145},{"id":127994,"name":"Union County","lat":34.49047,"lng":-89.00386},{"id":128024,"name":"University","lat":34.36594,"lng":-89.52536},{"id":128143,"name":"Vancleave","lat":30.54047,"lng":-88.68752},{"id":128154,"name":"Vardaman","lat":33.87567,"lng":-89.17729},{"id":128201,"name":"Verona","lat":34.19427,"lng":-88.71977},{"id":128215,"name":"Vicksburg","lat":32.35265,"lng":-90.87788},{"id":128319,"name":"Wade","lat":30.64242,"lng":-88.56974},{"id":128412,"name":"Walls","lat":34.95824,"lng":-90.15256},{"id":128418,"name":"Walnut Grove","lat":32.59042,"lng":-89.4584},{"id":128430,"name":"Walthall","lat":33.60734,"lng":-89.27729},{"id":128431,"name":"Walthall County","lat":31.14842,"lng":-90.10614},{"id":128489,"name":"Warren County","lat":32.35723,"lng":-90.85201},{"id":128562,"name":"Washington County","lat":33.2837,"lng":-90.94745},{"id":128600,"name":"Water Valley","lat":34.1515,"lng":-89.63147},{"id":128664,"name":"Waveland","lat":30.28686,"lng":-89.37616},{"id":128694,"name":"Wayne County","lat":31.64078,"lng":-88.6958},{"id":128706,"name":"Waynesboro","lat":31.67488,"lng":-88.64615},{"id":128739,"name":"Webster","lat":33.61307,"lng":-89.28482},{"id":128814,"name":"Wesson","lat":31.70128,"lng":-90.39759},{"id":128882,"name":"West Gulfport","lat":30.40409,"lng":-89.0942},{"id":128886,"name":"West Hattiesburg","lat":31.31906,"lng":-89.37506},{"id":128959,"name":"West Point","lat":33.60762,"lng":-88.65033},{"id":129223,"name":"Wiggins","lat":30.85824,"lng":-89.13533},{"id":129251,"name":"Wilkinson","lat":31.16107,"lng":-91.31092},{"id":129422,"name":"Winona","lat":33.48207,"lng":-89.72814},{"id":129435,"name":"Winston","lat":33.08849,"lng":-89.03443},{"id":129571,"name":"Woodville","lat":31.10462,"lng":-91.29956},{"id":129656,"name":"Yalobusha","lat":34.02821,"lng":-89.70763},{"id":129674,"name":"Yazoo","lat":32.78031,"lng":-90.39642},{"id":129673,"name":"Yazoo City","lat":32.85513,"lng":-90.40565}]