[{"id":110986,"name":"Abington","lat":42.10482,"lng":-70.94532},{"id":110999,"name":"Acton","lat":42.48509,"lng":-71.43284},{"id":111002,"name":"Acushnet","lat":41.68066,"lng":-70.90782},{"id":111003,"name":"Acushnet Center","lat":41.68508,"lng":-70.90642},{"id":111013,"name":"Adams","lat":42.62425,"lng":-73.1176},{"id":111055,"name":"Agawam","lat":42.06954,"lng":-72.61481},{"id":111279,"name":"Amesbury","lat":42.85842,"lng":-70.93005},{"id":111282,"name":"Amherst","lat":42.36723,"lng":-72.51852},{"id":111285,"name":"Amherst Center","lat":42.37537,"lng":-72.51925},{"id":111323,"name":"Andover","lat":42.65843,"lng":-71.137},{"id":111465,"name":"Arlington","lat":42.41537,"lng":-71.15644},{"id":111516,"name":"Ashburnham","lat":42.6362,"lng":-71.90785},{"id":111517,"name":"Ashby","lat":42.67787,"lng":-71.82035},{"id":111523,"name":"Ashfield","lat":42.52647,"lng":-72.78843},{"id":111534,"name":"Ashland","lat":42.26121,"lng":-71.4634},{"id":111556,"name":"Assonet","lat":41.79594,"lng":-71.06782},{"id":111583,"name":"Athol","lat":42.59592,"lng":-72.22675},{"id":111611,"name":"Attleboro","lat":41.94454,"lng":-71.28561},{"id":111624,"name":"Auburn","lat":42.19454,"lng":-71.83563},{"id":111691,"name":"Avon","lat":42.13066,"lng":-71.04116},{"id":111708,"name":"Ayer","lat":42.5612,"lng":-71.58979},{"id":111765,"name":"Baldwinville","lat":42.60842,"lng":-72.07591},{"id":111834,"name":"Barnstable","lat":41.70011,"lng":-70.29947},{"id":111835,"name":"Barnstable County","lat":41.68419,"lng":-70.27405},{"id":111841,"name":"Barre","lat":42.42287,"lng":-72.10508},{"id":112014,"name":"Becket","lat":42.33203,"lng":-73.08288},{"id":112023,"name":"Bedford","lat":42.49065,"lng":-71.27617},{"id":112051,"name":"Belchertown","lat":42.27704,"lng":-72.40092},{"id":112119,"name":"Bellingham","lat":42.08676,"lng":-71.47451},{"id":112138,"name":"Belmont","lat":42.39593,"lng":-71.17867},{"id":112229,"name":"Berkley","lat":41.84593,"lng":-71.08282},{"id":112233,"name":"Berkshire","lat":42.37067,"lng":-73.2064},{"id":112237,"name":"Berlin","lat":42.3812,"lng":-71.63701},{"id":112244,"name":"Bernardston","lat":42.67092,"lng":-72.54953},{"id":112300,"name":"Beverly","lat":42.55843,"lng":-70.88005},{"id":112302,"name":"Beverly Cove","lat":42.55343,"lng":-70.85366},{"id":112342,"name":"Billerica","lat":42.55843,"lng":-71.26895},{"id":112393,"name":"Blackstone","lat":42.01788,"lng":-71.54117},{"id":112430,"name":"Bliss Corner","lat":41.61177,"lng":-70.93837},{"id":112525,"name":"Bolton","lat":42.43343,"lng":-71.60784},{"id":112532,"name":"Bondsville","lat":42.21259,"lng":-72.34536},{"id":112589,"name":"Boston","lat":42.35843,"lng":-71.05977},{"id":112617,"name":"Bourne","lat":41.74122,"lng":-70.59892},{"id":112638,"name":"Boxborough","lat":42.49084,"lng":-71.52851},{"id":112639,"name":"Boxford","lat":42.6612,"lng":-70.99672},{"id":112650,"name":"Boylston","lat":42.39176,"lng":-71.70368},{"id":112682,"name":"Braintree","lat":42.20384,"lng":-71.00215},{"id":112741,"name":"Brewster","lat":41.76011,"lng":-70.0828},{"id":112775,"name":"Bridgewater","lat":41.99038,"lng":-70.97504},{"id":112797,"name":"Brimfield","lat":42.12287,"lng":-72.20091},{"id":112814,"name":"Bristol County","lat":41.75709,"lng":-71.08852},{"id":112834,"name":"Brockton","lat":42.08343,"lng":-71.01838},{"id":112867,"name":"Brookline","lat":42.33176,"lng":-71.12116},{"id":112987,"name":"Buckland","lat":42.59231,"lng":-72.79176},{"id":113070,"name":"Burlington","lat":42.50482,"lng":-71.19561},{"id":113133,"name":"Buzzards Bay","lat":41.74538,"lng":-70.61809},{"id":113252,"name":"Cambridge","lat":42.3751,"lng":-71.10561},{"id":113344,"name":"Canton","lat":42.15843,"lng":-71.14477},{"id":113404,"name":"Carlisle","lat":42.52926,"lng":-71.3495},{"id":113500,"name":"Carver","lat":41.88344,"lng":-70.76254},{"id":113659,"name":"Centerville","lat":41.64872,"lng":-70.34808},{"id":113752,"name":"Charlemont","lat":42.62786,"lng":-72.86982},{"id":113788,"name":"Charlton","lat":42.13565,"lng":-71.97007},{"id":113798,"name":"Chatham","lat":41.68206,"lng":-69.95974},{"id":113828,"name":"Chelmsford","lat":42.59981,"lng":-71.36728},{"id":113831,"name":"Chelsea","lat":42.39176,"lng":-71.03283},{"id":113904,"name":"Chesterfield","lat":42.39175,"lng":-72.83982},{"id":113945,"name":"Chicopee","lat":42.1487,"lng":-72.60787},{"id":114280,"name":"Clinton","lat":42.41676,"lng":-71.68285},{"id":114350,"name":"Cochituate","lat":42.32093,"lng":-71.36423},{"id":114372,"name":"Cohasset","lat":42.24177,"lng":-70.80365},{"id":114461,"name":"Colrain","lat":42.67314,"lng":-72.69676},{"id":114538,"name":"Concord","lat":42.46037,"lng":-71.34895},{"id":114584,"name":"Conway","lat":42.50981,"lng":-72.69953},{"id":114634,"name":"Cordaville","lat":42.26898,"lng":-71.52395},{"id":114707,"name":"Cotuit","lat":41.61678,"lng":-70.43697},{"id":115002,"name":"Dalton","lat":42.4737,"lng":-73.16621},{"id":115029,"name":"Danvers","lat":42.57509,"lng":-70.93005},{"id":149310,"name":"Dartmouth","lat":41.5941918,"lng":-71.1104352},{"id":115167,"name":"Dedham","lat":42.24177,"lng":-71.16616},{"id":115242,"name":"Dennis","lat":41.73539,"lng":-70.19391},{"id":115243,"name":"Dennis Port","lat":41.65845,"lng":-70.12863},{"id":115296,"name":"Devens","lat":42.5447,"lng":-71.61318},{"id":115335,"name":"Dighton","lat":41.81399,"lng":-71.12032},{"id":115421,"name":"Douglas","lat":42.05426,"lng":-71.73951},{"id":115448,"name":"Dover","lat":42.24593,"lng":-71.28283},{"id":115466,"name":"Dracut","lat":42.67037,"lng":-71.30201},{"id":115505,"name":"Dudley","lat":42.0451,"lng":-71.93007},{"id":115508,"name":"Dukes","lat":41.38877,"lng":-70.69877},{"id":115554,"name":"Dunstable","lat":42.67509,"lng":-71.48284},{"id":115583,"name":"Duxbury","lat":42.04177,"lng":-70.67226},{"id":115637,"name":"East Bridgewater","lat":42.03343,"lng":-70.95921},{"id":115639,"name":"East Brookfield","lat":42.22787,"lng":-72.04674},{"id":115649,"name":"East Dennis","lat":41.74261,"lng":-70.16196},{"id":115650,"name":"East Douglas","lat":42.07232,"lng":-71.7134},{"id":115657,"name":"East Falmouth","lat":41.57844,"lng":-70.55864},{"id":115685,"name":"East Harwich","lat":41.70011,"lng":-70.02724},{"id":115705,"name":"East Longmeadow","lat":42.06454,"lng":-72.51259},{"id":115733,"name":"East Pepperell","lat":42.66537,"lng":-71.57312},{"id":115756,"name":"East Sandwich","lat":41.74177,"lng":-70.45169},{"id":115778,"name":"Eastham","lat":41.83011,"lng":-69.97391},{"id":115779,"name":"Easthampton","lat":42.26676,"lng":-72.66898},{"id":115787,"name":"Easton","lat":42.02454,"lng":-71.12866},{"id":115838,"name":"Edgartown","lat":41.38901,"lng":-70.51336},{"id":116174,"name":"Erving","lat":42.60009,"lng":-72.39814},{"id":116192,"name":"Essex","lat":42.63204,"lng":-70.78283},{"id":116194,"name":"Essex County","lat":42.63887,"lng":-70.86792},{"id":116258,"name":"Everett","lat":42.40843,"lng":-71.05366},{"id":116325,"name":"Fairhaven","lat":41.6376,"lng":-70.90365},{"id":116373,"name":"Fall River","lat":41.70149,"lng":-71.15505},{"id":116388,"name":"Falmouth","lat":41.5515,"lng":-70.61475},{"id":116533,"name":"Fiskdale","lat":42.11621,"lng":-72.11341},{"id":116534,"name":"Fitchburg","lat":42.58342,"lng":-71.8023},{"id":116670,"name":"Forestdale","lat":41.69177,"lng":-70.49947},{"id":116809,"name":"Foxborough","lat":42.06538,"lng":-71.24783},{"id":116811,"name":"Framingham","lat":42.27926,"lng":-71.41617},{"id":116812,"name":"Framingham Center","lat":42.29732,"lng":-71.43701},{"id":116834,"name":"Franklin","lat":42.08343,"lng":-71.39673},{"id":116858,"name":"Franklin County","lat":42.58312,"lng":-72.59187},{"id":116918,"name":"Freetown","lat":41.76677,"lng":-71.03282},{"id":117075,"name":"Gardner","lat":42.57509,"lng":-71.99813},{"id":117213,"name":"Gill","lat":42.64036,"lng":-72.49953},{"id":117322,"name":"Gloucester","lat":42.61405,"lng":-70.66313},{"id":117429,"name":"Grafton","lat":42.20704,"lng":-71.68562},{"id":117447,"name":"Granby","lat":42.25648,"lng":-72.5162},{"id":117534,"name":"Granville","lat":42.06676,"lng":-72.86149},{"id":117569,"name":"Great Barrington","lat":42.19592,"lng":-73.36206},{"id":117596,"name":"Green Harbor-Cedar Crest","lat":42.07495,"lng":-70.65843},{"id":117650,"name":"Greenfield","lat":42.58759,"lng":-72.59953},{"id":117752,"name":"Groton","lat":42.6112,"lng":-71.57451},{"id":117759,"name":"Groveland","lat":42.76037,"lng":-71.03145},{"id":117833,"name":"Hadley","lat":42.34176,"lng":-72.58842},{"id":117861,"name":"Halifax","lat":41.99121,"lng":-70.86199},{"id":117906,"name":"Hamilton Worcester","lat":42.2562,"lng":-71.76757},{"id":117916,"name":"Hampden","lat":42.06398,"lng":-72.41342},{"id":117918,"name":"Hampden County","lat":42.13511,"lng":-72.63162},{"id":117922,"name":"Hampshire","lat":42.34014,"lng":-72.66377},{"id":117970,"name":"Hanover","lat":42.11316,"lng":-70.81199},{"id":117978,"name":"Hanson","lat":42.0751,"lng":-70.88004},{"id":118008,"name":"Hardwick","lat":42.35009,"lng":-72.19952},{"id":118109,"name":"Harvard","lat":42.50009,"lng":-71.58284},{"id":118117,"name":"Harwich","lat":41.68622,"lng":-70.07585},{"id":118118,"name":"Harwich Center","lat":41.69235,"lng":-70.06938},{"id":118119,"name":"Harwich Port","lat":41.66678,"lng":-70.07863},{"id":118138,"name":"Hatfield","lat":42.37092,"lng":-72.59814},{"id":118150,"name":"Haverhill","lat":42.7762,"lng":-71.07728},{"id":118214,"name":"Head of Westport","lat":41.62094,"lng":-71.06199},{"id":118483,"name":"Hingham","lat":42.24177,"lng":-70.88977},{"id":118484,"name":"Hinsdale","lat":42.4387,"lng":-73.12538},{"id":118517,"name":"Holbrook","lat":42.1551,"lng":-71.00866},{"id":118523,"name":"Holden","lat":42.35176,"lng":-71.86341},{"id":118538,"name":"Holland","lat":42.06398,"lng":-72.1573},{"id":118553,"name":"Holliston","lat":42.2001,"lng":-71.4245},{"id":118583,"name":"Holyoke","lat":42.20426,"lng":-72.6162},{"id":118647,"name":"Hopedale","lat":42.13065,"lng":-71.54117},{"id":118656,"name":"Hopkinton","lat":42.22871,"lng":-71.52256},{"id":118695,"name":"Housatonic","lat":42.25425,"lng":-73.36622},{"id":118734,"name":"Hubbardston","lat":42.4737,"lng":-72.00619},{"id":118740,"name":"Hudson","lat":42.39176,"lng":-71.56618},{"id":118772,"name":"Hull","lat":42.30204,"lng":-70.90782},{"id":118842,"name":"Hyannis","lat":41.65289,"lng":-70.2828},{"id":118982,"name":"Ipswich","lat":42.67926,"lng":-70.84116},{"id":119114,"name":"Jamaica Plain","lat":42.30982,"lng":-71.12033},{"id":119623,"name":"Kingston","lat":41.99455,"lng":-70.72448},{"id":120083,"name":"Lancaster","lat":42.45565,"lng":-71.67312},{"id":120107,"name":"Lanesborough","lat":42.51731,"lng":-73.22816},{"id":120227,"name":"Lawrence","lat":42.70704,"lng":-71.16311},{"id":120303,"name":"Lee","lat":42.30425,"lng":-73.24816},{"id":120337,"name":"Leicester","lat":42.24593,"lng":-71.90868},{"id":120376,"name":"Lenox","lat":42.35648,"lng":-73.28483},{"id":120382,"name":"Leominster","lat":42.52509,"lng":-71.75979},{"id":120406,"name":"Leverett","lat":42.45203,"lng":-72.50148},{"id":120448,"name":"Lexington","lat":42.44732,"lng":-71.2245},{"id":120504,"name":"Lincoln","lat":42.42593,"lng":-71.30395},{"id":120637,"name":"Littleton Common","lat":42.54593,"lng":-71.47451},{"id":120753,"name":"Longmeadow","lat":42.0501,"lng":-72.58287},{"id":120836,"name":"Lowell","lat":42.63342,"lng":-71.31617},{"id":120870,"name":"Ludlow","lat":42.16009,"lng":-72.47592},{"id":120887,"name":"Lunenburg","lat":42.59453,"lng":-71.72452},{"id":120927,"name":"Lynn","lat":42.46676,"lng":-70.94949},{"id":120930,"name":"Lynnfield","lat":42.53898,"lng":-71.04811},{"id":121060,"name":"Malden","lat":42.4251,"lng":-71.06616},{"id":121104,"name":"Manchester-by-the-Sea","lat":42.57787,"lng":-70.76894},{"id":121146,"name":"Mansfield","lat":42.03343,"lng":-71.21894},{"id":121148,"name":"Mansfield Center","lat":42.02262,"lng":-71.21808},{"id":121189,"name":"Marblehead","lat":42.5001,"lng":-70.85783},{"id":121242,"name":"Marion","lat":41.7001,"lng":-70.76281},{"id":121246,"name":"Marion Center","lat":41.70424,"lng":-70.76286},{"id":121280,"name":"Marlborough","lat":42.34593,"lng":-71.55229},{"id":121326,"name":"Marshfield","lat":42.09177,"lng":-70.70559},{"id":121328,"name":"Marshfield Hills","lat":42.14594,"lng":-70.73976},{"id":121331,"name":"Marstons Mills","lat":41.65622,"lng":-70.41614},{"id":121370,"name":"Mashpee","lat":41.64844,"lng":-70.48114},{"id":121407,"name":"Mattapoisett","lat":41.65844,"lng":-70.81615},{"id":121408,"name":"Mattapoisett Center","lat":41.66595,"lng":-70.8072},{"id":121440,"name":"Maynard","lat":42.43343,"lng":-71.44951},{"id":121590,"name":"Medfield","lat":42.1876,"lng":-71.30645},{"id":121592,"name":"Medford","lat":42.41843,"lng":-71.10616},{"id":121610,"name":"Medway","lat":42.14176,"lng":-71.39673},{"id":121628,"name":"Melrose","lat":42.45843,"lng":-71.06616},{"id":121653,"name":"Mendon","lat":42.10565,"lng":-71.55229},{"id":121710,"name":"Merrimac","lat":42.83065,"lng":-71.00228},{"id":121734,"name":"Methuen","lat":42.7262,"lng":-71.19089},{"id":121765,"name":"Middleborough","lat":41.89316,"lng":-70.91115},{"id":121766,"name":"Middleborough Center","lat":41.8946,"lng":-70.92618},{"id":121780,"name":"Middlesex County","lat":42.48555,"lng":-71.39184},{"id":121782,"name":"Middleton","lat":42.59509,"lng":-71.01616},{"id":121850,"name":"Milford","lat":42.13982,"lng":-71.51617},{"id":121874,"name":"Millbury","lat":42.19398,"lng":-71.76007},{"id":121885,"name":"Millers Falls","lat":42.58203,"lng":-72.49259},{"id":121894,"name":"Millis","lat":42.1676,"lng":-71.35784},{"id":121895,"name":"Millis-Clicquot","lat":42.1648,"lng":-71.35442},{"id":121905,"name":"Millville","lat":42.02788,"lng":-71.5809},{"id":121915,"name":"Milton","lat":42.24954,"lng":-71.06616},{"id":122090,"name":"Monson","lat":42.10426,"lng":-72.31897},{"id":122091,"name":"Monson Center","lat":42.09898,"lng":-72.30481},{"id":122096,"name":"Montague","lat":42.53564,"lng":-72.53509},{"id":122192,"name":"Monument Beach","lat":41.71955,"lng":-70.61198},{"id":122535,"name":"Nahant","lat":42.42649,"lng":-70.91894},{"id":122542,"name":"Nantucket","lat":41.28346,"lng":-70.09946},{"id":122543,"name":"Nantucket County","lat":41.26955,"lng":-70.02171},{"id":122590,"name":"Natick","lat":42.28343,"lng":-71.3495},{"id":122613,"name":"Needham","lat":42.28343,"lng":-71.23283},{"id":122662,"name":"New Bedford","lat":41.63526,"lng":-70.92701},{"id":122752,"name":"New Marlborough","lat":42.12287,"lng":-73.22872},{"id":122819,"name":"Newburyport","lat":42.81259,"lng":-70.87728},{"id":122865,"name":"Newton","lat":42.33704,"lng":-71.20922},{"id":122942,"name":"Norfolk","lat":42.11954,"lng":-71.32506},{"id":122945,"name":"Norfolk County","lat":42.17097,"lng":-71.18381},{"id":122958,"name":"North Adams","lat":42.70092,"lng":-73.10871},{"id":122960,"name":"North Amherst","lat":42.41037,"lng":-72.53092},{"id":122962,"name":"North Andover","lat":42.6987,"lng":-71.13506},{"id":122967,"name":"North Attleborough Center","lat":41.97263,"lng":-71.32474},{"id":122996,"name":"North Brookfield","lat":42.26676,"lng":-72.08285},{"id":123007,"name":"North Chicopee","lat":42.18343,"lng":-72.59953},{"id":123019,"name":"North Eastham","lat":41.86511,"lng":-69.99113},{"id":123025,"name":"North Falmouth","lat":41.64594,"lng":-70.61836},{"id":123051,"name":"North Lakeville","lat":41.8576,"lng":-70.94226},{"id":123078,"name":"North Pembroke","lat":42.09316,"lng":-70.79254},{"id":123083,"name":"North Plymouth","lat":41.97094,"lng":-70.68281},{"id":123091,"name":"North Reading","lat":42.57509,"lng":-71.07867},{"id":123101,"name":"North Scituate","lat":42.21899,"lng":-70.7856},{"id":123104,"name":"North Seekonk","lat":41.88927,"lng":-71.33005},{"id":123128,"name":"North Westport","lat":41.66038,"lng":-71.08838},{"id":123134,"name":"Northampton","lat":42.32509,"lng":-72.6412},{"id":123139,"name":"Northborough","lat":42.31954,"lng":-71.64118},{"id":123140,"name":"Northbridge","lat":42.15148,"lng":-71.64951},{"id":123150,"name":"Northfield","lat":42.69592,"lng":-72.45287},{"id":123176,"name":"Northwest Harwich","lat":41.69029,"lng":-70.1025},{"id":123184,"name":"Norton","lat":41.96677,"lng":-71.18699},{"id":123185,"name":"Norton Center","lat":41.97254,"lng":-71.18535},{"id":123194,"name":"Norwell","lat":42.16177,"lng":-70.79393},{"id":123199,"name":"Norwood","lat":42.19454,"lng":-71.1995},{"id":123229,"name":"Oak Bluffs","lat":41.45428,"lng":-70.56197},{"id":123278,"name":"Oakham","lat":42.35287,"lng":-72.04535},{"id":123324,"name":"Ocean Bluff-Brant Rock","lat":42.10234,"lng":-70.65736},{"id":123330,"name":"Ocean Grove","lat":41.72927,"lng":-71.20921},{"id":123483,"name":"Onset","lat":41.74177,"lng":-70.65781},{"id":123508,"name":"Orange","lat":42.59036,"lng":-72.30981},{"id":123564,"name":"Orleans","lat":41.78983,"lng":-69.98974},{"id":123620,"name":"Osterville","lat":41.62844,"lng":-70.38697},{"id":123628,"name":"Otis","lat":42.19315,"lng":-73.09177},{"id":123683,"name":"Oxford","lat":42.11676,"lng":-71.86479},{"id":123759,"name":"Palmer","lat":42.15843,"lng":-72.32869},{"id":123942,"name":"Paxton","lat":42.3112,"lng":-71.92813},{"id":123954,"name":"Peabody","lat":42.52787,"lng":-70.92866},{"id":123990,"name":"Pelham","lat":42.39315,"lng":-72.4037},{"id":124054,"name":"Pepperell","lat":42.66592,"lng":-71.5884},{"id":124141,"name":"Phillipston","lat":42.5487,"lng":-72.13286},{"id":124252,"name":"Pinehurst","lat":42.52926,"lng":-71.22811},{"id":124298,"name":"Pittsfield","lat":42.45008,"lng":-73.24538},{"id":124335,"name":"Plainville","lat":42.00427,"lng":-71.33283},{"id":124402,"name":"Plymouth","lat":41.95844,"lng":-70.66726},{"id":124410,"name":"Plymouth County","lat":41.98743,"lng":-70.73707},{"id":124412,"name":"Plympton","lat":41.95288,"lng":-70.81448},{"id":124417,"name":"Pocasset","lat":41.68622,"lng":-70.61614},{"id":124687,"name":"Princeton","lat":42.4487,"lng":-71.8773},{"id":124720,"name":"Provincetown","lat":42.05295,"lng":-70.1864},{"id":124797,"name":"Quincy","lat":42.25288,"lng":-71.00227},{"id":124865,"name":"Randolph","lat":42.1626,"lng":-71.04116},{"id":124924,"name":"Raynham","lat":41.94871,"lng":-71.0731},{"id":124925,"name":"Raynham Center","lat":41.92371,"lng":-71.05227},{"id":124929,"name":"Reading","lat":42.52565,"lng":-71.09533},{"id":125004,"name":"Rehoboth","lat":41.84038,"lng":-71.24949},{"id":125037,"name":"Revere","lat":42.40843,"lng":-71.01199},{"id":125090,"name":"Richmond","lat":42.37314,"lng":-73.36761},{"id":125262,"name":"Rochester","lat":41.73177,"lng":-70.82004},{"id":125309,"name":"Rockland","lat":42.13066,"lng":-70.91616},{"id":125317,"name":"Rockport","lat":42.65565,"lng":-70.62032},{"id":125482,"name":"Rowley","lat":42.71676,"lng":-70.87866},{"id":125494,"name":"Royalston","lat":42.67759,"lng":-72.18786},{"id":125555,"name":"Rutland","lat":42.36954,"lng":-71.94813},{"id":125586,"name":"Sagamore","lat":41.77011,"lng":-70.52836},{"id":125735,"name":"Salem","lat":42.51954,"lng":-70.89672},{"id":125757,"name":"Salisbury","lat":42.84176,"lng":-70.86061},{"id":125877,"name":"Sandwich","lat":41.759,"lng":-70.49392},{"id":125961,"name":"Saugus","lat":42.46482,"lng":-71.01005},{"id":126030,"name":"Scituate","lat":42.19593,"lng":-70.72587},{"id":126123,"name":"Seekonk","lat":41.80843,"lng":-71.337},{"id":126228,"name":"Sharon","lat":42.12371,"lng":-71.17866},{"id":126262,"name":"Sheffield","lat":42.11037,"lng":-73.35511},{"id":126265,"name":"Shelburne","lat":42.58981,"lng":-72.68842},{"id":126266,"name":"Shelburne Falls","lat":42.60425,"lng":-72.73926},{"id":126313,"name":"Sherborn","lat":42.23899,"lng":-71.36978},{"id":126360,"name":"Shirley","lat":42.5437,"lng":-71.64951},{"id":126385,"name":"Shrewsbury","lat":42.29593,"lng":-71.71285},{"id":126389,"name":"Shutesbury","lat":42.45648,"lng":-72.40981},{"id":126516,"name":"Smith Mills","lat":41.63899,"lng":-70.99115},{"id":126582,"name":"Somerset","lat":41.76955,"lng":-71.12866},{"id":126595,"name":"Somerville","lat":42.3876,"lng":-71.0995},{"id":126613,"name":"South Amherst","lat":42.34037,"lng":-72.50509},{"id":126615,"name":"South Ashburnham","lat":42.61037,"lng":-71.93897},{"id":126629,"name":"South Boston","lat":42.33343,"lng":-71.04949},{"id":126646,"name":"South Deerfield","lat":42.47731,"lng":-72.60787},{"id":126647,"name":"South Dennis","lat":41.68956,"lng":-70.15641},{"id":126649,"name":"South Duxbury","lat":42.02316,"lng":-70.68281},{"id":126665,"name":"South Hadley","lat":42.25842,"lng":-72.57453},{"id":126685,"name":"South Lancaster","lat":42.44454,"lng":-71.68701},{"id":126708,"name":"South Peabody","lat":42.50982,"lng":-70.94949},{"id":126755,"name":"South Yarmouth","lat":41.66678,"lng":-70.18474},{"id":126757,"name":"Southampton","lat":42.22926,"lng":-72.73009},{"id":126761,"name":"Southborough","lat":42.30565,"lng":-71.52451},{"id":126762,"name":"Southbridge","lat":42.0751,"lng":-72.03341},{"id":126791,"name":"Southwick","lat":42.05482,"lng":-72.77037},{"id":126826,"name":"Spencer","lat":42.24398,"lng":-71.9923},{"id":126897,"name":"Springfield","lat":42.10148,"lng":-72.58981},{"id":127028,"name":"Sterling","lat":42.43759,"lng":-71.76063},{"id":127068,"name":"Stockbridge","lat":42.28759,"lng":-73.32039},{"id":127089,"name":"Stoneham","lat":42.4801,"lng":-71.0995},{"id":127109,"name":"Stoughton","lat":42.1251,"lng":-71.10227},{"id":127112,"name":"Stow","lat":42.43704,"lng":-71.50562},{"id":127147,"name":"Sturbridge","lat":42.10843,"lng":-72.07869},{"id":127161,"name":"Sudbury","lat":42.38343,"lng":-71.41617},{"id":127167,"name":"Suffolk","lat":42.3555,"lng":-71.06575},{"id":127249,"name":"Sunderland","lat":42.24454,"lng":-71.77174},{"id":127312,"name":"Sutton","lat":42.1501,"lng":-71.76285},{"id":127321,"name":"Swampscott","lat":42.47093,"lng":-70.91755},{"id":127326,"name":"Swansea","lat":41.74816,"lng":-71.18977},{"id":127441,"name":"Taunton","lat":41.9001,"lng":-71.08977},{"id":127476,"name":"Teaticket","lat":41.56455,"lng":-70.59586},{"id":127504,"name":"Templeton","lat":42.55564,"lng":-72.06758},{"id":127542,"name":"Tewksbury","lat":42.61065,"lng":-71.23422},{"id":127619,"name":"Three Rivers","lat":42.1812,"lng":-72.36064},{"id":127735,"name":"Topsfield","lat":42.63759,"lng":-70.9495},{"id":127765,"name":"Townsend","lat":42.66676,"lng":-71.70507},{"id":127859,"name":"Truro","lat":41.99344,"lng":-70.04975},{"id":127905,"name":"Turners Falls","lat":42.60425,"lng":-72.55648},{"id":127947,"name":"Tyngsboro","lat":42.67676,"lng":-71.42451},{"id":128055,"name":"Upton","lat":42.17454,"lng":-71.60229},{"id":128071,"name":"Uxbridge","lat":42.07732,"lng":-71.62951},{"id":128274,"name":"Vineyard Haven","lat":41.45428,"lng":-70.60364},{"id":128359,"name":"Wakefield","lat":42.50648,"lng":-71.07283},{"id":128379,"name":"Wales","lat":42.06954,"lng":-72.2223},{"id":128425,"name":"Walpole","lat":42.14177,"lng":-71.2495},{"id":128432,"name":"Waltham","lat":42.37649,"lng":-71.23561},{"id":128462,"name":"Ware","lat":42.25981,"lng":-72.2398},{"id":128465,"name":"Wareham Center","lat":41.76677,"lng":-70.72615},{"id":128478,"name":"Warren","lat":42.21259,"lng":-72.19119},{"id":128621,"name":"Watertown","lat":42.37093,"lng":-71.18283},{"id":128678,"name":"Wayland","lat":42.3626,"lng":-71.36145},{"id":128731,"name":"Webster","lat":42.0501,"lng":-71.88007},{"id":128773,"name":"Wellesley","lat":42.29649,"lng":-71.29256},{"id":128774,"name":"Wellfleet","lat":41.93761,"lng":-70.0328},{"id":128799,"name":"Wendell","lat":42.54814,"lng":-72.39675},{"id":128802,"name":"Wenham","lat":42.60426,"lng":-70.89116},{"id":128821,"name":"West Barnstable","lat":41.70566,"lng":-70.37447},{"id":128830,"name":"West Boylston","lat":42.36676,"lng":-71.78563},{"id":128835,"name":"West Bridgewater","lat":42.01899,"lng":-71.00782},{"id":128836,"name":"West Brookfield","lat":42.23537,"lng":-72.14119},{"id":128844,"name":"West Chatham","lat":41.68122,"lng":-69.99113},{"id":128850,"name":"West Concord","lat":42.45843,"lng":-71.39534},{"id":128856,"name":"West Dennis","lat":41.66456,"lng":-70.1728},{"id":128868,"name":"West Falmouth","lat":41.60427,"lng":-70.63447},{"id":128939,"name":"West Newbury","lat":42.80148,"lng":-70.98978},{"id":128985,"name":"West Springfield","lat":42.10704,"lng":-72.62037},{"id":128986,"name":"West Stockbridge","lat":42.34592,"lng":-73.36622},{"id":128990,"name":"West Tisbury","lat":41.38122,"lng":-70.67447},{"id":129000,"name":"West Wareham","lat":41.78983,"lng":-70.76031},{"id":129008,"name":"West Yarmouth","lat":41.65011,"lng":-70.24113},{"id":129012,"name":"Westborough","lat":42.26954,"lng":-71.61618},{"id":129028,"name":"Westfield","lat":42.12509,"lng":-72.74954},{"id":129033,"name":"Westford","lat":42.57926,"lng":-71.43784},{"id":129034,"name":"Westhampton","lat":42.30287,"lng":-72.77454},{"id":129046,"name":"Westminster","lat":42.54592,"lng":-71.91063},{"id":129061,"name":"Weston","lat":42.36676,"lng":-71.30311},{"id":129085,"name":"Westwood","lat":42.21399,"lng":-71.2245},{"id":129095,"name":"Weweantic","lat":41.73538,"lng":-70.73198},{"id":129100,"name":"Weymouth","lat":42.22093,"lng":-70.93977},{"id":129106,"name":"Whately","lat":42.43981,"lng":-72.63481},{"id":129144,"name":"White Island Shores","lat":41.8001,"lng":-70.63475},{"id":129198,"name":"Whitinsville","lat":42.11121,"lng":-71.66618},{"id":129203,"name":"Whitman","lat":42.08066,"lng":-70.9356},{"id":129226,"name":"Wilbraham","lat":42.12371,"lng":-72.43147},{"id":129269,"name":"Williamsburg","lat":42.39314,"lng":-72.73009},{"id":129288,"name":"Williamstown","lat":42.71202,"lng":-73.20372},{"id":129324,"name":"Wilmington","lat":42.54648,"lng":-71.17367},{"id":129351,"name":"Winchendon","lat":42.6862,"lng":-72.04397},{"id":129358,"name":"Winchester","lat":42.45232,"lng":-71.137},{"id":129450,"name":"Winthrop","lat":42.3751,"lng":-70.98283},{"id":129466,"name":"Woburn","lat":42.47926,"lng":-71.15228},{"id":129584,"name":"Worcester","lat":42.26259,"lng":-71.80229},{"id":129587,"name":"Worcester County","lat":42.3514,"lng":-71.90774},{"id":129604,"name":"Wrentham","lat":42.06677,"lng":-71.32811},{"id":129667,"name":"Yarmouth","lat":41.70567,"lng":-70.22863},{"id":129668,"name":"Yarmouth Port","lat":41.70205,"lng":-70.24947}]