[{"id":111362,"name":"Ansonia","lat":41.34621,"lng":-73.079},{"id":111781,"name":"Baltic","lat":41.61704,"lng":-72.08452},{"id":153920,"name":"Berlin","lat":41.622234,"lng":-72.773628},{"id":112280,"name":"Bethel","lat":41.37121,"lng":-73.41401},{"id":112292,"name":"Bethlehem Village","lat":41.6401,"lng":-73.20308},{"id":112468,"name":"Blue Hills","lat":41.81288,"lng":-72.69759},{"id":112693,"name":"Branford","lat":41.27954,"lng":-72.8151},{"id":112694,"name":"Branford Center","lat":41.27738,"lng":-72.81511},{"id":112766,"name":"Bridgeport","lat":41.17923,"lng":-73.18945},{"id":112809,"name":"Bristol","lat":41.67176,"lng":-72.94927},{"id":113140,"name":"Byram","lat":41.00426,"lng":-73.65374},{"id":113313,"name":"Canaan","lat":42.02731,"lng":-73.32928},{"id":113351,"name":"Canton Valley","lat":41.83426,"lng":-72.89177},{"id":113684,"name":"Central Waterford","lat":41.34504,"lng":-72.12948},{"id":113877,"name":"Cheshire","lat":41.49899,"lng":-72.90066},{"id":113894,"name":"Chester Center","lat":41.40132,"lng":-72.4527},{"id":114071,"name":"City of Milford (balance)","lat":41.22374,"lng":-73.06164},{"id":114285,"name":"Clinton","lat":41.27871,"lng":-72.52759},{"id":114383,"name":"Colchester","lat":41.57565,"lng":-72.33203},{"id":114439,"name":"Collinsville","lat":41.81288,"lng":-72.9201},{"id":114566,"name":"Conning Towers-Nautilus Park","lat":41.38548,"lng":-72.06877},{"id":114684,"name":"Cos Cob","lat":41.03343,"lng":-73.59957},{"id":114733,"name":"Coventry Lake","lat":41.77232,"lng":-72.33258},{"id":114835,"name":"Cromwell","lat":41.5951,"lng":-72.64537},{"id":114879,"name":"Crystal Lake","lat":41.93176,"lng":-72.37842},{"id":115015,"name":"Danbury","lat":41.39482,"lng":-73.45401},{"id":115025,"name":"Danielson","lat":41.8026,"lng":-71.88591},{"id":115046,"name":"Darien","lat":41.07871,"lng":-73.46929},{"id":115170,"name":"Deep River Center","lat":41.38221,"lng":-72.43862},{"id":115261,"name":"Derby","lat":41.32065,"lng":-73.089},{"id":115570,"name":"Durham","lat":41.48176,"lng":-72.68121},{"id":115640,"name":"East Brooklyn","lat":41.79677,"lng":-71.89729},{"id":115677,"name":"East Haddam","lat":41.45315,"lng":-72.4612},{"id":115678,"name":"East Hampton","lat":41.57593,"lng":-72.50259},{"id":115684,"name":"East Hartford","lat":41.78232,"lng":-72.61203},{"id":115686,"name":"East Haven","lat":41.27621,"lng":-72.86843},{"id":115723,"name":"East Norwalk","lat":41.10565,"lng":-73.39845},{"id":115774,"name":"East Windsor","lat":41.91232,"lng":-72.54509},{"id":115786,"name":"Easton","lat":41.25287,"lng":-73.29734},{"id":116026,"name":"Ellington","lat":41.90399,"lng":-72.46981},{"id":116125,"name":"Enfield","lat":41.97621,"lng":-72.59176},{"id":116200,"name":"Essex Village","lat":41.35544,"lng":-72.39101},{"id":116312,"name":"Fairfield","lat":41.14121,"lng":-73.26373},{"id":116320,"name":"Fairfield County","lat":41.22496,"lng":-73.3712},{"id":116415,"name":"Farmington","lat":41.71982,"lng":-72.83204},{"id":117026,"name":"Gales Ferry","lat":41.42982,"lng":-72.08202},{"id":117161,"name":"Georgetown","lat":41.25565,"lng":-73.43484},{"id":117255,"name":"Glastonbury","lat":41.71232,"lng":-72.60815},{"id":117256,"name":"Glastonbury Center","lat":41.70093,"lng":-72.59953},{"id":117311,"name":"Glenville","lat":41.03538,"lng":-73.65985},{"id":117698,"name":"Greenwich","lat":41.02649,"lng":-73.62846},{"id":117749,"name":"Groton","lat":41.3501,"lng":-72.07841},{"id":117784,"name":"Guilford","lat":41.28899,"lng":-72.68176},{"id":117786,"name":"Guilford Center","lat":41.28156,"lng":-72.67619},{"id":117886,"name":"Hamden","lat":41.39593,"lng":-72.89677},{"id":118087,"name":"Hartford","lat":41.76371,"lng":-72.68509},{"id":118095,"name":"Hartford County","lat":41.80642,"lng":-72.73284},{"id":118201,"name":"Hazardville","lat":41.98732,"lng":-72.54481},{"id":118234,"name":"Hebron","lat":41.65788,"lng":-72.36592},{"id":118322,"name":"Heritage Village","lat":41.48565,"lng":-73.23789},{"id":118383,"name":"Higganum","lat":41.49704,"lng":-72.55703},{"id":119245,"name":"Jewett City","lat":41.60677,"lng":-71.98091},{"id":119481,"name":"Kensington","lat":41.63538,"lng":-72.76871},{"id":119486,"name":"Kent","lat":41.72482,"lng":-73.47707},{"id":119561,"name":"Killingly Center","lat":41.83871,"lng":-71.86924},{"id":119965,"name":"Lake Pocotopaug","lat":41.59843,"lng":-72.51037},{"id":120302,"name":"Ledyard","lat":41.43982,"lng":-72.01424},{"id":120597,"name":"Lisbon","lat":41.60399,"lng":-72.01174},{"id":120604,"name":"Litchfield","lat":41.74732,"lng":-73.18872},{"id":120608,"name":"Litchfield County","lat":41.79249,"lng":-73.24532},{"id":120744,"name":"Long Hill","lat":41.35399,"lng":-72.0523},{"id":120992,"name":"Madison","lat":41.27954,"lng":-72.59843},{"id":121001,"name":"Madison Center","lat":41.27925,"lng":-72.60048},{"id":121094,"name":"Manchester","lat":41.77593,"lng":-72.52148},{"id":121149,"name":"Mansfield City","lat":41.76593,"lng":-72.23369},{"id":121689,"name":"Meriden","lat":41.53815,"lng":-72.80704},{"id":121771,"name":"Middlebury","lat":41.52787,"lng":-73.12761},{"id":121779,"name":"Middlesex County","lat":41.43538,"lng":-72.52312},{"id":121788,"name":"Middletown","lat":41.56232,"lng":-72.65065},{"id":121847,"name":"Milford","lat":41.22232,"lng":-73.0565},{"id":122189,"name":"Montville Center","lat":41.47899,"lng":-72.15119},{"id":122194,"name":"Moodus","lat":41.50288,"lng":-72.45009},{"id":122217,"name":"Moosup","lat":41.71288,"lng":-71.88091},{"id":122526,"name":"Mystic","lat":41.35427,"lng":-71.96646},{"id":122595,"name":"Naugatuck","lat":41.48593,"lng":-73.05066},{"id":122674,"name":"New Britain","lat":41.66121,"lng":-72.77954},{"id":122679,"name":"New Canaan","lat":41.14676,"lng":-73.49484},{"id":122705,"name":"New Fairfield","lat":41.46648,"lng":-73.48568},{"id":122713,"name":"New Hartford Center","lat":41.87996,"lng":-72.9753},{"id":122716,"name":"New Haven","lat":41.30815,"lng":-72.92816},{"id":122719,"name":"New Haven County","lat":41.34882,"lng":-72.89986},{"id":122741,"name":"New London","lat":41.35565,"lng":-72.09952},{"id":122746,"name":"New London County","lat":41.46678,"lng":-72.1065},{"id":122754,"name":"New Milford","lat":41.57704,"lng":-73.40845},{"id":122767,"name":"New Preston","lat":41.6751,"lng":-73.35179},{"id":122831,"name":"Newington","lat":41.69788,"lng":-72.72371},{"id":122875,"name":"Newtown","lat":41.41398,"lng":-73.30345},{"id":122883,"name":"Niantic","lat":41.32538,"lng":-72.19313},{"id":122915,"name":"Noank","lat":41.32788,"lng":-71.99063},{"id":122995,"name":"North Branford","lat":41.3276,"lng":-72.76732},{"id":123031,"name":"North Granby","lat":41.99593,"lng":-72.82954},{"id":123033,"name":"North Grosvenor Dale","lat":41.98565,"lng":-71.89868},{"id":123037,"name":"North Haven","lat":41.39093,"lng":-72.85954},{"id":123111,"name":"North Stamford","lat":41.13815,"lng":-73.54346},{"id":123177,"name":"Northwest Harwinton","lat":41.77685,"lng":-73.07922},{"id":123190,"name":"Norwalk","lat":41.1176,"lng":-73.4079},{"id":123195,"name":"Norwich","lat":41.52426,"lng":-72.07591},{"id":123307,"name":"Oakville","lat":41.59343,"lng":-73.08539},{"id":123420,"name":"Old Greenwich","lat":41.02287,"lng":-73.56485},{"id":123423,"name":"Old Mystic","lat":41.39149,"lng":-71.96174},{"id":123427,"name":"Old Saybrook","lat":41.29177,"lng":-72.3762},{"id":123428,"name":"Old Saybrook Center","lat":41.2915,"lng":-72.36528},{"id":123507,"name":"Orange","lat":41.27843,"lng":-73.02566},{"id":123681,"name":"Oxford","lat":41.43399,"lng":-73.11678},{"id":123690,"name":"Oxoboxo River","lat":41.44391,"lng":-72.12502},{"id":123929,"name":"Pawcatuck","lat":41.37732,"lng":-71.83368},{"id":124002,"name":"Pemberwick","lat":41.02565,"lng":-73.66068},{"id":124319,"name":"Plainfield","lat":41.67649,"lng":-71.91507},{"id":124334,"name":"Plainville","lat":41.67454,"lng":-72.85816},{"id":124400,"name":"Plymouth","lat":41.67204,"lng":-73.05289},{"id":124488,"name":"Poquonock Bridge","lat":41.3451,"lng":-72.0248},{"id":124559,"name":"Portland","lat":41.57288,"lng":-72.64065},{"id":124658,"name":"Preston City","lat":41.52899,"lng":-71.97396},{"id":124706,"name":"Prospect","lat":41.50232,"lng":-72.97872},{"id":124760,"name":"Putnam","lat":41.9151,"lng":-71.90896},{"id":124801,"name":"Quinebaug","lat":42.02371,"lng":-71.9498},{"id":125119,"name":"Ridgefield","lat":41.28148,"lng":-73.49818},{"id":125204,"name":"Riverside","lat":41.03371,"lng":-73.57818},{"id":125323,"name":"Rockville","lat":41.86676,"lng":-72.44953},{"id":125732,"name":"Salem","lat":41.49038,"lng":-72.27536},{"id":125764,"name":"Salmon Brook","lat":41.95649,"lng":-72.79537},{"id":125986,"name":"Saybrook Manor","lat":41.28538,"lng":-72.39897},{"id":126196,"name":"Seymour","lat":41.39676,"lng":-73.07594},{"id":126297,"name":"Shelton","lat":41.31649,"lng":-73.09316},{"id":126331,"name":"Sherman","lat":41.57926,"lng":-73.49568},{"id":126343,"name":"Sherwood Manor","lat":42.01343,"lng":-72.56425},{"id":126453,"name":"Simsbury Center","lat":41.88088,"lng":-72.81116},{"id":126575,"name":"Somers","lat":41.98537,"lng":-72.4462},{"id":126644,"name":"South Coventry","lat":41.7701,"lng":-72.30508},{"id":126751,"name":"South Windham","lat":41.67954,"lng":-72.17036},{"id":126753,"name":"South Windsor","lat":41.82371,"lng":-72.6212},{"id":126754,"name":"South Woodstock","lat":41.93899,"lng":-71.95952},{"id":126763,"name":"Southbury","lat":41.48148,"lng":-73.21317},{"id":126784,"name":"Southport","lat":41.13649,"lng":-73.28345},{"id":126792,"name":"Southwood Acres","lat":41.9626,"lng":-72.57148},{"id":126934,"name":"Stafford","lat":41.98482,"lng":-72.28897},{"id":126938,"name":"Stafford Springs","lat":41.95426,"lng":-72.3023},{"id":126944,"name":"Stamford","lat":41.05343,"lng":-73.53873},{"id":127105,"name":"Storrs","lat":41.80843,"lng":-72.24952},{"id":127124,"name":"Stratford","lat":41.18454,"lng":-73.13317},{"id":127165,"name":"Suffield Depot","lat":41.98121,"lng":-72.64981},{"id":127430,"name":"Tariffville","lat":41.90871,"lng":-72.7601},{"id":127519,"name":"Terramuggus","lat":41.6351,"lng":-72.47036},{"id":127535,"name":"Terryville","lat":41.67815,"lng":-73.01094},{"id":127584,"name":"Thomaston","lat":41.67399,"lng":-73.07316},{"id":127590,"name":"Thompson","lat":41.95871,"lng":-71.86257},{"id":127594,"name":"Thompsonville","lat":41.99704,"lng":-72.59898},{"id":127701,"name":"Tolland","lat":41.87149,"lng":-72.36869},{"id":127702,"name":"Tolland County","lat":41.85501,"lng":-72.33649},{"id":127744,"name":"Torrington","lat":41.80065,"lng":-73.12122},{"id":127858,"name":"Trumbull","lat":41.24287,"lng":-73.20067},{"id":127967,"name":"Uncasville","lat":41.43454,"lng":-72.1098},{"id":128406,"name":"Wallingford","lat":41.45704,"lng":-72.82316},{"id":128407,"name":"Wallingford Center","lat":41.44987,"lng":-72.81892},{"id":128545,"name":"Washington","lat":41.63148,"lng":-73.31067},{"id":128602,"name":"Waterbury","lat":41.55815,"lng":-73.0515},{"id":128610,"name":"Waterford","lat":41.3417,"lng":-72.13597},{"id":128620,"name":"Watertown","lat":41.60621,"lng":-73.11817},{"id":128658,"name":"Wauregan","lat":41.74427,"lng":-71.90924},{"id":128720,"name":"Weatogue","lat":41.84371,"lng":-72.82843},{"id":128885,"name":"West Hartford","lat":41.76204,"lng":-72.74204},{"id":128887,"name":"West Haven","lat":41.27065,"lng":-72.94705},{"id":128982,"name":"West Simsbury","lat":41.87315,"lng":-72.85815},{"id":128991,"name":"West Torrington","lat":41.81843,"lng":-73.14372},{"id":129014,"name":"Westbrook Center","lat":41.27997,"lng":-72.44254},{"id":129072,"name":"Westport","lat":41.14149,"lng":-73.3579},{"id":129090,"name":"Wethersfield","lat":41.71427,"lng":-72.65259},{"id":129293,"name":"Willimantic","lat":41.71065,"lng":-72.20813},{"id":129342,"name":"Wilton","lat":41.19537,"lng":-73.4379},{"id":129362,"name":"Winchester Center","lat":41.9001,"lng":-73.13483},{"id":129371,"name":"Windham","lat":41.69982,"lng":-72.15702},{"id":129373,"name":"Windham County","lat":41.83003,"lng":-71.98749},{"id":129382,"name":"Windsor","lat":41.8526,"lng":-72.6437},{"id":129390,"name":"Windsor Locks","lat":41.92926,"lng":-72.62731},{"id":129430,"name":"Winsted","lat":41.92121,"lng":-73.06011},{"id":129468,"name":"Wolcott","lat":41.60232,"lng":-72.98677},{"id":129499,"name":"Woodbridge","lat":41.3526,"lng":-73.00844},{"id":129508,"name":"Woodbury","lat":41.54454,"lng":-73.209},{"id":129511,"name":"Woodbury Center","lat":41.54453,"lng":-73.20476},{"id":129542,"name":"Woodmont","lat":41.22815,"lng":-72.99149}]