[{"id":110966,"name":"Abbeville","lat":29.97465,"lng":-92.13429},{"id":110987,"name":"Abita Springs","lat":30.47864,"lng":-90.04008},{"id":110991,"name":"Acadia","lat":30.29053,"lng":-92.41198},{"id":111033,"name":"Addis","lat":30.3538,"lng":-91.26539},{"id":111103,"name":"Albany","lat":30.50436,"lng":-90.58231},{"id":111150,"name":"Alexandria","lat":31.31129,"lng":-92.44514},{"id":111191,"name":"Allen","lat":30.65287,"lng":-92.82788},{"id":111260,"name":"Ama","lat":29.95215,"lng":-90.29647},{"id":111268,"name":"Amelia","lat":29.66632,"lng":-91.10204},{"id":111288,"name":"Amite","lat":30.72657,"lng":-90.50898},{"id":111408,"name":"Arabi","lat":29.95437,"lng":-90.00535},{"id":111421,"name":"Arcadia","lat":32.54904,"lng":-92.92016},{"id":111482,"name":"Arnaudville","lat":30.3977,"lng":-91.93151},{"id":111509,"name":"Ascension","lat":30.20354,"lng":-90.91129},{"id":111558,"name":"Assumption","lat":29.90077,"lng":-91.06259},{"id":111698,"name":"Avondale","lat":29.91298,"lng":-90.20369},{"id":111704,"name":"Avoyelles","lat":31.07624,"lng":-92.00138},{"id":111738,"name":"Baker","lat":30.58824,"lng":-91.16816},{"id":111754,"name":"Baldwin","lat":29.83798,"lng":-91.54428},{"id":111768,"name":"Ball","lat":31.41546,"lng":-92.4118},{"id":111799,"name":"Banks Springs","lat":32.0821,"lng":-92.09291},{"id":111811,"name":"Barataria","lat":29.72327,"lng":-90.12369},{"id":111877,"name":"Basile","lat":30.4852,"lng":-92.59597},{"id":111883,"name":"Bastrop","lat":32.77828,"lng":-91.91144},{"id":111903,"name":"Baton Rouge","lat":30.44332,"lng":-91.18747},{"id":111912,"name":"Bawcomville","lat":32.47042,"lng":-92.16736},{"id":111946,"name":"Bayou Cane","lat":29.6241,"lng":-90.7512},{"id":111947,"name":"Bayou Gauche","lat":29.78743,"lng":-90.41314},{"id":111949,"name":"Bayou Vista","lat":29.68965,"lng":-91.27094},{"id":111991,"name":"Beauregard","lat":30.64847,"lng":-93.34334},{"id":112080,"name":"Belle Chasse","lat":29.85493,"lng":-89.99063},{"id":112092,"name":"Belle Rose","lat":30.05048,"lng":-91.04149},{"id":112194,"name":"Benton","lat":32.69487,"lng":-93.74185},{"id":112247,"name":"Bernice","lat":32.82209,"lng":-92.65793},{"id":112261,"name":"Berwick","lat":29.69465,"lng":-91.21899},{"id":112313,"name":"Bienville","lat":32.34722,"lng":-93.05595},{"id":112416,"name":"Blanchard","lat":32.58098,"lng":-93.89268},{"id":112498,"name":"Bogalusa","lat":30.79102,"lng":-89.84869},{"id":112587,"name":"Bossier","lat":32.67899,"lng":-93.605},{"id":112586,"name":"Bossier City","lat":32.51599,"lng":-93.73212},{"id":112616,"name":"Bourg","lat":29.55355,"lng":-90.60231},{"id":112618,"name":"Boutte","lat":29.90243,"lng":-90.38814},{"id":112709,"name":"Breaux Bridge","lat":30.27353,"lng":-91.89928},{"id":112755,"name":"Bridge City","lat":29.93326,"lng":-90.17007},{"id":112903,"name":"Broussard","lat":30.14715,"lng":-91.96123},{"id":112925,"name":"Brownsfield","lat":30.54658,"lng":-91.12066},{"id":112930,"name":"Brownsville","lat":32.48709,"lng":-92.1543},{"id":112957,"name":"Brusly","lat":30.39436,"lng":-91.25372},{"id":113044,"name":"Bunkie","lat":30.95325,"lng":-92.18263},{"id":113162,"name":"Caddo Parish","lat":32.58017,"lng":-93.88235},{"id":113163,"name":"Cade","lat":30.08742,"lng":-91.9054},{"id":113177,"name":"Calcasieu","lat":30.22922,"lng":-93.35795},{"id":113187,"name":"Caldwell Parish","lat":32.09227,"lng":-92.11661},{"id":113274,"name":"Cameron","lat":29.79772,"lng":-93.32515},{"id":113279,"name":"Cameron Parish","lat":29.84687,"lng":-93.1989},{"id":113309,"name":"Campti","lat":31.8935,"lng":-93.11822},{"id":113393,"name":"Carencro","lat":30.31714,"lng":-92.04901},{"id":113415,"name":"Carlyss","lat":30.16882,"lng":-93.37599},{"id":113504,"name":"Carville","lat":30.21742,"lng":-91.09621},{"id":113561,"name":"Catahoula","lat":30.21464,"lng":-91.709},{"id":113562,"name":"Catahoula Parish","lat":31.66617,"lng":-91.84707},{"id":113600,"name":"Cecilia","lat":30.33714,"lng":-91.85317},{"id":113663,"name":"Central","lat":30.55435,"lng":-91.03677},{"id":113705,"name":"Chackbay","lat":29.88354,"lng":-90.79732},{"id":113716,"name":"Chalmette","lat":29.94296,"lng":-89.96537},{"id":113748,"name":"Charenton","lat":29.88159,"lng":-91.52511},{"id":113816,"name":"Chauvin","lat":29.43855,"lng":-90.59537},{"id":114009,"name":"Church Point","lat":30.40298,"lng":-92.21513},{"id":114092,"name":"Claiborne","lat":32.51598,"lng":-92.1918},{"id":114095,"name":"Claiborne Parish","lat":32.82269,"lng":-92.99573},{"id":114140,"name":"Clarks","lat":32.02655,"lng":-92.13903},{"id":114270,"name":"Clinton","lat":30.86574,"lng":-91.01566},{"id":114404,"name":"Colfax","lat":31.51906,"lng":-92.70682},{"id":114466,"name":"Columbia","lat":32.10516,"lng":-92.07791},{"id":114547,"name":"Concordia","lat":31.44584,"lng":-91.64006},{"id":114577,"name":"Convent","lat":30.02076,"lng":-90.82982},{"id":114698,"name":"Cottonport","lat":30.98408,"lng":-92.05346},{"id":114729,"name":"Coushatta","lat":32.01488,"lng":-93.34212},{"id":114737,"name":"Covington","lat":30.47549,"lng":-90.10042},{"id":114863,"name":"Crowley","lat":30.21409,"lng":-92.37458},{"id":114894,"name":"Cullen","lat":32.96903,"lng":-93.45073},{"id":114942,"name":"Cut Off","lat":29.54272,"lng":-90.33814},{"id":115120,"name":"De Soto","lat":32.05545,"lng":-93.73728},{"id":115209,"name":"Delcambre","lat":29.94826,"lng":-91.98873},{"id":115211,"name":"Delhi","lat":32.45764,"lng":-91.49317},{"id":115236,"name":"Denham Springs","lat":30.4874,"lng":-90.95753},{"id":115136,"name":"DeQuincy","lat":30.45048,"lng":-93.43322},{"id":115137,"name":"DeRidder","lat":30.84631,"lng":-93.28905},{"id":115269,"name":"Des Allemands","lat":29.82382,"lng":-90.47508},{"id":115290,"name":"Destrehan","lat":29.94322,"lng":-90.35345},{"id":115297,"name":"Deville","lat":31.3574,"lng":-92.16541},{"id":115394,"name":"Donaldsonville","lat":30.10114,"lng":-90.99412},{"id":115509,"name":"Dulac","lat":29.38883,"lng":-90.71398},{"id":115577,"name":"Duson","lat":30.23576,"lng":-92.1854},{"id":115630,"name":"East Baton Rouge","lat":30.53824,"lng":-91.09562},{"id":115643,"name":"East Carroll","lat":32.73255,"lng":-91.23507},{"id":115659,"name":"East Feliciana","lat":30.84507,"lng":-91.04554},{"id":115799,"name":"Eastwood","lat":32.55626,"lng":-93.56712},{"id":115831,"name":"Eden Isle","lat":30.22853,"lng":-89.79867},{"id":115837,"name":"Edgard","lat":30.04326,"lng":-90.56009},{"id":116060,"name":"Elmwood","lat":29.95659,"lng":-90.1898},{"id":116073,"name":"Elton","lat":30.48131,"lng":-92.6957},{"id":116160,"name":"Erath","lat":29.95826,"lng":-92.03596},{"id":116177,"name":"Erwinville","lat":30.53102,"lng":-91.40789},{"id":116205,"name":"Estelle","lat":29.84576,"lng":-90.10674},{"id":116229,"name":"Eunice","lat":30.49437,"lng":-92.41763},{"id":116244,"name":"Evangeline","lat":30.72894,"lng":-92.4059},{"id":116408,"name":"Farmerville","lat":32.77347,"lng":-92.4057},{"id":116493,"name":"Ferriday","lat":31.63017,"lng":-91.55456},{"id":116744,"name":"Fort Polk North","lat":31.10302,"lng":-93.17913},{"id":116745,"name":"Fort Polk South","lat":31.0511,"lng":-93.21578},{"id":116827,"name":"Franklin","lat":29.79604,"lng":-91.5015},{"id":116867,"name":"Franklin Parish","lat":32.13322,"lng":-91.67377},{"id":116873,"name":"Franklinton","lat":30.84731,"lng":-90.15527},{"id":116932,"name":"French Settlement","lat":30.29599,"lng":-90.7963},{"id":117037,"name":"Galliano","lat":29.44216,"lng":-90.29925},{"id":117072,"name":"Gardere","lat":30.34575,"lng":-91.14011},{"id":117107,"name":"Garyville","lat":30.05604,"lng":-90.61926},{"id":117294,"name":"Glenmora","lat":30.97658,"lng":-92.58514},{"id":117352,"name":"Golden Meadow","lat":29.37911,"lng":-90.26008},{"id":117370,"name":"Gonzales","lat":30.23853,"lng":-90.9201},{"id":117442,"name":"Grambling","lat":32.52765,"lng":-92.71404},{"id":117443,"name":"Gramercy","lat":30.04742,"lng":-90.68981},{"id":117463,"name":"Grand Isle","lat":29.23662,"lng":-89.98729},{"id":117470,"name":"Grand Point","lat":30.06131,"lng":-90.75343},{"id":117522,"name":"Grant Parish","lat":31.5997,"lng":-92.55952},{"id":117551,"name":"Gray","lat":29.69771,"lng":-90.78648},{"id":117671,"name":"Greensburg","lat":30.83074,"lng":-90.67176},{"id":117704,"name":"Greenwood","lat":32.44293,"lng":-93.97296},{"id":117725,"name":"Gretna","lat":29.91465,"lng":-90.05396},{"id":117782,"name":"Gueydan","lat":30.02604,"lng":-92.50847},{"id":117826,"name":"Hackberry","lat":29.99605,"lng":-93.3421},{"id":117840,"name":"Hahnville","lat":29.97659,"lng":-90.40897},{"id":117912,"name":"Hammond","lat":30.50463,"lng":-90.46293},{"id":117984,"name":"Harahan","lat":29.94048,"lng":-90.20313},{"id":118069,"name":"Harrisonburg","lat":31.77211,"lng":-91.82152},{"id":118111,"name":"Harvey","lat":29.90354,"lng":-90.07729},{"id":118142,"name":"Haughton","lat":32.53265,"lng":-93.50406},{"id":118188,"name":"Haynesville","lat":32.96208,"lng":-93.14016},{"id":118275,"name":"Henderson","lat":30.31325,"lng":-91.79039},{"id":118593,"name":"Homer","lat":32.79192,"lng":-93.05503},{"id":118694,"name":"Houma","lat":29.59577,"lng":-90.71953},{"id":118863,"name":"Iberia","lat":29.51353,"lng":-91.83964},{"id":118864,"name":"Iberville","lat":30.2585,"lng":-91.34936},{"id":118891,"name":"Independence","lat":30.63551,"lng":-90.50335},{"id":118947,"name":"Inniswold","lat":30.40491,"lng":-91.08344},{"id":118974,"name":"Iota","lat":30.33131,"lng":-92.49569},{"id":118975,"name":"Iowa","lat":30.23687,"lng":-93.01376},{"id":119063,"name":"Jackson","lat":30.8374,"lng":-91.21761},{"id":119098,"name":"Jackson Parish","lat":32.30203,"lng":-92.55774},{"id":119157,"name":"Jean Lafitte","lat":29.73604,"lng":-90.12674},{"id":119158,"name":"Jeanerette","lat":29.91104,"lng":-91.66345},{"id":119163,"name":"Jefferson","lat":29.96604,"lng":-90.15313},{"id":119200,"name":"Jefferson Davis","lat":30.26772,"lng":-92.81412},{"id":119203,"name":"Jefferson Parish","lat":29.68097,"lng":-90.09798},{"id":119212,"name":"Jena","lat":31.68323,"lng":-92.13374},{"id":119218,"name":"Jennings","lat":30.22243,"lng":-92.65708},{"id":119302,"name":"Jonesboro","lat":32.24127,"lng":-92.71599},{"id":119309,"name":"Jonesville","lat":31.62656,"lng":-91.81818},{"id":119387,"name":"Kaplan","lat":29.99798,"lng":-92.28485},{"id":119470,"name":"Kenner","lat":29.99409,"lng":-90.24174},{"id":119500,"name":"Kentwood","lat":30.93824,"lng":-90.50898},{"id":119560,"name":"Killian","lat":30.35881,"lng":-90.5862},{"id":119574,"name":"Kinder","lat":30.48548,"lng":-92.8507},{"id":119718,"name":"Krotz Springs","lat":30.53686,"lng":-91.75289},{"id":119788,"name":"La Salle","lat":31.67673,"lng":-92.16044},{"id":119808,"name":"Labadieville","lat":29.83743,"lng":-90.95621},{"id":119817,"name":"Lacombe","lat":30.31353,"lng":-89.94313},{"id":119832,"name":"Lafayette","lat":30.22409,"lng":-92.01984},{"id":119844,"name":"Lafayette Parish","lat":30.20677,"lng":-92.06388},{"id":119846,"name":"Lafourche","lat":29.50033,"lng":-90.40259},{"id":119867,"name":"Lake Arthur","lat":30.08076,"lng":-92.67153},{"id":119877,"name":"Lake Charles","lat":30.21309,"lng":-93.2044},{"id":119966,"name":"Lake Providence","lat":32.80499,"lng":-91.17098},{"id":120028,"name":"Lakeshore","lat":32.53514,"lng":-92.02958},{"id":120134,"name":"Laplace","lat":30.06698,"lng":-90.48147},{"id":120151,"name":"Larose","lat":29.57244,"lng":-90.38175},{"id":120249,"name":"Lawtell","lat":30.51853,"lng":-92.18485},{"id":120300,"name":"Lecompte","lat":31.09463,"lng":-92.40041},{"id":120328,"name":"Leesville","lat":31.14352,"lng":-93.261},{"id":120392,"name":"Leonville","lat":30.47047,"lng":-91.97845},{"id":120539,"name":"Lincoln Parish","lat":32.60164,"lng":-92.66482},{"id":120648,"name":"Livingston","lat":30.50213,"lng":-90.74787},{"id":120660,"name":"Livingston Parish","lat":30.44014,"lng":-90.72791},{"id":120661,"name":"Livonia","lat":30.55908,"lng":-91.55594},{"id":120679,"name":"Lockport","lat":29.64605,"lng":-90.53925},{"id":120682,"name":"Lockport Heights","lat":29.65049,"lng":-90.54647},{"id":120706,"name":"Logansport","lat":31.97545,"lng":-93.99797},{"id":120876,"name":"Luling","lat":29.93215,"lng":-90.36647},{"id":120893,"name":"Lutcher","lat":30.04048,"lng":-90.69898},{"id":121023,"name":"Madison Parish","lat":32.3644,"lng":-91.24258},{"id":121078,"name":"Mamou","lat":30.63381,"lng":-92.4193},{"id":121107,"name":"Mandeville","lat":30.35825,"lng":-90.06563},{"id":121144,"name":"Mansfield","lat":32.03766,"lng":-93.70018},{"id":121152,"name":"Mansura","lat":31.05797,"lng":-92.04901},{"id":121163,"name":"Many","lat":31.56878,"lng":-93.48406},{"id":121230,"name":"Maringouin","lat":30.4913,"lng":-91.51955},{"id":121273,"name":"Marksville","lat":31.12797,"lng":-92.06624},{"id":121296,"name":"Marrero","lat":29.89937,"lng":-90.10035},{"id":121402,"name":"Mathews","lat":29.68632,"lng":-90.54675},{"id":121423,"name":"Maurice","lat":30.10854,"lng":-92.12457},{"id":121634,"name":"Melville","lat":30.69297,"lng":-91.744},{"id":121670,"name":"Meraux","lat":29.93017,"lng":-89.91623},{"id":121716,"name":"Merrydale","lat":30.5013,"lng":-91.10844},{"id":121717,"name":"Merryville","lat":30.75437,"lng":-93.54045},{"id":121729,"name":"Metairie","lat":29.98409,"lng":-90.15285},{"id":121730,"name":"Metairie Terrace","lat":29.97854,"lng":-90.16396},{"id":121815,"name":"Midway","lat":31.69212,"lng":-92.15236},{"id":121913,"name":"Milton","lat":30.10381,"lng":-92.07651},{"id":121928,"name":"Minden","lat":32.61543,"lng":-93.28684},{"id":121964,"name":"Minorca","lat":31.57933,"lng":-91.48179},{"id":122058,"name":"Monroe","lat":32.50931,"lng":-92.1193},{"id":122116,"name":"Montegut","lat":29.47439,"lng":-90.55703},{"id":122161,"name":"Monticello","lat":30.48908,"lng":-91.04872},{"id":122190,"name":"Montz","lat":30.00687,"lng":-90.46869},{"id":122227,"name":"Morehouse","lat":32.82022,"lng":-91.8018},{"id":122235,"name":"Morgan City","lat":29.69937,"lng":-91.20677},{"id":122308,"name":"Moss Bluff","lat":30.3027,"lng":-93.19071},{"id":122560,"name":"Napoleonville","lat":29.94048,"lng":-91.02482},{"id":122585,"name":"Natalbany","lat":30.54622,"lng":-90.48619},{"id":122588,"name":"Natchitoches","lat":31.76072,"lng":-93.08627},{"id":122589,"name":"Natchitoches Parish","lat":31.72354,"lng":-93.09624},{"id":122730,"name":"New Iberia","lat":30.00354,"lng":-91.81873},{"id":122739,"name":"New Llano","lat":31.11491,"lng":-93.27155},{"id":122756,"name":"New Orleans","lat":29.95465,"lng":-90.07507},{"id":122772,"name":"New Roads","lat":30.70157,"lng":-91.43622},{"id":122775,"name":"New Sarpy","lat":29.97817,"lng":-90.38963},{"id":122825,"name":"Newellton","lat":32.07265,"lng":-91.24095},{"id":122938,"name":"Norco","lat":29.99909,"lng":-90.4123},{"id":123118,"name":"North Vacherie","lat":29.99687,"lng":-90.70565},{"id":123235,"name":"Oak Grove","lat":32.86096,"lng":-91.38845},{"id":123250,"name":"Oak Hills Place","lat":30.35992,"lng":-91.0876},{"id":123270,"name":"Oakdale","lat":30.81603,"lng":-92.66042},{"id":123315,"name":"Oberlin","lat":30.6202,"lng":-92.76265},{"id":123422,"name":"Old Jefferson","lat":30.38269,"lng":-91.01705},{"id":123451,"name":"Olla","lat":31.90294,"lng":-92.24319},{"id":123497,"name":"Opelousas","lat":30.53353,"lng":-92.08151},{"id":123567,"name":"Orleans","lat":30.06864,"lng":-89.92813},{"id":123619,"name":"Ossun","lat":30.27603,"lng":-92.11235},{"id":123645,"name":"Ouachita","lat":32.47831,"lng":-92.15487},{"id":123816,"name":"Paradis","lat":29.87965,"lng":-90.43397},{"id":123915,"name":"Patterson","lat":29.69326,"lng":-91.30205},{"id":123923,"name":"Paulina","lat":30.02631,"lng":-90.71315},{"id":123966,"name":"Pearl River","lat":30.37603,"lng":-89.7484},{"id":124179,"name":"Pierre Part","lat":29.9652,"lng":-91.20316},{"id":124241,"name":"Pine Prairie","lat":30.78381,"lng":-92.42541},{"id":124260,"name":"Pineville","lat":31.3224,"lng":-92.4343},{"id":124349,"name":"Plaquemine","lat":30.29005,"lng":-91.23497},{"id":124350,"name":"Plaquemines","lat":29.54421,"lng":-89.82047},{"id":124435,"name":"Pointe Coupee","lat":30.7094,"lng":-91.60079},{"id":124466,"name":"Ponchatoula","lat":30.4388,"lng":-90.44148},{"id":124492,"name":"Port Allen","lat":30.45214,"lng":-91.21011},{"id":124497,"name":"Port Barre","lat":30.5602,"lng":-91.95401},{"id":124536,"name":"Port Sulphur","lat":29.48049,"lng":-89.69395},{"id":124620,"name":"Poydras","lat":29.86937,"lng":-89.88895},{"id":124635,"name":"Prairieville","lat":30.30297,"lng":-90.97205},{"id":124651,"name":"Presquille","lat":29.56383,"lng":-90.6462},{"id":124668,"name":"Prien","lat":30.18187,"lng":-93.27377},{"id":124811,"name":"Raceland","lat":29.72743,"lng":-90.59898},{"id":124896,"name":"Rapides","lat":31.19862,"lng":-92.5332},{"id":124923,"name":"Rayne","lat":30.23493,"lng":-92.26846},{"id":124927,"name":"Rayville","lat":32.47736,"lng":-91.75485},{"id":124943,"name":"Red Chute","lat":32.55598,"lng":-93.61323},{"id":124960,"name":"Red River","lat":32.09315,"lng":-93.33988},{"id":125034,"name":"Reserve","lat":30.05381,"lng":-90.55175},{"id":125080,"name":"Richland","lat":32.41779,"lng":-91.76349},{"id":125109,"name":"Richwood","lat":32.44876,"lng":-92.08486},{"id":125142,"name":"Ringgold","lat":32.32849,"lng":-93.27989},{"id":125185,"name":"River Ridge","lat":29.9602,"lng":-90.21563},{"id":125422,"name":"Roseland","lat":30.76491,"lng":-90.51176},{"id":125437,"name":"Rosepine","lat":30.91991,"lng":-93.28239},{"id":125547,"name":"Ruston","lat":32.52321,"lng":-92.63793},{"id":125570,"name":"Sabine","lat":31.56401,"lng":-93.5547},{"id":125608,"name":"Saint Bernard","lat":29.87399,"lng":-89.82422},{"id":125617,"name":"Saint Charles Parish","lat":29.90553,"lng":-90.35822},{"id":125637,"name":"Saint Francisville","lat":30.7799,"lng":-91.3765},{"id":125639,"name":"Saint Gabriel","lat":30.2577,"lng":-91.09927},{"id":125648,"name":"Saint Helena","lat":30.82198,"lng":-90.71032},{"id":125658,"name":"Saint James","lat":30.0263,"lng":-90.79632},{"id":125663,"name":"Saint John the Baptist","lat":30.12646,"lng":-90.47088},{"id":125670,"name":"Saint Joseph","lat":31.91849,"lng":-91.23345},{"id":125677,"name":"Saint Landry","lat":30.59885,"lng":-92.00586},{"id":125687,"name":"Saint Martin","lat":30.12907,"lng":-91.6083},{"id":125689,"name":"Saint Martinville","lat":30.1252,"lng":-91.83345},{"id":125690,"name":"Saint Mary","lat":29.63462,"lng":-91.47293},{"id":125713,"name":"Saint Rose","lat":29.94687,"lng":-90.32313},{"id":125718,"name":"Saint Tammany","lat":30.40875,"lng":-89.95393},{"id":126019,"name":"Schriever","lat":29.74215,"lng":-90.81037},{"id":126039,"name":"Scott","lat":30.23576,"lng":-92.09457},{"id":126300,"name":"Shenandoah","lat":30.4013,"lng":-91.00094},{"id":126382,"name":"Shreveport","lat":32.52515,"lng":-93.75018},{"id":126390,"name":"Sibley","lat":32.53932,"lng":-93.29628},{"id":126446,"name":"Simmesport","lat":30.98352,"lng":-91.80012},{"id":126501,"name":"Slidell","lat":30.27519,"lng":-89.78117},{"id":126605,"name":"Sorrento","lat":30.18436,"lng":-90.85926},{"id":126739,"name":"South Vacherie","lat":29.92743,"lng":-90.69981},{"id":126909,"name":"Springhill","lat":33.00597,"lng":-93.46684},{"id":127035,"name":"Sterlington","lat":32.69625,"lng":-92.08597},{"id":127091,"name":"Stonewall","lat":32.28183,"lng":-93.82407},{"id":127194,"name":"Sulphur","lat":30.23659,"lng":-93.37738},{"id":127272,"name":"Sunset","lat":30.41131,"lng":-92.06845},{"id":127283,"name":"Supreme","lat":29.85937,"lng":-90.98121},{"id":127331,"name":"Swartz","lat":32.56875,"lng":-91.98513},{"id":127396,"name":"Tallulah","lat":32.40848,"lng":-91.18678},{"id":127415,"name":"Tangipahoa","lat":30.62665,"lng":-90.40568},{"id":127512,"name":"Tensas","lat":32.00166,"lng":-91.34007},{"id":127525,"name":"Terrebonne","lat":29.33744,"lng":-90.83764},{"id":127533,"name":"Terrytown","lat":29.91021,"lng":-90.03257},{"id":127573,"name":"Thibodaux","lat":29.79576,"lng":-90.82287},{"id":127659,"name":"Timberlane","lat":29.87743,"lng":-90.03202},{"id":128008,"name":"Union Parish","lat":32.8319,"lng":-92.37482},{"id":128059,"name":"Urania","lat":31.86378,"lng":-92.29597},{"id":128184,"name":"Vermilion","lat":29.80939,"lng":-92.30428},{"id":128195,"name":"Vernon","lat":31.10829,"lng":-93.18415},{"id":128228,"name":"Vidalia","lat":31.56544,"lng":-91.42595},{"id":128235,"name":"Vienna Bend","lat":31.73239,"lng":-93.041},{"id":128250,"name":"Village Saint George","lat":30.36214,"lng":-91.06733},{"id":128259,"name":"Ville Platte","lat":30.68797,"lng":-92.27152},{"id":128279,"name":"Vinton","lat":30.19076,"lng":-93.58127},{"id":128284,"name":"Violet","lat":29.89576,"lng":-89.89784},{"id":128298,"name":"Vivian","lat":32.87153,"lng":-93.9874},{"id":128327,"name":"Waggaman","lat":29.91854,"lng":-90.21091},{"id":128383,"name":"Walker","lat":30.48797,"lng":-90.86149},{"id":128583,"name":"Washington Parish","lat":30.85334,"lng":-90.04052},{"id":128639,"name":"Watson","lat":30.57574,"lng":-90.95316},{"id":128744,"name":"Webster","lat":32.71345,"lng":-93.33498},{"id":128796,"name":"Welsh","lat":30.23604,"lng":-92.82265},{"id":128822,"name":"West Baton Rouge","lat":30.46341,"lng":-91.31275},{"id":128841,"name":"West Carroll","lat":32.78856,"lng":-91.45674},{"id":128870,"name":"West Feliciana","lat":30.87977,"lng":-91.42003},{"id":128871,"name":"West Ferriday","lat":31.64044,"lng":-91.57318},{"id":128935,"name":"West Monroe","lat":32.51848,"lng":-92.14764},{"id":129038,"name":"Westlake","lat":30.24215,"lng":-93.25071},{"id":129044,"name":"Westminster","lat":30.4138,"lng":-91.0876},{"id":129081,"name":"Westwego","lat":29.90604,"lng":-90.1423},{"id":129128,"name":"White Castle","lat":30.16992,"lng":-91.14705},{"id":129404,"name":"Winn","lat":31.94425,"lng":-92.63677},{"id":129416,"name":"Winnfield","lat":31.92558,"lng":-92.64131},{"id":129418,"name":"Winnsboro","lat":32.16321,"lng":-91.72068},{"id":129540,"name":"Woodmere","lat":29.85798,"lng":-90.08035},{"id":129580,"name":"Woodworth","lat":31.14658,"lng":-92.49736},{"id":129718,"name":"Youngsville","lat":30.09965,"lng":-91.99012},{"id":129738,"name":"Zachary","lat":30.64852,"lng":-91.1565},{"id":129763,"name":"Zwolle","lat":31.63156,"lng":-93.64407}]