[{"id":111095,"name":"Alamo","lat":37.36496,"lng":-115.16446},{"id":111908,"name":"Battle Mountain","lat":40.64213,"lng":-116.93427},{"id":111982,"name":"Beatty","lat":36.90856,"lng":-116.75923},{"id":112602,"name":"Boulder City","lat":35.97859,"lng":-114.83249},{"id":113043,"name":"Bunkerville","lat":36.77303,"lng":-114.12802},{"id":113213,"name":"Caliente","lat":37.61496,"lng":-114.51194},{"id":113399,"name":"Carlin","lat":40.71381,"lng":-116.10397},{"id":113478,"name":"Carson City","lat":39.1638,"lng":-119.7674},{"id":114012,"name":"Churchill","lat":39.58088,"lng":-118.33578},{"id":114129,"name":"Clark County","lat":36.2152,"lng":-115.01356},{"id":114389,"name":"Cold Springs","lat":39.68019,"lng":-119.97659},{"id":115098,"name":"Dayton","lat":39.23714,"lng":-119.59295},{"id":115434,"name":"Douglas County","lat":38.91224,"lng":-119.61637},{"id":115768,"name":"East Valley","lat":38.9434,"lng":-119.69923},{"id":116008,"name":"Elko","lat":40.83242,"lng":-115.76312},{"id":116009,"name":"Elko County","lat":41.14583,"lng":-115.35776},{"id":116086,"name":"Ely","lat":39.24744,"lng":-114.88863},{"id":116149,"name":"Enterprise","lat":36.02525,"lng":-115.24194},{"id":116186,"name":"Esmeralda","lat":37.7847,"lng":-117.63237},{"id":116237,"name":"Eureka","lat":39.51271,"lng":-115.96061},{"id":116238,"name":"Eureka County","lat":39.98389,"lng":-116.26856},{"id":116378,"name":"Fallon","lat":39.47353,"lng":-118.77737},{"id":116491,"name":"Fernley","lat":39.60797,"lng":-119.25183},{"id":117078,"name":"Gardnerville","lat":38.9413,"lng":-119.74962},{"id":117079,"name":"Gardnerville Ranchos","lat":38.88824,"lng":-119.74129},{"id":117357,"name":"Golden Valley","lat":39.61547,"lng":-119.82658},{"id":117363,"name":"Goldfield","lat":37.70854,"lng":-117.23563},{"id":118176,"name":"Hawthorne","lat":38.52464,"lng":-118.62458},{"id":118278,"name":"Henderson","lat":36.0397,"lng":-114.98194},{"id":118780,"name":"Humboldt County","lat":41.40684,"lng":-118.11197},{"id":118888,"name":"Incline Village","lat":39.2513,"lng":-119.97297},{"id":118909,"name":"Indian Hills","lat":39.08602,"lng":-119.78407},{"id":119057,"name":"Jackpot","lat":41.98324,"lng":-114.67476},{"id":119273,"name":"Johnson Lane","lat":39.04796,"lng":-119.72212},{"id":119610,"name":"Kingsbury","lat":38.97713,"lng":-119.90685},{"id":120097,"name":"Lander","lat":39.93381,"lng":-117.03791},{"id":120163,"name":"Las Vegas","lat":36.17497,"lng":-115.13722},{"id":120185,"name":"Laughlin","lat":35.16778,"lng":-114.57302},{"id":120358,"name":"Lemmon Valley","lat":39.63602,"lng":-119.84325},{"id":120532,"name":"Lincoln County","lat":37.64335,"lng":-114.87755},{"id":120825,"name":"Lovelock","lat":40.17935,"lng":-118.47348},{"id":120939,"name":"Lyon","lat":39.0204,"lng":-119.1892},{"id":121502,"name":"McGill","lat":39.40494,"lng":-114.77863},{"id":121727,"name":"Mesquite","lat":36.80553,"lng":-114.06719},{"id":121930,"name":"Minden","lat":38.95407,"lng":-119.76573},{"id":121936,"name":"Mineral","lat":38.53881,"lng":-118.43521},{"id":122007,"name":"Moapa Town","lat":36.68219,"lng":-114.59416},{"id":122008,"name":"Moapa Valley","lat":36.58053,"lng":-114.47026},{"id":122017,"name":"Mogul","lat":39.5138,"lng":-119.92603},{"id":122622,"name":"Nellis Air Force Base","lat":36.24607,"lng":-115.05721},{"id":123052,"name":"North Las Vegas","lat":36.19886,"lng":-115.1175},{"id":123222,"name":"Nye","lat":38.04238,"lng":-116.47193},{"id":123724,"name":"Pahrump","lat":36.20829,"lng":-115.98391},{"id":123819,"name":"Paradise","lat":36.09719,"lng":-115.14666},{"id":124091,"name":"Pershing","lat":40.44036,"lng":-118.40444},{"id":124273,"name":"Pioche","lat":37.92969,"lng":-114.45221},{"id":125020,"name":"Reno","lat":39.52963,"lng":-119.8138},{"id":125885,"name":"Sandy Valley","lat":35.81692,"lng":-115.63223},{"id":126435,"name":"Silver Springs","lat":39.41547,"lng":-119.22461},{"id":126510,"name":"Smith","lat":38.80047,"lng":-119.32738},{"id":126517,"name":"Smith Valley","lat":38.78421,"lng":-119.34425},{"id":126801,"name":"Spanish Springs","lat":39.64908,"lng":-119.70741},{"id":126805,"name":"Sparks","lat":39.53491,"lng":-119.75269},{"id":126854,"name":"Spring Creek","lat":40.72659,"lng":-115.5859},{"id":126881,"name":"Spring Valley","lat":36.10803,"lng":-115.245},{"id":126939,"name":"Stagecoach","lat":39.3738,"lng":-119.37406},{"id":127102,"name":"Storey","lat":39.44653,"lng":-119.52917},{"id":127205,"name":"Summerlin South","lat":36.11708,"lng":-115.33001},{"id":127242,"name":"Sun Valley","lat":39.5963,"lng":-119.77602},{"id":127269,"name":"Sunrise Manor","lat":36.21108,"lng":-115.07306},{"id":127722,"name":"Tonopah","lat":38.06716,"lng":-117.23008},{"id":127731,"name":"Topaz Ranch Estates","lat":38.73565,"lng":-119.50079},{"id":128180,"name":"Verdi","lat":39.51824,"lng":-119.98881},{"id":128290,"name":"Virginia City","lat":39.30963,"lng":-119.64962},{"id":128590,"name":"Washoe","lat":40.66542,"lng":-119.6643},{"id":128783,"name":"Wells","lat":41.11159,"lng":-114.96449},{"id":129004,"name":"West Wendover","lat":40.7391,"lng":-114.07335},{"id":129153,"name":"White Pine","lat":39.44216,"lng":-114.90159},{"id":129209,"name":"Whitney","lat":36.09831,"lng":-115.0363},{"id":129361,"name":"Winchester","lat":36.12997,"lng":-115.11889},{"id":129411,"name":"Winnemucca","lat":40.97296,"lng":-117.73568},{"id":129682,"name":"Yerington","lat":38.98575,"lng":-119.16293}]