[{"id":110978,"name":"Aberdeen","lat":42.94408,"lng":-112.83833},{"id":111007,"name":"Ada","lat":43.45112,"lng":-116.24109},{"id":111025,"name":"Adams County","lat":44.88965,"lng":-116.45387},{"id":111272,"name":"American Falls","lat":42.78602,"lng":-112.85444},{"id":111293,"name":"Ammon","lat":43.46964,"lng":-111.96664},{"id":111435,"name":"Arco","lat":43.63657,"lng":-113.30028},{"id":111546,"name":"Ashton","lat":44.07158,"lng":-111.44829},{"id":111804,"name":"Bannock","lat":42.66851,"lng":-112.22463},{"id":111977,"name":"Bear Lake","lat":42.28479,"lng":-111.32965},{"id":112116,"name":"Bellevue","lat":43.46352,"lng":-114.2606},{"id":112167,"name":"Benewah","lat":47.21755,"lng":-116.65883},{"id":112349,"name":"Bingham","lat":43.21652,"lng":-112.39805},{"id":112385,"name":"Blackfoot","lat":43.19047,"lng":-112.34498},{"id":112407,"name":"Blaine","lat":43.41233,"lng":-113.9804},{"id":112508,"name":"Boise","lat":43.6135,"lng":-116.20345},{"id":112510,"name":"Boise County","lat":43.98913,"lng":-115.73024},{"id":112542,"name":"Bonner","lat":48.29975,"lng":-116.60097},{"id":112545,"name":"Bonners Ferry","lat":48.69133,"lng":-116.31631},{"id":112546,"name":"Bonneville","lat":43.38773,"lng":-111.61493},{"id":112609,"name":"Boundary","lat":48.76702,"lng":-116.46288},{"id":113023,"name":"Buhl","lat":42.59907,"lng":-114.75949},{"id":113063,"name":"Burley","lat":42.53574,"lng":-113.79279},{"id":113126,"name":"Butte","lat":43.72287,"lng":-113.17202},{"id":113182,"name":"Caldwell","lat":43.66294,"lng":-116.68736},{"id":113244,"name":"Camas","lat":43.46325,"lng":-114.80585},{"id":113356,"name":"Canyon","lat":43.62513,"lng":-116.70929},{"id":113395,"name":"Caribou","lat":42.77051,"lng":-111.56224},{"id":113514,"name":"Cascade","lat":44.51628,"lng":-116.0418},{"id":113537,"name":"Cassia","lat":42.28387,"lng":-113.60037},{"id":113715,"name":"Challis","lat":44.50464,"lng":-114.23173},{"id":114004,"name":"Chubbuck","lat":42.92075,"lng":-112.46609},{"id":114130,"name":"Clark County","lat":44.28398,"lng":-112.35135},{"id":114227,"name":"Clearwater County","lat":46.6737,"lng":-115.65686},{"id":114366,"name":"Coeur d'Alene","lat":47.67768,"lng":-116.78047},{"id":114711,"name":"Council","lat":44.72989,"lng":-116.4382},{"id":114938,"name":"Custer County","lat":44.24142,"lng":-114.2818},{"id":115004,"name":"Dalton Gardens","lat":47.72963,"lng":-116.77019},{"id":115478,"name":"Driggs","lat":43.72325,"lng":-111.11133},{"id":115497,"name":"Dubois","lat":44.1763,"lng":-112.23082},{"id":115598,"name":"Eagle","lat":43.69544,"lng":-116.35401},{"id":116058,"name":"Elmore County","lat":43.3539,"lng":-115.46918},{"id":116105,"name":"Emmett","lat":43.8735,"lng":-116.4993},{"id":116317,"name":"Fairfield","lat":43.34657,"lng":-114.79173},{"id":116507,"name":"Filer","lat":42.57019,"lng":-114.60782},{"id":116714,"name":"Fort Hall","lat":43.03325,"lng":-112.43831},{"id":116864,"name":"Franklin County","lat":42.18117,"lng":-111.81323},{"id":116927,"name":"Fremont","lat":44.22879,"lng":-111.48202},{"id":116972,"name":"Fruitland","lat":44.00766,"lng":-116.91655},{"id":117061,"name":"Garden City","lat":43.62211,"lng":-116.23817},{"id":117133,"name":"Gem","lat":44.06169,"lng":-116.39723},{"id":117299,"name":"Glenns Ferry","lat":42.9549,"lng":-115.3009},{"id":117381,"name":"Gooding","lat":42.93879,"lng":-114.71311},{"id":117382,"name":"Gooding County","lat":42.9709,"lng":-114.81152},{"id":117490,"name":"Grangeville","lat":45.92655,"lng":-116.12237},{"id":117842,"name":"Hailey","lat":43.51963,"lng":-114.31532},{"id":117976,"name":"Hansen","lat":42.53068,"lng":-114.30101},{"id":118179,"name":"Hayden","lat":47.76602,"lng":-116.78658},{"id":118351,"name":"Heyburn","lat":42.55852,"lng":-113.7639},{"id":118378,"name":"Hidden Spring","lat":43.72216,"lng":-116.25093},{"id":118589,"name":"Homedale","lat":43.61766,"lng":-116.93376},{"id":118870,"name":"Idaho","lat":45.8442,"lng":-115.46745},{"id":118869,"name":"Idaho City","lat":43.8285,"lng":-115.83455},{"id":118871,"name":"Idaho Falls","lat":43.46658,"lng":-112.03414},{"id":118969,"name":"Iona","lat":43.5263,"lng":-111.93302},{"id":119195,"name":"Jefferson County","lat":43.82014,"lng":-112.31128},{"id":119229,"name":"Jerome","lat":42.72407,"lng":-114.51865},{"id":119230,"name":"Jerome County","lat":42.6899,"lng":-114.26403},{"id":119371,"name":"Kamiah","lat":46.22712,"lng":-116.02931},{"id":119429,"name":"Kellogg","lat":47.53826,"lng":-116.11933},{"id":119525,"name":"Ketchum","lat":43.68074,"lng":-114.36366},{"id":119571,"name":"Kimberly","lat":42.5338,"lng":-114.36476},{"id":119707,"name":"Kootenai","lat":47.67456,"lng":-116.70001},{"id":119725,"name":"Kuna","lat":43.49183,"lng":-116.42012},{"id":120137,"name":"Lapwai","lat":46.40489,"lng":-116.80487},{"id":120167,"name":"Latah","lat":46.81613,"lng":-116.71168},{"id":120356,"name":"Lemhi","lat":44.94331,"lng":-113.93324},{"id":120416,"name":"Lewis","lat":46.23702,"lng":-116.42625},{"id":120428,"name":"Lewiston","lat":46.41655,"lng":-117.01766},{"id":120430,"name":"Lewiston Orchards","lat":46.38044,"lng":-116.97543},{"id":120511,"name":"Lincoln","lat":43.51297,"lng":-111.96441},{"id":120533,"name":"Lincoln County","lat":43.00241,"lng":-114.13831},{"id":121018,"name":"Madison County","lat":43.78419,"lng":-111.65934},{"id":121057,"name":"Malad City","lat":42.19159,"lng":-112.2508},{"id":121330,"name":"Marsing","lat":43.54544,"lng":-116.8132},{"id":121465,"name":"McCall","lat":44.91101,"lng":-116.09874},{"id":121695,"name":"Meridian","lat":43.61211,"lng":-116.39151},{"id":121784,"name":"Middleton","lat":43.70683,"lng":-116.62014},{"id":121947,"name":"Minidoka","lat":42.8544,"lng":-113.63752},{"id":122178,"name":"Montpelier","lat":42.32215,"lng":-111.2977},{"id":122228,"name":"Moreland","lat":43.22269,"lng":-112.44248},{"id":122300,"name":"Moscow","lat":46.73239,"lng":-117.00017},{"id":122417,"name":"Mountain Home","lat":43.13295,"lng":-115.6912},{"id":122487,"name":"Murphy","lat":43.21822,"lng":-116.55234},{"id":122538,"name":"Nampa","lat":43.54072,"lng":-116.56346},{"id":122763,"name":"New Plymouth","lat":43.96989,"lng":-116.81904},{"id":122878,"name":"Nez Perce","lat":46.32676,"lng":-116.75024},{"id":122879,"name":"Nezperce","lat":46.23489,"lng":-116.2407},{"id":123477,"name":"Oneida County","lat":42.1949,"lng":-112.53962},{"id":123572,"name":"Orofino","lat":46.47935,"lng":-116.25514},{"id":123596,"name":"Osburn","lat":47.50604,"lng":-115.99933},{"id":123674,"name":"Owyhee","lat":42.58153,"lng":-116.16998},{"id":123836,"name":"Paris","lat":42.22715,"lng":-111.40104},{"id":123885,"name":"Parma","lat":43.78516,"lng":-116.94321},{"id":123920,"name":"Paul","lat":42.60796,"lng":-113.78335},{"id":123944,"name":"Payette","lat":44.07822,"lng":-116.93377},{"id":123945,"name":"Payette County","lat":44.00674,"lng":-116.76084},{"id":124253,"name":"Pinehurst","lat":47.53881,"lng":-116.23739},{"id":124397,"name":"Plummer","lat":47.33518,"lng":-116.88851},{"id":124418,"name":"Pocatello","lat":42.8713,"lng":-112.44553},{"id":124469,"name":"Ponderay","lat":48.30548,"lng":-116.5338},{"id":124577,"name":"Post Falls","lat":47.71796,"lng":-116.95159},{"id":124615,"name":"Power","lat":42.69369,"lng":-112.84067},{"id":124657,"name":"Preston","lat":42.09631,"lng":-111.87662},{"id":124669,"name":"Priest River","lat":48.18097,"lng":-116.91157},{"id":124900,"name":"Rathdrum","lat":47.8124,"lng":-116.89659},{"id":125038,"name":"Rexburg","lat":43.82602,"lng":-111.78969},{"id":125137,"name":"Rigby","lat":43.67241,"lng":-111.91497},{"id":125515,"name":"Rupert","lat":42.61908,"lng":-113.67723},{"id":125602,"name":"Saint Anthony","lat":43.9663,"lng":-111.68218},{"id":125685,"name":"Saint Maries","lat":47.31435,"lng":-116.56267},{"id":125763,"name":"Salmon","lat":45.17575,"lng":-113.8959},{"id":125871,"name":"Sandpoint","lat":48.27659,"lng":-116.55325},{"id":126294,"name":"Shelley","lat":43.3813,"lng":-112.12331},{"id":126379,"name":"Shoshone","lat":42.93602,"lng":-114.40588},{"id":126380,"name":"Shoshone County","lat":47.35167,"lng":-115.89103},{"id":126562,"name":"Soda Springs","lat":42.65437,"lng":-111.60467},{"id":126839,"name":"Spirit Lake","lat":47.96629,"lng":-116.86853},{"id":126978,"name":"Star","lat":43.69211,"lng":-116.49346},{"id":127169,"name":"Sugar City","lat":43.87297,"lng":-111.7483},{"id":127241,"name":"Sun Valley","lat":43.69713,"lng":-114.35172},{"id":127537,"name":"Teton","lat":43.75946,"lng":-111.2077},{"id":127924,"name":"Twin Falls","lat":42.56297,"lng":-114.46087},{"id":127925,"name":"Twin Falls County","lat":42.35598,"lng":-114.66716},{"id":127939,"name":"Tyhee","lat":42.95158,"lng":-112.46637},{"id":127953,"name":"Ucon","lat":43.5963,"lng":-111.96386},{"id":128104,"name":"Valley County","lat":44.7667,"lng":-115.56613},{"id":128218,"name":"Victor","lat":43.6027,"lng":-111.11133},{"id":128398,"name":"Wallace","lat":47.47409,"lng":-115.92794},{"id":128579,"name":"Washington County","lat":44.45243,"lng":-116.78477},{"id":128761,"name":"Weiser","lat":44.251,"lng":-116.96933},{"id":128800,"name":"Wendell","lat":42.77574,"lng":-114.70422},{"id":129233,"name":"Wilder","lat":43.67655,"lng":-116.91182}]