[{"id":109084,"name":"Isaka","lat":-3.9,"lng":32.93333},{"id":109089,"name":"Kahama","lat":-3.83333,"lng":32.6},{"id":109127,"name":"Kishapu","lat":-3.61667,"lng":33.86667},{"id":109195,"name":"Mhango","lat":-3.28333,"lng":32.85},{"id":109229,"name":"Mwadui","lat":-3.55,"lng":33.6},{"id":109268,"name":"Old Shinyanga","lat":-3.55,"lng":33.4},{"id":109277,"name":"Shinyanga","lat":-3.66393,"lng":33.42118},{"id":109284,"name":"Songwa","lat":-3.51667,"lng":33.51667},{"id":109290,"name":"Tinde","lat":-3.88333,"lng":33.2}]