[{"id":109045,"name":"Bariadi","lat":-2.8,"lng":33.98333},{"id":109126,"name":"Kisesa","lat":-3.08333,"lng":34.15},{"id":109140,"name":"Lalago","lat":-3.45,"lng":33.95},{"id":109168,"name":"Malampaka","lat":-3.13333,"lng":33.53333},{"id":109179,"name":"Maswa","lat":-2.68333,"lng":33.98333},{"id":109183,"name":"Matonga","lat":-2.38333,"lng":34.08333},{"id":109262,"name":"Nyakabindi","lat":-2.63333,"lng":33.98333},{"id":109264,"name":"Nyalikungu","lat":-3.18333,"lng":33.78333},{"id":109282,"name":"Somanda","lat":-3.36667,"lng":33.95}]