[{"id":65610,"name":"Aqbaqay","lat":45.0,"lng":72.78333},{"id":65663,"name":"Chu","lat":43.60334,"lng":73.75919},{"id":65680,"name":"Georgiyevka","lat":43.03882,"lng":74.71287},{"id":65683,"name":"Granitogorsk","lat":42.744,"lng":73.46848},{"id":65692,"name":"Karatau","lat":43.17869,"lng":70.46768},{"id":65696,"name":"Khantaū","lat":44.22744,"lng":73.79555},{"id":65717,"name":"Lugovoy","lat":42.94197,"lng":72.76098},{"id":65718,"name":"Lugovoye","lat":42.9101,"lng":72.72066},{"id":65728,"name":"Merke","lat":42.86976,"lng":73.18463},{"id":65730,"name":"Moyynkum","lat":44.28461,"lng":72.9392},{"id":65733,"name":"Mynaral","lat":45.41611,"lng":73.68444},{"id":65743,"name":"Oytal","lat":42.90573,"lng":73.26972},{"id":65766,"name":"Sarykemer","lat":43.0,"lng":71.5},{"id":65791,"name":"Shyghanaq","lat":44.83056,"lng":70.00194},{"id":65803,"name":"Taraz","lat":42.9,"lng":71.36667},{"id":65839,"name":"Zhangatas","lat":43.56222,"lng":69.73428}]