[{"id":65611,"name":"Aqsay","lat":51.1681,"lng":52.99782},{"id":65655,"name":"Burlin","lat":51.42724,"lng":52.71392},{"id":65658,"name":"Chapaev","lat":50.2,"lng":51.16667},{"id":65662,"name":"Chingirlau","lat":51.09878,"lng":54.08426},{"id":65670,"name":"Dzhambeyty","lat":50.25676,"lng":52.59895},{"id":65677,"name":"Fedorovka","lat":51.22102,"lng":51.95723},{"id":65693,"name":"Kaztalovka","lat":49.76612,"lng":48.68903},{"id":65704,"name":"Krūgloozernoe","lat":51.07854,"lng":51.28992},{"id":65739,"name":"Oral","lat":51.23333,"lng":51.36667},{"id":65745,"name":"Peremetnoe","lat":51.19925,"lng":50.85544},{"id":65771,"name":"Saykhin","lat":48.85611,"lng":46.83361},{"id":65805,"name":"Tasqala","lat":51.11073,"lng":50.29454},{"id":65849,"name":"Zhänibek","lat":49.42207,"lng":46.84705}]