[{"id":109078,"name":"Ilembula","lat":-8.9,"lng":34.58333},{"id":109165,"name":"Makumbako","lat":-8.85,"lng":34.83333},{"id":109172,"name":"Manda","lat":-10.46667,"lng":34.58333},{"id":109181,"name":"Matamba","lat":-8.98333,"lng":33.96667},{"id":109205,"name":"Mlangali","lat":-9.78333,"lng":34.51667},{"id":109219,"name":"Mtwango","lat":-9.01667,"lng":34.8},{"id":109256,"name":"Njombe","lat":-9.34917,"lng":34.77167}]