[{"id":109043,"name":"Babati","lat":-4.21667,"lng":35.75},{"id":109046,"name":"Bashanet","lat":-4.23333,"lng":35.41667},{"id":109047,"name":"Basotu","lat":-4.36667,"lng":35.08333},{"id":109064,"name":"Dareda","lat":-4.21667,"lng":35.55},{"id":109066,"name":"Dongobesh","lat":-4.06667,"lng":35.38333},{"id":109067,"name":"Endasak","lat":-4.41667,"lng":35.51667},{"id":109068,"name":"Galappo","lat":-4.26667,"lng":35.85},{"id":109097,"name":"Katesh","lat":-4.52483,"lng":35.3849},{"id":109103,"name":"Kibaya","lat":-5.3,"lng":36.56667},{"id":109122,"name":"Kirya","lat":-3.91667,"lng":37.48333},{"id":109158,"name":"Magugu","lat":-4.01667,"lng":35.76667},{"id":109190,"name":"Mbulu","lat":-3.85,"lng":35.53333},{"id":109234,"name":"Naberera","lat":-4.2,"lng":36.93333},{"id":109243,"name":"Nangwa","lat":-4.46667,"lng":35.45}]