[{"id":109109,"name":"Kigonsera","lat":-10.8,"lng":35.05},{"id":109143,"name":"Liuli","lat":-11.08333,"lng":34.63333},{"id":109159,"name":"Mahanje","lat":-9.93333,"lng":35.33333},{"id":109174,"name":"Maposeni","lat":-10.58333,"lng":35.4},{"id":109182,"name":"Matiri","lat":-10.75,"lng":34.9},{"id":109186,"name":"Mbamba Bay","lat":-11.28333,"lng":34.76667},{"id":109188,"name":"Mbinga","lat":-10.93333,"lng":35.01667},{"id":109283,"name":"Songea","lat":-10.68333,"lng":35.65},{"id":109291,"name":"Tingi","lat":-11.3,"lng":35.03333}]