[{"id":65617,"name":"Arys","lat":42.43015,"lng":68.8087},{"id":65618,"name":"Ashchysay","lat":43.5537,"lng":68.89792},{"id":65620,"name":"Asyqata","lat":40.8946,"lng":68.3643},{"id":65622,"name":"Atakent","lat":40.84782,"lng":68.50643},{"id":65640,"name":"Bayzhansay","lat":43.16708,"lng":69.91459},{"id":65646,"name":"Belyye Vody","lat":42.42193,"lng":69.82709},{"id":65659,"name":"Chardara","lat":41.25832,"lng":67.96991},{"id":65660,"name":"Chayan","lat":43.03399,"lng":69.38048},{"id":65664,"name":"Chulakkurgan","lat":43.76453,"lng":69.17856},{"id":65688,"name":"Kantagi","lat":43.52786,"lng":68.58287},{"id":65695,"name":"Kentau","lat":43.51672,"lng":68.50463},{"id":65700,"name":"Kokterek","lat":42.49442,"lng":70.25478},{"id":65712,"name":"Lenger","lat":42.18152,"lng":69.88582},{"id":65714,"name":"Leninskoye","lat":41.7564,"lng":69.3839},{"id":65724,"name":"Maqtaaral Aūdany","lat":40.75,"lng":68.58333},{"id":65734,"name":"Myrzakent","lat":40.66338,"lng":68.5451},{"id":65758,"name":"Qogham","lat":42.82774,"lng":68.28074},{"id":65764,"name":"Saryaghash","lat":41.46042,"lng":69.16791},{"id":65765,"name":"Saryaghash Aūdany","lat":41.66667,"lng":68.83333},{"id":65769,"name":"Sastobe","lat":42.5533,"lng":69.99835},{"id":65795,"name":"Sozaq Aūdany","lat":44.83333,"lng":68.5},{"id":65809,"name":"Temirlanovka","lat":42.59998,"lng":69.25836},{"id":65817,"name":"Turar Ryskulov","lat":42.5334,"lng":70.3496},{"id":65819,"name":"Turkestan","lat":43.29733,"lng":68.25175},{"id":65820,"name":"Tyul’kubas","lat":42.48578,"lng":70.29601},{"id":65834,"name":"Zhabagly","lat":42.43781,"lng":70.47841}]