[{"id":38778,"name":"Hyrynsalmi","lat":64.66667,"lng":28.53333},{"id":38816,"name":"Kajaani","lat":64.22728,"lng":27.72846},{"id":38877,"name":"Kuhmo","lat":64.13333,"lng":29.51667},{"id":38971,"name":"Paltamo","lat":64.41667,"lng":27.83333},{"id":38999,"name":"Puolanka","lat":64.86667,"lng":27.66667},{"id":39025,"name":"Ristijärvi","lat":64.5,"lng":28.21667},{"id":39056,"name":"Sotkamo","lat":64.13333,"lng":28.41667},{"id":39061,"name":"Suomussalmi","lat":64.88685,"lng":28.90778},{"id":39094,"name":"Vaala","lat":64.56667,"lng":26.83333},{"id":39114,"name":"Vuokatti","lat":64.14466,"lng":28.28196},{"id":39115,"name":"Vuolijoki","lat":64.18538,"lng":26.99547}]