[{"id":65594,"name":"Abay","lat":49.63575,"lng":72.86164},{"id":65595,"name":"Abay Qalasy","lat":49.63333,"lng":72.88333},{"id":65601,"name":"Aksu-Ayuly","lat":48.76788,"lng":73.67272},{"id":65602,"name":"Aktas","lat":49.77952,"lng":72.96128},{"id":65603,"name":"Aktau","lat":48.03333,"lng":72.83333},{"id":65606,"name":"Aktogay","lat":48.16667,"lng":75.3},{"id":65609,"name":"Aqadyr","lat":48.26014,"lng":72.85851},{"id":65612,"name":"Aqshataū","lat":47.98917,"lng":74.0575},{"id":65614,"name":"Aqtoghay Aūdany","lat":48.5,"lng":74.75},{"id":65623,"name":"Atasū","lat":48.68659,"lng":71.64469},{"id":65634,"name":"Balqash","lat":46.84806,"lng":74.995},{"id":65653,"name":"Bukhar-Zhyrau","lat":49.85658,"lng":73.68118},{"id":65666,"name":"Dolinka","lat":49.67685,"lng":72.67822},{"id":65690,"name":"Karagandy","lat":49.80187,"lng":73.10211},{"id":65711,"name":"Kīevka","lat":50.26212,"lng":71.54839},{"id":65699,"name":"Koktal","lat":49.65,"lng":73.51667},{"id":65707,"name":"Kushoky","lat":50.23091,"lng":73.40146},{"id":65709,"name":"Kyzylzhar","lat":49.98197,"lng":72.60761},{"id":65731,"name":"Moyynty","lat":47.22111,"lng":73.36694},{"id":65735,"name":"Novodolinskiy","lat":49.7065,"lng":72.70807},{"id":65741,"name":"Osakarovka","lat":50.56219,"lng":72.57089},{"id":65748,"name":"Prigorodnoye","lat":49.69244,"lng":75.58438},{"id":65750,"name":"Priozersk","lat":46.03106,"lng":73.70247},{"id":65752,"name":"Qarazhal","lat":48.00627,"lng":70.79607},{"id":65754,"name":"Qarqaraly","lat":49.41287,"lng":75.47286},{"id":65768,"name":"Saryshaghan","lat":46.11917,"lng":73.61917},{"id":65770,"name":"Sayaq","lat":47.0,"lng":77.26667},{"id":65776,"name":"Shakhan","lat":49.81958,"lng":72.65407},{"id":65777,"name":"Shakhtinsk","lat":49.70885,"lng":72.59212},{"id":65783,"name":"Shashūbay","lat":46.81694,"lng":75.04028},{"id":65789,"name":"Shubarköl","lat":48.88222,"lng":68.80722},{"id":65794,"name":"Soran","lat":49.7908,"lng":72.83744},{"id":65810,"name":"Temirtau","lat":50.05494,"lng":72.96464},{"id":65814,"name":"Tokarevka","lat":50.11573,"lng":73.16034},{"id":65825,"name":"Verkhniye Kayrakty","lat":48.68333,"lng":73.28333},{"id":65836,"name":"Zhambyl","lat":47.20694,"lng":71.39694},{"id":65842,"name":"Zharyk","lat":48.85692,"lng":72.83598},{"id":65846,"name":"Zhezqazghan","lat":47.78333,"lng":67.76667}]