[{"id":38749,"name":"Eura","lat":61.13333,"lng":22.13333},{"id":38750,"name":"Eurajoki","lat":61.2,"lng":21.73333},{"id":38762,"name":"Harjavalta","lat":61.31667,"lng":22.13333},{"id":38776,"name":"Huittinen","lat":61.18333,"lng":22.7},{"id":38808,"name":"Jämijärvi","lat":61.81667,"lng":22.7},{"id":38822,"name":"Kankaanpää","lat":61.8,"lng":22.41667},{"id":38833,"name":"Karvia","lat":62.13333,"lng":22.56667},{"id":38860,"name":"Kiukainen","lat":61.21667,"lng":22.08333},{"id":38863,"name":"Kokemäki","lat":61.25647,"lng":22.35643},{"id":38891,"name":"Köyliö","lat":61.1191,"lng":22.30976},{"id":38880,"name":"Kullaa","lat":61.46998,"lng":22.16145},{"id":38925,"name":"Längelmäki","lat":61.65,"lng":22.1},{"id":38900,"name":"Lappi","lat":61.1,"lng":21.83333},{"id":38905,"name":"Lavia","lat":61.6,"lng":22.6},{"id":38924,"name":"Luvia","lat":61.36375,"lng":21.62556},{"id":38933,"name":"Merikarvia","lat":61.85839,"lng":21.50035},{"id":38950,"name":"Nakkila","lat":61.36667,"lng":22.0},{"id":38954,"name":"Noormarkku","lat":61.59274,"lng":21.86846},{"id":38990,"name":"Pomarkku","lat":61.69348,"lng":22.00862},{"id":38991,"name":"Pori","lat":61.48333,"lng":21.78333},{"id":39016,"name":"Rauma","lat":61.12724,"lng":21.51127},{"id":39064,"name":"Säkylä","lat":61.03333,"lng":22.33333},{"id":39047,"name":"Siikainen","lat":61.87703,"lng":21.81945},{"id":39089,"name":"Ulvila","lat":61.42844,"lng":21.87103},{"id":39098,"name":"Vampula","lat":61.01667,"lng":22.7}]