[{"id":38745,"name":"Eno","lat":62.80511,"lng":30.15422},{"id":38786,"name":"Ilomantsi","lat":62.67162,"lng":30.93276},{"id":38798,"name":"Joensuu","lat":62.60118,"lng":29.76316},{"id":38805,"name":"Juuka","lat":63.23333,"lng":29.25},{"id":38848,"name":"Kesälahti","lat":61.89752,"lng":29.83494},{"id":38850,"name":"Kiihtelysvaara","lat":62.49525,"lng":30.25081},{"id":38858,"name":"Kitee","lat":62.1,"lng":30.15},{"id":38867,"name":"Kontiolahti","lat":62.76023,"lng":29.84711},{"id":38912,"name":"Lieksa","lat":63.31667,"lng":30.01667},{"id":38916,"name":"Liperi","lat":62.53333,"lng":29.36667},{"id":38957,"name":"Nurmes","lat":63.54205,"lng":29.13965},{"id":38968,"name":"Outokumpu","lat":62.72685,"lng":29.01592},{"id":38989,"name":"Polvijärvi","lat":62.85,"lng":29.36667},{"id":39007,"name":"Pyhäselkä","lat":62.43333,"lng":29.96667},{"id":39033,"name":"Rääkkylä","lat":62.31667,"lng":29.61667},{"id":39077,"name":"Tohmajärvi","lat":62.18333,"lng":30.38333},{"id":39083,"name":"Tuupovaara","lat":62.48372,"lng":30.62731},{"id":39097,"name":"Valtimo","lat":63.66667,"lng":28.8}]