[{"id":66724,"name":"Alzingen","lat":49.565,"lng":6.16361},{"id":66746,"name":"Béreldange","lat":49.65507,"lng":6.11874},{"id":66734,"name":"Bertrange","lat":49.61111,"lng":6.05},{"id":66754,"name":"Contern","lat":49.58194,"lng":6.22667},{"id":66768,"name":"Fentange","lat":49.56278,"lng":6.15389},{"id":66780,"name":"Heisdorf","lat":49.67207,"lng":6.14202},{"id":66781,"name":"Helmsange","lat":49.65278,"lng":6.14139},{"id":66782,"name":"Hesperange","lat":49.56806,"lng":6.15139},{"id":66785,"name":"Itzig","lat":49.58769,"lng":6.17065},{"id":66790,"name":"Kirchberg","lat":49.62389,"lng":6.14944},{"id":66801,"name":"Luxembourg","lat":49.61167,"lng":6.13},{"id":66811,"name":"Moutfort","lat":49.58528,"lng":6.25556},{"id":66812,"name":"Müllendorf","lat":49.68028,"lng":6.13},{"id":66813,"name":"Niederanven","lat":49.65196,"lng":6.26199},{"id":66818,"name":"Olm","lat":49.65722,"lng":6.00028},{"id":66834,"name":"Sandweiler","lat":49.61471,"lng":6.22221},{"id":66840,"name":"Schrassig","lat":49.61014,"lng":6.25903},{"id":66841,"name":"Schuttrange","lat":49.62056,"lng":6.26861},{"id":66846,"name":"Steinsel","lat":49.67694,"lng":6.12389},{"id":66847,"name":"Strassen","lat":49.62056,"lng":6.07333},{"id":66858,"name":"Walferdange","lat":49.66321,"lng":6.13224},{"id":66861,"name":"Weiler-la-Tour","lat":49.54083,"lng":6.20083}]