[{"id":66738,"name":"Betzdorf","lat":49.68333,"lng":6.35},{"id":66740,"name":"Biwer","lat":49.70605,"lng":6.37201},{"id":66771,"name":"Flaxweiler","lat":49.66602,"lng":6.34321},{"id":66775,"name":"Gonderange","lat":49.69537,"lng":6.24577},{"id":66776,"name":"Grevenmacher","lat":49.67751,"lng":6.44022},{"id":66786,"name":"Junglinster","lat":49.70722,"lng":6.25306},{"id":66803,"name":"Manternach","lat":49.70278,"lng":6.42639},{"id":66806,"name":"Mertert","lat":49.70261,"lng":6.47966},{"id":66860,"name":"Wasserbillig","lat":49.71534,"lng":6.49861},{"id":66867,"name":"Wormeldange","lat":49.61114,"lng":6.40546}]