[{"id":30582,"name":"Asnæs","lat":55.81229,"lng":11.50129},{"id":30597,"name":"Bjæverskov","lat":55.45756,"lng":12.03651},{"id":30602,"name":"Borup","lat":55.49472,"lng":11.97584},{"id":30621,"name":"Dianalund","lat":55.53133,"lng":11.4925},{"id":30630,"name":"Ejby","lat":55.4858,"lng":12.08171},{"id":30640,"name":"Faxe","lat":55.25561,"lng":12.11926},{"id":30641,"name":"Faxe Kommune","lat":55.29444,"lng":12.06111},{"id":30642,"name":"Faxe Ladeplads","lat":55.21981,"lng":12.17013},{"id":30643,"name":"Fensmark","lat":55.27919,"lng":11.80382},{"id":30646,"name":"Forlev","lat":55.37445,"lng":11.25966},{"id":30653,"name":"Frederiksberg","lat":55.41618,"lng":11.56934},{"id":30661,"name":"Fuglebjerg","lat":55.30604,"lng":11.54766},{"id":30685,"name":"Gørlev","lat":55.53926,"lng":11.22708},{"id":30676,"name":"Greve","lat":55.58333,"lng":12.3},{"id":30677,"name":"Greve Kommune","lat":55.5877,"lng":12.2506},{"id":30683,"name":"Guldborgsund Kommune","lat":54.76944,"lng":11.83611},{"id":30684,"name":"Gundsømagle","lat":55.73565,"lng":12.15158},{"id":30734,"name":"Hårlev","lat":55.34936,"lng":12.23382},{"id":30696,"name":"Haslev","lat":55.32346,"lng":11.96389},{"id":30697,"name":"Havdrup","lat":55.54481,"lng":12.12392},{"id":30716,"name":"Holbæk","lat":55.7175,"lng":11.71279},{"id":30717,"name":"Holbæk Kommune","lat":55.65919,"lng":11.62049},{"id":30718,"name":"Holeby","lat":54.71148,"lng":11.46416},{"id":30737,"name":"Høng","lat":55.50736,"lng":11.28873},{"id":30742,"name":"Hørve","lat":55.75292,"lng":11.45298},{"id":30750,"name":"Jyderup","lat":55.66399,"lng":11.42029},{"id":30751,"name":"Jyllinge","lat":55.75295,"lng":12.10315},{"id":30753,"name":"Kalundborg","lat":55.67954,"lng":11.08864},{"id":30754,"name":"Kalundborg Kommune","lat":55.63545,"lng":11.19993},{"id":30759,"name":"Kirke Hvalsø","lat":55.5917,"lng":11.86253},{"id":30767,"name":"Korsør","lat":55.32993,"lng":11.13857},{"id":30771,"name":"Køge","lat":55.45802,"lng":12.18214},{"id":30772,"name":"Køge Kommune","lat":55.45668,"lng":12.07332},{"id":30776,"name":"Lejre","lat":55.60461,"lng":11.97477},{"id":30777,"name":"Lejre Kommune","lat":55.63375,"lng":11.92234},{"id":30783,"name":"Lolland Kommune","lat":54.80238,"lng":11.29524},{"id":30797,"name":"Maribo","lat":54.77662,"lng":11.50017},{"id":30805,"name":"Nakskov","lat":54.83038,"lng":11.13567},{"id":30821,"name":"Næstved","lat":55.22992,"lng":11.76092},{"id":30822,"name":"Næstved Kommune","lat":55.25855,"lng":11.74615},{"id":30807,"name":"Neder Vindinge","lat":55.03211,"lng":11.88356},{"id":30824,"name":"Nørre Alslev","lat":54.89784,"lng":11.88414},{"id":30817,"name":"Nykøbing Falster","lat":54.76906,"lng":11.87425},{"id":30819,"name":"Nykøbing Sjælland","lat":55.92491,"lng":11.67109},{"id":30820,"name":"Nyråd","lat":55.00511,"lng":11.9606},{"id":30831,"name":"Odsherred Kommune","lat":55.88333,"lng":11.59444},{"id":30833,"name":"Osted","lat":55.56228,"lng":11.95786},{"id":31001,"name":"Ørslev","lat":55.04356,"lng":11.96792},{"id":30837,"name":"Præstø","lat":55.12374,"lng":12.04477},{"id":30845,"name":"Ringsted","lat":55.4426,"lng":11.79011},{"id":30846,"name":"Ringsted Kommune","lat":55.44721,"lng":11.8172},{"id":30847,"name":"Roskilde","lat":55.64152,"lng":12.08035},{"id":30848,"name":"Roskilde Kommune","lat":55.65,"lng":12.1},{"id":30853,"name":"Rødby","lat":54.69495,"lng":11.38885},{"id":30854,"name":"Rødbyhavn","lat":54.65944,"lng":11.35504},{"id":30859,"name":"Rødvig","lat":55.2554,"lng":12.37936},{"id":30862,"name":"Rønnede","lat":55.2571,"lng":12.02125},{"id":30864,"name":"Sakskøbing","lat":54.7997,"lng":11.62599},{"id":30879,"name":"Skælskør","lat":55.25058,"lng":11.29352},{"id":30882,"name":"Slagelse","lat":55.40276,"lng":11.35459},{"id":30883,"name":"Slagelse Kommune","lat":55.34546,"lng":11.3339},{"id":30889,"name":"Solrød","lat":55.53628,"lng":12.1827},{"id":30890,"name":"Solrød Kommune","lat":55.53553,"lng":12.17337},{"id":30891,"name":"Solrød Strand","lat":55.53285,"lng":12.22227},{"id":30892,"name":"Sorø","lat":55.43184,"lng":11.55547},{"id":30893,"name":"Sorø Kommune","lat":55.48268,"lng":11.55693},{"id":30898,"name":"Stege","lat":54.98704,"lng":12.28461},{"id":30899,"name":"Stenlille","lat":55.53888,"lng":11.5912},{"id":30901,"name":"Stevns Kommune","lat":55.33373,"lng":12.30692},{"id":30905,"name":"Store Heddinge","lat":55.30965,"lng":12.38885},{"id":30911,"name":"Strøby Egede","lat":55.41382,"lng":12.24502},{"id":30912,"name":"Stubbekøbing","lat":54.88875,"lng":12.04102},{"id":30914,"name":"Sundby","lat":54.76711,"lng":11.84979},{"id":30916,"name":"Svebølle","lat":55.65183,"lng":11.28658},{"id":30921,"name":"Svinninge","lat":55.72111,"lng":11.46547},{"id":30922,"name":"Svogerslev","lat":55.63423,"lng":12.01465},{"id":30949,"name":"Tølløse","lat":55.6125,"lng":11.77034},{"id":30945,"name":"Tune","lat":55.59287,"lng":12.16968},{"id":30974,"name":"Viby","lat":55.54872,"lng":12.02391},{"id":30979,"name":"Vindinge","lat":55.62298,"lng":12.1387},{"id":30980,"name":"Vipperød","lat":55.66768,"lng":11.73967},{"id":30985,"name":"Vordingborg","lat":55.00801,"lng":11.91057},{"id":30986,"name":"Vordingborg Kommune","lat":55.01383,"lng":12.10008}]