[{"id":103999,"name":"Åby","lat":58.6621485,"lng":16.1759257},{"id":104023,"name":"Åtvidaberg","lat":58.20152,"lng":15.9977},{"id":103032,"name":"Berg","lat":58.48831,"lng":15.52969},{"id":103072,"name":"Borensberg","lat":58.56667,"lng":15.28333},{"id":103079,"name":"Boxholm","lat":58.19719,"lng":15.05376},{"id":103138,"name":"Ekängen","lat":58.46667,"lng":15.63333},{"id":103166,"name":"Finspång","lat":58.70578,"lng":15.76739},{"id":103221,"name":"Grebo","lat":58.30145,"lng":15.87085},{"id":103236,"name":"Gusum","lat":58.2688,"lng":16.49894},{"id":103281,"name":"Herrestad","lat":58.38333,"lng":14.8},{"id":103358,"name":"Jursla","lat":58.6576434,"lng":16.1602478},{"id":103391,"name":"Kimstad","lat":58.54967,"lng":15.96296},{"id":103396,"name":"Kisa","lat":57.98781,"lng":15.63303},{"id":103418,"name":"Krokek","lat":58.67231,"lng":16.36741},{"id":103474,"name":"Lindö","lat":58.61667,"lng":16.25},{"id":103475,"name":"Linghem","lat":58.43333,"lng":15.78333},{"id":103476,"name":"Linköping","lat":58.41086,"lng":15.62157},{"id":103483,"name":"Ljungsbro","lat":58.51667,"lng":15.5},{"id":103516,"name":"Malmslätt","lat":58.41102,"lng":15.51647},{"id":103522,"name":"Mantorp","lat":58.35,"lng":15.28333},{"id":103540,"name":"Mjölby","lat":58.32595,"lng":15.12365},{"id":103548,"name":"Motala","lat":58.53706,"lng":15.03649},{"id":103586,"name":"Norrköping","lat":58.59419,"lng":16.1826},{"id":104027,"name":"Ödeshög","lat":58.22949,"lng":14.65294},{"id":104044,"name":"Österbymo","lat":57.82465,"lng":15.27357},{"id":103647,"name":"Rimforsa","lat":58.13624,"lng":15.6865},{"id":103661,"name":"Ryd","lat":58.66667,"lng":15.08333},{"id":103718,"name":"Skänninge","lat":58.39427,"lng":15.08659},{"id":103719,"name":"Skärblacka","lat":58.56667,"lng":15.9},{"id":103821,"name":"Söderköping","lat":58.48057,"lng":16.32221},{"id":103752,"name":"Stenstorp","lat":58.48333,"lng":15.06667},{"id":103778,"name":"Sturefors","lat":58.33333,"lng":15.73333},{"id":103803,"name":"Svärtinge","lat":58.65507,"lng":16.02823},{"id":103836,"name":"Tallboda","lat":58.42521,"lng":15.68154},{"id":103907,"name":"Vadstena","lat":58.44863,"lng":14.88969},{"id":103913,"name":"Valdemarsvik","lat":58.2031,"lng":16.60225},{"id":103944,"name":"Vikingstad","lat":58.38304,"lng":15.43201}]