[{"id":104017,"name":"Åsbro","lat":59.0,"lng":15.05},{"id":103019,"name":"Askersund","lat":58.87988,"lng":14.9023},{"id":103115,"name":"Degerfors","lat":59.23797,"lng":14.43077},{"id":103131,"name":"Ekeby-Almby","lat":59.26,"lng":15.33},{"id":103163,"name":"Fellingsbro","lat":59.43333,"lng":15.58333},{"id":103170,"name":"Fjugesta","lat":59.17375,"lng":14.87227},{"id":103187,"name":"Frövi","lat":59.46667,"lng":15.36667},{"id":103204,"name":"Garphyttan","lat":59.30429,"lng":14.94623},{"id":103316,"name":"Hällabrottet","lat":59.11667,"lng":15.2},{"id":103318,"name":"Hällefors","lat":59.78388,"lng":14.52197},{"id":103253,"name":"Hallsberg","lat":59.06463,"lng":15.10993},{"id":103302,"name":"Hovsta","lat":59.35,"lng":15.21667},{"id":103379,"name":"Karlskoga","lat":59.32667,"lng":14.52386},{"id":103409,"name":"Kopparberg","lat":59.87597,"lng":14.99436},{"id":103420,"name":"Kumla","lat":59.1277,"lng":15.14341},{"id":103453,"name":"Laxå","lat":58.9863,"lng":14.61904},{"id":103469,"name":"Lindesberg","lat":59.59202,"lng":15.2304},{"id":103577,"name":"Nora","lat":59.51926,"lng":15.03979},{"id":103609,"name":"Odensbacken","lat":59.16667,"lng":15.53333},{"id":104034,"name":"Örebro","lat":59.27412,"lng":15.2066},{"id":103640,"name":"Pålsboda","lat":59.06565,"lng":15.33747},{"id":103723,"name":"Sköllersta","lat":59.13738,"lng":15.3394},{"id":103770,"name":"Storå","lat":59.71409,"lng":15.13169},{"id":103955,"name":"Vintrosa","lat":59.25,"lng":14.95}]