[{"id":104019,"name":"Åsele","lat":64.16026,"lng":17.34762},{"id":103025,"name":"Backa","lat":64.98333,"lng":21.06667},{"id":103044,"name":"Bjurholm","lat":63.93027,"lng":19.21369},{"id":103063,"name":"Boliden","lat":64.86667,"lng":20.38333},{"id":103098,"name":"Bureå","lat":64.61667,"lng":21.2},{"id":103100,"name":"Burträsk","lat":64.51667,"lng":20.65},{"id":103101,"name":"Byske","lat":64.95258,"lng":21.2058},{"id":103125,"name":"Dorotea","lat":64.26185,"lng":16.41306},{"id":103149,"name":"Ersmark","lat":63.88333,"lng":20.31667},{"id":103176,"name":"Forsbacka","lat":64.76667,"lng":20.5},{"id":103296,"name":"Holmsund","lat":63.70602,"lng":20.36409},{"id":103340,"name":"Hörnefors","lat":63.62312,"lng":19.90856},{"id":103348,"name":"Insjön","lat":64.4,"lng":17.48333},{"id":103439,"name":"Kåge","lat":64.83571,"lng":20.98453},{"id":103503,"name":"Långsele","lat":64.81667,"lng":20.25},{"id":103497,"name":"Lycksele","lat":64.59537,"lng":18.67351},{"id":103520,"name":"Malå","lat":65.18501,"lng":18.74243},{"id":103582,"name":"Nordmaling","lat":63.56852,"lng":19.50244},{"id":103590,"name":"Norsjö","lat":64.91206,"lng":19.48153},{"id":103606,"name":"Obbola","lat":63.7,"lng":20.31667},{"id":103671,"name":"Röbäck","lat":63.80879,"lng":20.18901},{"id":103650,"name":"Robertsfors","lat":64.19324,"lng":20.84806},{"id":103811,"name":"Sävar","lat":63.90383,"lng":20.55014},{"id":103701,"name":"Skellefteå","lat":64.75067,"lng":20.95279},{"id":103700,"name":"Skelleftehamn","lat":64.68333,"lng":21.23333},{"id":103818,"name":"Söderfors","lat":64.81667,"lng":18.05},{"id":103741,"name":"Sorsele","lat":65.53484,"lng":17.53702},{"id":103765,"name":"Storuman","lat":65.0959,"lng":17.11731},{"id":103767,"name":"Storvik","lat":65.15,"lng":20.73333},{"id":103888,"name":"Täfteå","lat":63.8397,"lng":20.47857},{"id":103898,"name":"Umeå","lat":63.82842,"lng":20.25972},{"id":103906,"name":"Ursviken","lat":64.71261,"lng":21.1658},{"id":103964,"name":"Vännäs","lat":63.90676,"lng":19.75712},{"id":103966,"name":"Vännäsby","lat":63.91564,"lng":19.82438},{"id":103942,"name":"Viken","lat":64.72587,"lng":20.91548},{"id":103945,"name":"Vilhelmina","lat":64.62417,"lng":16.65596},{"id":103949,"name":"Vindeln","lat":64.20175,"lng":19.71945}]