[{"id":104005,"name":"Åled","lat":56.75,"lng":12.93333},{"id":104016,"name":"Åsa","lat":57.35,"lng":12.11667},{"id":103096,"name":"Bua","lat":57.2378,"lng":12.12187},{"id":103157,"name":"Falkenberg","lat":56.90552,"lng":12.49118},{"id":103172,"name":"Fjärås kyrkby","lat":57.45913,"lng":12.17508},{"id":103182,"name":"Frillesås","lat":57.31667,"lng":12.16667},{"id":103186,"name":"Frösakull","lat":56.68333,"lng":12.73333},{"id":103190,"name":"Fyllinge","lat":56.65,"lng":12.91667},{"id":103207,"name":"Getinge","lat":56.81667,"lng":12.73333},{"id":103212,"name":"Glommen","lat":56.93333,"lng":12.35},{"id":103231,"name":"Gullbrandstorp","lat":56.7,"lng":12.73333},{"id":103258,"name":"Halmstad","lat":56.67446,"lng":12.85676},{"id":103269,"name":"Harplinge","lat":56.74491,"lng":12.72758},{"id":103271,"name":"Haverdal","lat":56.72222,"lng":12.67194},{"id":103314,"name":"Hyltebruk","lat":56.99892,"lng":13.23958},{"id":103405,"name":"Knäred","lat":56.51861,"lng":13.32423},{"id":103423,"name":"Kungsbacka","lat":57.48719,"lng":12.07612},{"id":103447,"name":"Laholm","lat":56.51207,"lng":13.04371},{"id":103535,"name":"Mellbystrand","lat":56.48561,"lng":12.93958},{"id":103538,"name":"Mjällby","lat":56.68333,"lng":12.76667},{"id":103616,"name":"Onsala","lat":57.42531,"lng":12.02903},{"id":103625,"name":"Oskarström","lat":56.8,"lng":12.96667},{"id":103806,"name":"Särö","lat":57.50577,"lng":11.9321},{"id":103711,"name":"Skrea","lat":56.88333,"lng":12.56667},{"id":103750,"name":"Steninge","lat":56.769,"lng":12.63034},{"id":103868,"name":"Torup","lat":56.95663,"lng":13.07725},{"id":103879,"name":"Träslövsläge","lat":57.05417,"lng":12.27899},{"id":103880,"name":"Trönninge","lat":56.61667,"lng":12.93333},{"id":103883,"name":"Tvååker","lat":57.04147,"lng":12.3995},{"id":103917,"name":"Vallda","lat":57.4775,"lng":12.00139},{"id":103924,"name":"Varberg","lat":57.10557,"lng":12.25078},{"id":103974,"name":"Västra Hagen","lat":57.42444,"lng":11.93583},{"id":103932,"name":"Veddige","lat":57.26591,"lng":12.3322},{"id":103933,"name":"Veinge","lat":56.55,"lng":13.06667}]