[{"id":66600,"name":"Gargždai","lat":55.70951,"lng":21.39441},{"id":66620,"name":"Klaipėda","lat":55.71667,"lng":21.11667},{"id":66622,"name":"Kretinga","lat":55.8888,"lng":21.24448},{"id":66644,"name":"Neringa","lat":55.36667,"lng":21.06667},{"id":66645,"name":"Nida","lat":55.3086,"lng":20.99651},{"id":66650,"name":"Palanga","lat":55.9175,"lng":21.06861},{"id":66660,"name":"Priekulė","lat":55.55427,"lng":21.31903},{"id":66670,"name":"Rusnė","lat":55.2982,"lng":21.3712},{"id":66673,"name":"Salantai","lat":56.0565,"lng":21.5689},{"id":66677,"name":"Silute","lat":55.34889,"lng":21.48306},{"id":66681,"name":"Skuodas","lat":56.26667,"lng":21.53333},{"id":66718,"name":"Šventoji","lat":56.0261,"lng":21.08411},{"id":66722,"name":"Žemaičių Naumiestis","lat":55.35941,"lng":21.70364}]