[{"id":86009,"name":"Bąków","lat":49.89342,"lng":18.71495},{"id":85821,"name":"Bażanowice","lat":49.73791,"lng":18.70345},{"id":86013,"name":"Będzin","lat":50.32607,"lng":19.12565},{"id":85829,"name":"Bełk","lat":50.13048,"lng":18.71667},{"id":85830,"name":"Bełsznica","lat":49.97811,"lng":18.36313},{"id":85826,"name":"Bestwina","lat":49.89712,"lng":19.05776},{"id":85827,"name":"Bestwinka","lat":49.93272,"lng":19.06694},{"id":85861,"name":"Bielsko-Biala","lat":49.82245,"lng":19.04686},{"id":85867,"name":"Bieruń","lat":50.09,"lng":19.09291},{"id":85879,"name":"Blachownia","lat":50.78015,"lng":18.96389},{"id":85890,"name":"Bobrowniki","lat":50.37985,"lng":18.98661},{"id":85906,"name":"Bojszowy","lat":50.0578,"lng":19.10145},{"id":85907,"name":"Bojszowy Nowe","lat":50.05284,"lng":19.05012},{"id":85923,"name":"Boronów","lat":50.6746,"lng":18.90678},{"id":85926,"name":"Borowno","lat":50.93247,"lng":19.2738},{"id":85927,"name":"Borucin","lat":50.00763,"lng":18.15748},{"id":85940,"name":"Brenna","lat":49.72576,"lng":18.90249},{"id":85953,"name":"Bronów","lat":49.87782,"lng":18.92103},{"id":85965,"name":"Brzeziny Śląskie","lat":50.35439,"lng":18.98129},{"id":85982,"name":"Buczkowice","lat":49.72858,"lng":19.06908},{"id":85987,"name":"Bujaków","lat":49.85182,"lng":19.19432},{"id":86001,"name":"Bystra","lat":49.76042,"lng":19.05973},{"id":86005,"name":"Bytom","lat":50.34802,"lng":18.93282},{"id":86026,"name":"Chałupki","lat":49.92559,"lng":18.3173},{"id":86028,"name":"Chełm Śląski","lat":50.10825,"lng":19.19552},{"id":86053,"name":"Choroń","lat":50.68178,"lng":19.26058},{"id":86055,"name":"Chorzów","lat":50.30582,"lng":18.9742},{"id":86060,"name":"Chruszczobród","lat":50.4147,"lng":19.32718},{"id":86069,"name":"Chybie","lat":49.90249,"lng":18.82756},{"id":86075,"name":"Ciasna","lat":50.75427,"lng":18.60835},{"id":86093,"name":"Cięcina","lat":49.6022,"lng":19.14102},{"id":86081,"name":"Cielmice","lat":50.08826,"lng":19.01896},{"id":86088,"name":"Cieszyn","lat":49.75133,"lng":18.63213},{"id":86090,"name":"Cisiec","lat":49.59213,"lng":19.1054},{"id":86092,"name":"Cisownica","lat":49.72276,"lng":18.76207},{"id":86098,"name":"Cynków","lat":50.56203,"lng":19.11956},{"id":86100,"name":"Czaniec","lat":49.85071,"lng":19.25354},{"id":86103,"name":"Czarków","lat":50.01833,"lng":18.90678},{"id":86122,"name":"Czechowice-Dziedzice","lat":49.91342,"lng":19.00479},{"id":86123,"name":"Czeladź","lat":50.31542,"lng":19.07824},{"id":86130,"name":"Czernica","lat":50.08391,"lng":18.40068},{"id":86132,"name":"Czernichów","lat":49.75443,"lng":19.20947},{"id":86141,"name":"Czerwionka-Leszczyny","lat":50.15007,"lng":18.67762},{"id":86150,"name":"Częstochowa","lat":50.79646,"lng":19.12409},{"id":86149,"name":"Czyżowice","lat":49.9849,"lng":18.40433},{"id":86240,"name":"Dąbrowa Górnicza","lat":50.33394,"lng":19.20479},{"id":86242,"name":"Dąbrowa Zielona","lat":50.84394,"lng":19.55652},{"id":86256,"name":"Dębowiec","lat":49.81406,"lng":18.72062},{"id":86166,"name":"Dobieszowice","lat":50.39697,"lng":19.01304},{"id":86199,"name":"Drogomyśl","lat":49.86964,"lng":18.75727},{"id":86231,"name":"Dzięgielów","lat":49.72259,"lng":18.70491},{"id":86276,"name":"Frydek","lat":49.99626,"lng":19.07278},{"id":86284,"name":"Gardawice","lat":50.11667,"lng":18.8},{"id":86287,"name":"Gaszowice","lat":50.10858,"lng":18.43042},{"id":86299,"name":"Gierałtowice","lat":50.22486,"lng":18.73384},{"id":86303,"name":"Gilowice","lat":49.99505,"lng":19.09613},{"id":86307,"name":"Gliwice","lat":50.29761,"lng":18.67658},{"id":86308,"name":"Gniazdów","lat":50.59621,"lng":19.11132},{"id":86317,"name":"Goczałkowice Zdrój","lat":49.94454,"lng":18.96927},{"id":86322,"name":"Godów","lat":49.92481,"lng":18.4783},{"id":86319,"name":"Godziszka","lat":49.71288,"lng":19.07587},{"id":86327,"name":"Goleszów","lat":49.7358,"lng":18.73675},{"id":86356,"name":"Gołkowice","lat":49.91418,"lng":18.51419},{"id":86409,"name":"Góra","lat":49.97971,"lng":19.10471},{"id":86414,"name":"Górki Wielkie","lat":49.77971,"lng":18.83117},{"id":86339,"name":"Gorzyce","lat":49.95945,"lng":18.39884},{"id":86341,"name":"Gorzyczki","lat":49.94912,"lng":18.4033},{"id":86346,"name":"Gostyń","lat":50.10528,"lng":18.88241},{"id":86445,"name":"Hażlach","lat":49.80714,"lng":18.65178},{"id":86448,"name":"Herby","lat":50.75318,"lng":18.88756},{"id":86455,"name":"Huta Stara B","lat":50.73792,"lng":19.13295},{"id":86457,"name":"Imielin","lat":50.14534,"lng":19.18599},{"id":86462,"name":"Istebna","lat":49.56319,"lng":18.90567},{"id":86494,"name":"Jankowice","lat":50.0009,"lng":18.98901},{"id":86495,"name":"Jankowice Rybnickie","lat":50.04479,"lng":18.54707},{"id":86498,"name":"Janowice","lat":49.88496,"lng":19.09376},{"id":86514,"name":"Jasienica","lat":49.81312,"lng":18.92155},{"id":86524,"name":"Jastrząb","lat":50.67019,"lng":19.1817},{"id":86528,"name":"Jastrzębie Zdrój","lat":49.95542,"lng":18.57479},{"id":86535,"name":"Jaworze","lat":49.79351,"lng":18.9479},{"id":86536,"name":"Jaworzno","lat":50.20528,"lng":19.27498},{"id":86538,"name":"Jaworzynka","lat":49.54019,"lng":18.86996},{"id":86547,"name":"Jejkowice","lat":50.10814,"lng":18.46767},{"id":86551,"name":"Jeleśnia","lat":49.64246,"lng":19.32701},{"id":86572,"name":"Juszczyna","lat":49.62984,"lng":19.22032},{"id":86581,"name":"Kaczyce","lat":49.82752,"lng":18.59161},{"id":86583,"name":"Kalej","lat":50.83662,"lng":18.98429},{"id":86584,"name":"Kalety","lat":50.5627,"lng":18.8926},{"id":86589,"name":"Kamesznica","lat":49.56469,"lng":19.0212},{"id":86592,"name":"Kamienica Polska","lat":50.6709,"lng":19.12265},{"id":86606,"name":"Kamyk","lat":50.90179,"lng":19.02875},{"id":86608,"name":"Kaniów","lat":49.94316,"lng":19.05098},{"id":86621,"name":"Katowice","lat":50.25841,"lng":19.02754},{"id":86862,"name":"Kłobuck","lat":50.90081,"lng":18.93674},{"id":86867,"name":"Kłomnice","lat":50.92165,"lng":19.35679},{"id":86658,"name":"Knurów","lat":50.21971,"lng":18.65067},{"id":86660,"name":"Kobiernice","lat":49.85497,"lng":19.21646},{"id":86662,"name":"Kobiór","lat":50.06089,"lng":18.93468},{"id":86670,"name":"Kochanowice","lat":50.70548,"lng":18.74911},{"id":86748,"name":"Kończyce Małe","lat":49.85824,"lng":18.62964},{"id":86749,"name":"Kończyce Wielkie","lat":49.8351,"lng":18.64474},{"id":86690,"name":"Koniaków","lat":49.55066,"lng":18.9491},{"id":86691,"name":"Koniecpol","lat":50.77468,"lng":19.68896},{"id":86694,"name":"Konopiska","lat":50.72695,"lng":19.00781},{"id":86700,"name":"Korbielów","lat":49.5682,"lng":19.35001},{"id":86704,"name":"Kornowac","lat":50.07179,"lng":18.32846},{"id":86753,"name":"Kościelec","lat":50.89713,"lng":19.2156},{"id":86717,"name":"Koszarawa","lat":49.64462,"lng":19.40083},{"id":86720,"name":"Koszęcin","lat":50.63411,"lng":18.8413},{"id":86734,"name":"Koziegłowy","lat":50.60035,"lng":19.16299},{"id":86737,"name":"Kozy","lat":49.84756,"lng":19.14891},{"id":86780,"name":"Kroczyce","lat":50.56176,"lng":19.57},{"id":86792,"name":"Krupski Młyn","lat":50.57337,"lng":18.62251},{"id":86798,"name":"Kryry","lat":50.01667,"lng":18.80568},{"id":86800,"name":"Krzanowice","lat":50.01822,"lng":18.12251},{"id":86807,"name":"Krzepice","lat":50.97059,"lng":18.72886},{"id":86822,"name":"Krzyżanowice","lat":49.98247,"lng":18.26846},{"id":86824,"name":"Krzyżowa","lat":49.59235,"lng":19.34469},{"id":86825,"name":"Krzyżowice","lat":49.98528,"lng":18.67281},{"id":86830,"name":"Książenice","lat":50.15524,"lng":18.59925},{"id":86846,"name":"Kuźnia Raciborska","lat":50.20058,"lng":18.31146},{"id":86869,"name":"Laliki","lat":49.53446,"lng":19.00549},{"id":86979,"name":"Lędziny","lat":50.14264,"lng":19.13149},{"id":86880,"name":"Lelów","lat":50.68335,"lng":19.62562},{"id":86888,"name":"Leśna","lat":49.67041,"lng":19.12763},{"id":86901,"name":"Ligota","lat":49.89856,"lng":18.9509},{"id":86907,"name":"Lipie","lat":51.01257,"lng":18.79658},{"id":86919,"name":"Lipowa","lat":49.67574,"lng":19.09398},{"id":86948,"name":"Lubliniec","lat":50.66897,"lng":18.6844},{"id":86951,"name":"Lubomia","lat":50.03972,"lng":18.3082},{"id":86975,"name":"Lyski","lat":50.11992,"lng":18.39146},{"id":88774,"name":"Łaziska","lat":49.9357,"lng":18.44707},{"id":88775,"name":"Łaziska Górne","lat":50.14952,"lng":18.84215},{"id":88776,"name":"Łazy","lat":50.42769,"lng":19.39465},{"id":88821,"name":"Łękawica","lat":49.72209,"lng":19.26496},{"id":88780,"name":"Łobodno","lat":50.93079,"lng":18.9909},{"id":88783,"name":"Łodygowice","lat":49.72992,"lng":19.13939},{"id":86997,"name":"Markłowice","lat":50.01695,"lng":18.52098},{"id":87004,"name":"Mazańcowice","lat":49.85802,"lng":18.97708},{"id":87016,"name":"Miasteczko Śląskie","lat":50.50262,"lng":18.93949},{"id":87032,"name":"Miedźna","lat":49.98225,"lng":19.04883},{"id":87031,"name":"Miedzno","lat":50.96994,"lng":18.98111},{"id":87059,"name":"Międzybrodzie Bialskie","lat":49.78747,"lng":19.19741},{"id":87039,"name":"Mierzęcice","lat":50.44504,"lng":19.12934},{"id":87044,"name":"Mikołów","lat":50.17103,"lng":18.9041},{"id":87051,"name":"Milówka","lat":49.5554,"lng":19.09072},{"id":87076,"name":"Mnich","lat":49.88944,"lng":18.80722},{"id":87107,"name":"Mstów","lat":50.82969,"lng":19.28547},{"id":87108,"name":"Mszana","lat":49.96939,"lng":18.52793},{"id":87112,"name":"Murcki","lat":50.20036,"lng":19.04351},{"id":87116,"name":"Mykanów","lat":50.9236,"lng":19.2005},{"id":87121,"name":"Mysłowice","lat":50.20745,"lng":19.16668},{"id":87118,"name":"Myszków","lat":50.5752,"lng":19.32461},{"id":87133,"name":"Nakło","lat":50.4369,"lng":18.91056},{"id":87215,"name":"Nędza","lat":50.16112,"lng":18.31103},{"id":87153,"name":"Niedobczyce","lat":50.0654,"lng":18.49531},{"id":87160,"name":"Niegowonice","lat":50.38909,"lng":19.42263},{"id":87223,"name":"Ochaby","lat":49.84252,"lng":18.76894},{"id":87231,"name":"Ogrodzieniec","lat":50.45177,"lng":19.51987},{"id":87247,"name":"Olsztyn","lat":50.75185,"lng":19.26737},{"id":87253,"name":"Olza","lat":49.95393,"lng":18.3391},{"id":87258,"name":"Opatów","lat":50.95567,"lng":18.81941},{"id":87269,"name":"Ornontowice","lat":50.19377,"lng":18.75435},{"id":87271,"name":"Orzech","lat":50.42744,"lng":18.92275},{"id":87273,"name":"Orzesze","lat":50.15595,"lng":18.77923},{"id":87304,"name":"Ostrowy nad Okszą","lat":50.97799,"lng":19.05355},{"id":87326,"name":"Ożarowice","lat":50.46182,"lng":19.04317},{"id":87341,"name":"Paniówki","lat":50.23139,"lng":18.78104},{"id":87342,"name":"Panki","lat":50.88333,"lng":18.7516},{"id":87357,"name":"Pawłowice","lat":49.96127,"lng":18.71778},{"id":87355,"name":"Pawonków","lat":50.69499,"lng":18.58149},{"id":87366,"name":"Pewel Ślemieńska","lat":49.68968,"lng":19.33431},{"id":87365,"name":"Pewel Wielka","lat":49.67457,"lng":19.37482},{"id":87369,"name":"Piasek","lat":50.01055,"lng":18.94807},{"id":87376,"name":"Piekary Śląskie","lat":50.38017,"lng":18.92653},{"id":87379,"name":"Pielgrzymowice","lat":49.90547,"lng":18.64886},{"id":87382,"name":"Pierściec","lat":49.83339,"lng":18.81409},{"id":87384,"name":"Pietrowice Wielkie","lat":50.08452,"lng":18.09148},{"id":87385,"name":"Pietrzykowice","lat":49.69634,"lng":19.1599},{"id":87388,"name":"Pilchowice","lat":50.21668,"lng":18.56132},{"id":87390,"name":"Pilica","lat":50.46799,"lng":19.65729},{"id":87395,"name":"Pisarzowice","lat":49.88363,"lng":19.14565},{"id":87426,"name":"Pogórze","lat":49.79961,"lng":18.84327},{"id":87422,"name":"Pogrzebień","lat":50.06722,"lng":18.29876},{"id":87423,"name":"Pogwizdów","lat":49.80382,"lng":18.60106},{"id":87779,"name":"Połomia","lat":49.99185,"lng":18.55102},{"id":87446,"name":"Porąbka","lat":49.81716,"lng":19.21835},{"id":87443,"name":"Poraj","lat":50.67797,"lng":19.21509},{"id":87449,"name":"Poręba","lat":50.48831,"lng":19.33903},{"id":87454,"name":"Potok Złoty","lat":50.70676,"lng":19.43091},{"id":87793,"name":"Pruchna","lat":49.86527,"lng":18.68191},{"id":87821,"name":"Przyborów","lat":49.6215,"lng":19.38701},{"id":87826,"name":"Przyrów","lat":50.80051,"lng":19.52794},{"id":87827,"name":"Przystajń","lat":50.88495,"lng":18.69169},{"id":87829,"name":"Przyszowice","lat":50.24841,"lng":18.74594},{"id":87838,"name":"Psary","lat":50.6147,"lng":18.96991},{"id":87843,"name":"Pszczyna","lat":49.98037,"lng":18.95382},{"id":87845,"name":"Pszów","lat":50.03994,"lng":18.39472},{"id":87853,"name":"Puńców","lat":49.71842,"lng":18.66157},{"id":87856,"name":"Pyskowice","lat":50.4,"lng":18.63333},{"id":87872,"name":"Racibórz","lat":50.09195,"lng":18.21928},{"id":87882,"name":"Radlin","lat":50.0502,"lng":18.47626},{"id":87889,"name":"Radostowice","lat":50.00311,"lng":18.88103},{"id":87896,"name":"Radziechowy","lat":49.64651,"lng":19.13115},{"id":87899,"name":"Radzionków","lat":50.40026,"lng":18.90232},{"id":87906,"name":"Rajcza","lat":49.50927,"lng":19.11278},{"id":87913,"name":"Raszczyce","lat":50.1219,"lng":18.29962},{"id":88038,"name":"Rędziny","lat":50.85922,"lng":19.2162},{"id":87948,"name":"Rogów","lat":49.99097,"lng":18.35077},{"id":87945,"name":"Rogoźnik","lat":50.39106,"lng":19.03776},{"id":87959,"name":"Rokitno Szlacheckie","lat":50.43195,"lng":19.43293},{"id":87971,"name":"Ruda Śląska","lat":50.2584,"lng":18.85632},{"id":87979,"name":"Rudnik","lat":50.12729,"lng":18.18598},{"id":87982,"name":"Rudniki","lat":50.52134,"lng":19.4313},{"id":87983,"name":"Rudy","lat":50.19003,"lng":18.45334},{"id":87984,"name":"Rudziczka","lat":50.03608,"lng":18.76225},{"id":87985,"name":"Rudziniec","lat":50.35324,"lng":18.40914},{"id":87991,"name":"Rybarzowice","lat":49.72956,"lng":19.10162},{"id":87994,"name":"Rybnik","lat":50.09713,"lng":18.54179},{"id":87997,"name":"Rycerka Dolna","lat":49.47805,"lng":19.06162},{"id":87998,"name":"Rycerka Górna","lat":49.44436,"lng":19.01596},{"id":88004,"name":"Rydułtowy","lat":50.05857,"lng":18.41703},{"id":88325,"name":"Sączów","lat":50.4352,"lng":19.03038},{"id":88052,"name":"Sarnów","lat":50.3738,"lng":19.15061},{"id":88071,"name":"Siemianowice Śląskie","lat":50.32738,"lng":19.02901},{"id":88089,"name":"Sieraków Śląski","lat":50.8029,"lng":18.57548},{"id":88093,"name":"Siewierz","lat":50.46657,"lng":19.23028},{"id":88108,"name":"Skoczów","lat":49.80089,"lng":18.7877},{"id":88118,"name":"Skrzyszów","lat":49.94873,"lng":18.48879},{"id":88830,"name":"Ślemień","lat":49.71826,"lng":19.36735},{"id":88337,"name":"Sławków","lat":50.29943,"lng":19.38967},{"id":88324,"name":"Sól","lat":49.48764,"lng":19.04171},{"id":88149,"name":"Sopotnia Wielka","lat":49.56853,"lng":19.28289},{"id":88158,"name":"Sośnicowice","lat":50.27214,"lng":18.52982},{"id":88152,"name":"Sosnowiec","lat":50.27119,"lng":19.19463},{"id":88171,"name":"Stanowice","lat":50.13037,"lng":18.67084},{"id":88180,"name":"Starcza","lat":50.66421,"lng":19.0418},{"id":88191,"name":"Starokrzepice","lat":50.94859,"lng":18.65341},{"id":88218,"name":"Strumień","lat":49.92103,"lng":18.76637},{"id":88223,"name":"Strzebiń","lat":50.61647,"lng":18.89794},{"id":88235,"name":"Strzyżowice","lat":50.38725,"lng":19.08038},{"id":88240,"name":"Studzionka","lat":49.96232,"lng":18.7728},{"id":88268,"name":"Suszec","lat":50.02958,"lng":18.7916},{"id":88854,"name":"Świerklaniec","lat":50.44237,"lng":18.93734},{"id":88855,"name":"Świerklany Dolne","lat":50.01827,"lng":18.57702},{"id":88856,"name":"Świerklany Górne","lat":50.02765,"lng":18.5905},{"id":88867,"name":"Świętochłowice","lat":50.29636,"lng":18.91726},{"id":88861,"name":"Świnna","lat":49.65802,"lng":19.25406},{"id":88282,"name":"Syrynia","lat":50.02004,"lng":18.34597},{"id":88295,"name":"Szczekociny","lat":50.62669,"lng":19.825},{"id":88297,"name":"Szczerbice","lat":50.09416,"lng":18.44896},{"id":88303,"name":"Szczyrk","lat":49.71724,"lng":19.03183},{"id":88364,"name":"Tarnowskie Góry","lat":50.44548,"lng":18.86147},{"id":88386,"name":"Toszek","lat":50.45442,"lng":18.52209},{"id":88392,"name":"Truskolasy","lat":50.86692,"lng":18.82705},{"id":88406,"name":"Trzebinia","lat":49.65024,"lng":19.22264},{"id":88427,"name":"Turza Śląska","lat":49.97231,"lng":18.43781},{"id":88433,"name":"Tworków","lat":50.00559,"lng":18.23576},{"id":88434,"name":"Tworóg","lat":50.531,"lng":18.71572},{"id":88436,"name":"Tychy","lat":50.13717,"lng":18.96641},{"id":88451,"name":"Ujsoły","lat":49.4829,"lng":19.13801},{"id":88464,"name":"Ustroń","lat":49.72153,"lng":18.80198},{"id":88638,"name":"Węgierska Górka","lat":49.60776,"lng":19.11638},{"id":88510,"name":"Wielowieś","lat":50.50966,"lng":18.61608},{"id":88513,"name":"Wieprz","lat":49.64746,"lng":19.18007},{"id":88527,"name":"Wieszowa","lat":50.38444,"lng":18.75924},{"id":88530,"name":"Wilamowice","lat":49.91701,"lng":19.15237},{"id":88532,"name":"Wilcza","lat":50.18899,"lng":18.59668},{"id":88538,"name":"Wilkowice","lat":49.76282,"lng":19.08973},{"id":88547,"name":"Wisła","lat":49.65629,"lng":18.8591},{"id":88651,"name":"Włodowice","lat":50.5556,"lng":19.45155},{"id":88569,"name":"Wodzisław Śląski","lat":50.00377,"lng":18.47205},{"id":88576,"name":"Wojkowice","lat":50.36509,"lng":19.03652},{"id":88581,"name":"Wola","lat":50.01745,"lng":19.12333},{"id":88603,"name":"Wożniki","lat":50.58934,"lng":19.05991},{"id":88609,"name":"Wręczyca Wielka","lat":50.84589,"lng":18.92086},{"id":88613,"name":"Wyry","lat":50.13296,"lng":18.90052},{"id":88618,"name":"Wysoka","lat":50.42989,"lng":19.35368},{"id":88662,"name":"Zabłocie","lat":49.90282,"lng":18.78147},{"id":88870,"name":"Żabnica","lat":49.58139,"lng":19.15621},{"id":88658,"name":"Zaborze","lat":49.87279,"lng":18.8037},{"id":88659,"name":"Zabrze","lat":50.32492,"lng":18.78576},{"id":88660,"name":"Zabrzeg","lat":49.91619,"lng":18.94292},{"id":88689,"name":"Zamarski","lat":49.78254,"lng":18.66972},{"id":88873,"name":"Żarki","lat":50.62518,"lng":19.36357},{"id":88875,"name":"Żarki-Letnisko","lat":50.62295,"lng":19.27508},{"id":88697,"name":"Zarzecze","lat":49.71932,"lng":19.17526},{"id":88704,"name":"Zawidów","lat":51.02546,"lng":15.06213},{"id":88705,"name":"Zawiercie","lat":50.48766,"lng":19.41679},{"id":88709,"name":"Zbrosławice","lat":50.41612,"lng":18.75443},{"id":88711,"name":"Zbytków","lat":49.92288,"lng":18.72697},{"id":88721,"name":"Zebrzydowice","lat":49.87793,"lng":18.61127},{"id":88885,"name":"Żernica","lat":50.2477,"lng":18.61547},{"id":88890,"name":"Żory","lat":50.04523,"lng":18.70062},{"id":88901,"name":"Żywiec","lat":49.68529,"lng":19.19243}]