[{"id":85777,"name":"Adamówka","lat":50.25857,"lng":22.69595},{"id":85778,"name":"Albigowa","lat":50.01425,"lng":22.22414},{"id":85789,"name":"Babica","lat":49.93476,"lng":21.87035},{"id":85796,"name":"Baligród","lat":49.3309,"lng":22.28566},{"id":85806,"name":"Baranów Sandomierski","lat":50.49912,"lng":21.54204},{"id":85825,"name":"Besko","lat":49.58757,"lng":21.95292},{"id":85842,"name":"Białobrzegi","lat":50.10252,"lng":22.31907},{"id":85857,"name":"Bieliny","lat":50.44237,"lng":22.30482},{"id":85872,"name":"Bircza","lat":49.69173,"lng":22.47854},{"id":85882,"name":"Blizne","lat":49.75332,"lng":21.97351},{"id":86015,"name":"Błażowa","lat":49.88521,"lng":22.10037},{"id":85898,"name":"Boguchwała","lat":49.98473,"lng":21.94528},{"id":85905,"name":"Bojanów","lat":50.42531,"lng":21.95111},{"id":85924,"name":"Borowa","lat":50.38548,"lng":21.3515},{"id":85967,"name":"Brzeźnica","lat":50.10065,"lng":21.48025},{"id":85970,"name":"Brzostek","lat":49.87954,"lng":21.41102},{"id":85975,"name":"Brzóza Królewska","lat":50.23908,"lng":22.32559},{"id":85976,"name":"Brzóza Stadnicka","lat":50.19965,"lng":22.28233},{"id":85972,"name":"Brzozów","lat":49.69501,"lng":22.01926},{"id":85974,"name":"Brzyska","lat":49.82226,"lng":21.39004},{"id":85992,"name":"Bukowsko","lat":49.48039,"lng":22.06329},{"id":86035,"name":"Chmielnik","lat":49.97386,"lng":22.14535},{"id":86051,"name":"Chorkówka","lat":49.64668,"lng":21.67156},{"id":86068,"name":"Chwałowice","lat":50.76665,"lng":21.88683},{"id":86086,"name":"Cieszanów","lat":50.24564,"lng":23.13163},{"id":86091,"name":"Cisna","lat":49.21328,"lng":22.32795},{"id":86095,"name":"Cmolas","lat":50.29526,"lng":21.74417},{"id":86104,"name":"Czarna","lat":50.06717,"lng":21.25614},{"id":86120,"name":"Czaszyn","lat":49.44854,"lng":22.2165},{"id":86127,"name":"Czermin","lat":50.33911,"lng":21.33356},{"id":86146,"name":"Czudec","lat":49.94487,"lng":21.84134},{"id":86247,"name":"Dębica","lat":50.05146,"lng":21.41141},{"id":86250,"name":"Dębno","lat":50.19811,"lng":22.51837},{"id":86257,"name":"Dębów","lat":50.0449,"lng":22.43614},{"id":86255,"name":"Dębowiec","lat":49.68374,"lng":21.46068},{"id":86258,"name":"Długie","lat":49.57866,"lng":22.04338},{"id":86185,"name":"Domaradz","lat":49.78675,"lng":21.94571},{"id":86204,"name":"Dubiecko","lat":49.82608,"lng":22.39117},{"id":86207,"name":"Dukla","lat":49.55554,"lng":21.68317},{"id":86211,"name":"Dydnia","lat":49.6864,"lng":22.17196},{"id":86213,"name":"Dynów","lat":49.81506,"lng":22.23388},{"id":86229,"name":"Dzików Stary","lat":50.24699,"lng":22.92984},{"id":86228,"name":"Dzikowiec","lat":50.27288,"lng":21.84365},{"id":86274,"name":"Fredropol","lat":49.69578,"lng":22.74625},{"id":86279,"name":"Frysztak","lat":49.84164,"lng":21.60942},{"id":86289,"name":"Gać","lat":50.02693,"lng":22.35898},{"id":86296,"name":"Giedlarowa","lat":50.22689,"lng":22.40593},{"id":86428,"name":"Głogów Małopolski","lat":50.15122,"lng":21.96287},{"id":86433,"name":"Głuchów","lat":50.08171,"lng":22.27135},{"id":86324,"name":"Golcowa","lat":49.77162,"lng":22.02501},{"id":86413,"name":"Górki","lat":49.64385,"lng":22.04304},{"id":86335,"name":"Gorliczyna","lat":50.09217,"lng":22.48764},{"id":86416,"name":"Górno","lat":50.28243,"lng":22.145},{"id":86338,"name":"Gorzyce","lat":50.12841,"lng":22.57926},{"id":86366,"name":"Grabownica Starzeńska","lat":49.65896,"lng":22.07754},{"id":86403,"name":"Grębów","lat":50.56536,"lng":21.87404},{"id":86377,"name":"Grodzisko Dolne","lat":50.16238,"lng":22.46292},{"id":86378,"name":"Grodzisko Górne","lat":50.1869,"lng":22.43786},{"id":86398,"name":"Grzęska","lat":50.08303,"lng":22.45399},{"id":86406,"name":"Gwoźnica Górna","lat":49.82791,"lng":21.99772},{"id":86438,"name":"Haczów","lat":49.66152,"lng":21.8979},{"id":86441,"name":"Handzlówka","lat":49.99527,"lng":22.22311},{"id":86442,"name":"Harasiuki","lat":50.47515,"lng":22.47288},{"id":86451,"name":"Horyniec-Zdrój","lat":50.19152,"lng":23.36277},{"id":86453,"name":"Humniska","lat":49.67507,"lng":22.05368},{"id":86454,"name":"Husów","lat":49.97971,"lng":22.28645},{"id":86456,"name":"Hyżne","lat":49.91769,"lng":22.18131},{"id":86464,"name":"Iwierzyce","lat":50.02958,"lng":21.75396},{"id":86466,"name":"Iwonicz-Zdrój","lat":49.56319,"lng":21.78992},{"id":86478,"name":"Jabłonica Polska","lat":49.69784,"lng":21.89961},{"id":86479,"name":"Jabłonka","lat":49.69417,"lng":22.11565},{"id":86490,"name":"Jagiełła","lat":50.0946,"lng":22.57261},{"id":86508,"name":"Jarocin","lat":50.56459,"lng":22.32121},{"id":86511,"name":"Jarosław","lat":50.01623,"lng":22.67776},{"id":86515,"name":"Jasienica Rosielna","lat":49.75144,"lng":21.94176},{"id":86519,"name":"Jasionów","lat":49.65841,"lng":21.97678},{"id":86539,"name":"Jaśliska","lat":49.44229,"lng":21.80795},{"id":86530,"name":"Jasło","lat":49.74506,"lng":21.47252},{"id":86532,"name":"Jawornik","lat":49.8464,"lng":21.89404},{"id":86534,"name":"Jawornik Polski","lat":49.89082,"lng":22.28868},{"id":86540,"name":"Jedlicze","lat":49.71749,"lng":21.64886},{"id":86559,"name":"Jeżowe","lat":50.37486,"lng":22.12749},{"id":86562,"name":"Jodłowa","lat":49.87229,"lng":21.27897},{"id":86563,"name":"Jodłówka","lat":49.8943,"lng":22.46653},{"id":86598,"name":"Kamień","lat":50.34064,"lng":22.13539},{"id":86629,"name":"Kańczuga","lat":49.98346,"lng":22.41168},{"id":86855,"name":"Kępie Żaleszańskie","lat":50.63983,"lng":21.88133},{"id":86632,"name":"Kielanówka","lat":50.02616,"lng":21.92905},{"id":86677,"name":"Kolbuszowa","lat":50.2441,"lng":21.7761},{"id":86741,"name":"Kołaczyce","lat":49.80743,"lng":21.43407},{"id":86685,"name":"Komańcza","lat":49.33922,"lng":22.06166},{"id":86747,"name":"Kończyce","lat":50.42575,"lng":22.15376},{"id":86692,"name":"Konieczkowa","lat":49.84208,"lng":21.9282},{"id":86702,"name":"Korczyna","lat":49.71555,"lng":21.80941},{"id":86711,"name":"Kosina","lat":50.07213,"lng":22.32903},{"id":86761,"name":"Kraczkowa","lat":50.03796,"lng":22.16801},{"id":86764,"name":"Kramarzówka","lat":49.86034,"lng":22.50137},{"id":86767,"name":"Krasiczyn","lat":49.77644,"lng":22.65252},{"id":86769,"name":"Krasne","lat":50.05626,"lng":22.08638},{"id":86778,"name":"Krempna","lat":49.51128,"lng":21.50042},{"id":86786,"name":"Krościenko Wyżne","lat":49.67946,"lng":21.82898},{"id":86782,"name":"Krosno","lat":49.68866,"lng":21.77058},{"id":86803,"name":"Krzeczowice","lat":49.9892,"lng":22.46378},{"id":86805,"name":"Krzemienica","lat":50.0621,"lng":22.18054},{"id":86810,"name":"Krzeszów","lat":50.40381,"lng":22.34241},{"id":86818,"name":"Krzywcza","lat":49.79894,"lng":22.54549},{"id":86841,"name":"Kuryłówka","lat":50.29976,"lng":22.46601},{"id":86873,"name":"Laszki","lat":50.0202,"lng":22.89997},{"id":86875,"name":"Lecka","lat":49.8786,"lng":22.01368},{"id":86881,"name":"Lesko","lat":49.4701,"lng":22.33042},{"id":86894,"name":"Leżajsk","lat":50.26257,"lng":22.41932},{"id":86911,"name":"Lipnica","lat":50.28939,"lng":21.88811},{"id":86930,"name":"Lubaczów","lat":50.157,"lng":23.12339},{"id":86937,"name":"Lubenia","lat":49.93078,"lng":21.92665},{"id":86969,"name":"Lutoryż","lat":49.96712,"lng":21.9124},{"id":86970,"name":"Lutowiska","lat":49.25318,"lng":22.69252},{"id":88777,"name":"Łańcut","lat":50.06871,"lng":22.22912},{"id":88822,"name":"Łęki","lat":49.80996,"lng":21.66023},{"id":88823,"name":"Łęki Dolne","lat":49.97386,"lng":21.24739},{"id":88824,"name":"Łęki Górne","lat":49.97386,"lng":21.17426},{"id":88827,"name":"Łętownia","lat":50.32481,"lng":22.23401},{"id":88789,"name":"Łopuszka Wielka","lat":49.93454,"lng":22.39305},{"id":86981,"name":"Majdan Królewski","lat":50.37935,"lng":21.74615},{"id":86989,"name":"Manasterz","lat":49.9352,"lng":22.34602},{"id":86995,"name":"Markowa","lat":50.02633,"lng":22.3316},{"id":87013,"name":"Medyka","lat":49.80526,"lng":22.92229},{"id":87033,"name":"Miejsce Piastowe","lat":49.6344,"lng":21.78735},{"id":87035,"name":"Mielec","lat":50.28709,"lng":21.4239},{"id":87054,"name":"Mirocin","lat":50.04237,"lng":22.55596},{"id":87139,"name":"Narol","lat":50.34925,"lng":23.32679},{"id":87147,"name":"Niebieszczany","lat":49.50348,"lng":22.15651},{"id":87148,"name":"Niebocko","lat":49.67774,"lng":22.10484},{"id":87150,"name":"Niebylec","lat":49.85669,"lng":21.90348},{"id":87152,"name":"Niechobrz","lat":49.99472,"lng":21.87824},{"id":87158,"name":"Niedźwiada","lat":49.98937,"lng":21.52162},{"id":87165,"name":"Nienadowa","lat":49.82901,"lng":22.42704},{"id":87169,"name":"Nisko","lat":50.51987,"lng":22.13968},{"id":87170,"name":"Niwiska","lat":50.22492,"lng":21.63036},{"id":87171,"name":"Nowa Dęba","lat":50.42974,"lng":21.75078},{"id":87174,"name":"Nowa Sarzyna","lat":50.32086,"lng":22.34456},{"id":87190,"name":"Nowe Sioło","lat":50.23194,"lng":23.15884},{"id":87199,"name":"Nowosielce","lat":50.05747,"lng":22.41056},{"id":87200,"name":"Nowosielce-Gniewosz","lat":49.56842,"lng":22.06947},{"id":87210,"name":"Nowy Żmigród","lat":49.60353,"lng":21.52376},{"id":87211,"name":"Nozdrzec","lat":49.77323,"lng":22.19865},{"id":87229,"name":"Odrzykoń","lat":49.74057,"lng":21.74074},{"id":87239,"name":"Oleszyce","lat":50.1675,"lng":23.03481},{"id":87244,"name":"Olszanica","lat":49.47741,"lng":22.44382},{"id":87275,"name":"Orły","lat":49.87107,"lng":22.80298},{"id":87272,"name":"Orzechówka","lat":49.7308,"lng":21.94519},{"id":87288,"name":"Osiek Jasielski","lat":49.63784,"lng":21.4884},{"id":87308,"name":"Ostrów","lat":49.96812,"lng":22.7871},{"id":87334,"name":"Padew Narodowa","lat":50.43947,"lng":21.50059},{"id":87343,"name":"Pantalowice","lat":49.9521,"lng":22.43563},{"id":87356,"name":"Pawłosiów","lat":49.99533,"lng":22.64763},{"id":87391,"name":"Pilzno","lat":49.97883,"lng":21.29228},{"id":87397,"name":"Piskorowice","lat":50.23579,"lng":22.52867},{"id":87433,"name":"Polańczyk","lat":49.36969,"lng":22.42112},{"id":87778,"name":"Połomia","lat":49.90475,"lng":21.89198},{"id":87444,"name":"Poraż","lat":49.48597,"lng":22.225},{"id":87794,"name":"Pruchnik","lat":49.9062,"lng":22.51554},{"id":87804,"name":"Przecław","lat":50.19339,"lng":21.48007},{"id":87808,"name":"Przedmieście Dubieckie","lat":49.8371,"lng":22.37177},{"id":87836,"name":"Przędzel","lat":50.49465,"lng":22.21925},{"id":87812,"name":"Przemyśl","lat":49.78498,"lng":22.76728},{"id":87816,"name":"Przeworsk","lat":50.05912,"lng":22.49408},{"id":87823,"name":"Przybyszówka","lat":50.04788,"lng":21.92579},{"id":87857,"name":"Pysznica","lat":50.56999,"lng":22.12913},{"id":87876,"name":"Racławice","lat":50.5137,"lng":22.16552},{"id":87887,"name":"Radomyśl","lat":50.68101,"lng":21.94365},{"id":87888,"name":"Radomyśl Wielki","lat":50.19693,"lng":21.27693},{"id":87893,"name":"Radymno","lat":49.9472,"lng":22.82375},{"id":87910,"name":"Rakszawa","lat":50.16051,"lng":22.23907},{"id":87912,"name":"Raniżów","lat":50.25873,"lng":21.97137},{"id":87950,"name":"Rogóźno","lat":50.07367,"lng":22.37486},{"id":87956,"name":"Rokietnica","lat":49.89983,"lng":22.64171},{"id":87961,"name":"Ropczyce","lat":50.05229,"lng":21.60891},{"id":87963,"name":"Rozbórz","lat":50.05615,"lng":22.54686},{"id":87976,"name":"Rudna Mała","lat":50.09889,"lng":21.96021},{"id":87977,"name":"Rudna Wielka","lat":50.08799,"lng":21.94759},{"id":87981,"name":"Rudnik nad Sanem","lat":50.44152,"lng":22.24856},{"id":88009,"name":"Rymanów","lat":49.57649,"lng":21.86811},{"id":88020,"name":"Rzepedź","lat":49.36997,"lng":22.11174},{"id":88024,"name":"Rzeszów","lat":50.00545,"lng":21.98848},{"id":88049,"name":"Sanok","lat":49.55573,"lng":22.2056},{"id":88329,"name":"Sędziszów Małopolski","lat":50.07069,"lng":21.70062},{"id":88066,"name":"Siedleczka","lat":49.96061,"lng":22.37949},{"id":88068,"name":"Siedliska","lat":49.95409,"lng":21.94742},{"id":88077,"name":"Sieniawa","lat":50.1779,"lng":22.60954},{"id":88092,"name":"Sietesz","lat":49.98622,"lng":22.34671},{"id":88114,"name":"Skołyszyn","lat":49.74955,"lng":21.33665},{"id":88343,"name":"Słotowa","lat":49.94603,"lng":21.29425},{"id":88136,"name":"Sokolniki","lat":50.63803,"lng":21.80649},{"id":88139,"name":"Sokołów Małopolski","lat":50.22909,"lng":22.11968},{"id":88147,"name":"Sonina","lat":50.06089,"lng":22.26551},{"id":88157,"name":"Sośnica","lat":49.90083,"lng":22.87469},{"id":88165,"name":"Stalowa Wola","lat":50.58286,"lng":22.05334},{"id":88178,"name":"Stara Wieś","lat":49.71505,"lng":22.00441},{"id":88186,"name":"Stare Miasto","lat":50.28879,"lng":22.42928},{"id":88210,"name":"Strachocina","lat":49.60815,"lng":22.08836},{"id":88212,"name":"Straszydle","lat":49.90038,"lng":21.98124},{"id":88236,"name":"Strzyżów","lat":49.87074,"lng":21.79413},{"id":88238,"name":"Stubno","lat":49.89806,"lng":22.95602},{"id":88859,"name":"Świlcza","lat":50.07179,"lng":21.89798},{"id":88359,"name":"Tarnobrzeg","lat":50.57304,"lng":21.67937},{"id":88362,"name":"Tarnowiec","lat":49.73108,"lng":21.57663},{"id":88393,"name":"Tryńcza","lat":50.16087,"lng":22.55008},{"id":88394,"name":"Trzciana","lat":50.0719,"lng":21.8385},{"id":88398,"name":"Trzcinica","lat":49.74301,"lng":21.4175},{"id":88409,"name":"Trzebownisko","lat":50.07829,"lng":22.03712},{"id":88428,"name":"Turze Pole","lat":49.66329,"lng":22.00476},{"id":88437,"name":"Tyczyn","lat":49.96384,"lng":22.03398},{"id":88442,"name":"Tyrawa Wołoska","lat":49.57744,"lng":22.36988},{"id":88448,"name":"Uherce Mineralne","lat":49.46455,"lng":22.39829},{"id":88453,"name":"Ulanów","lat":50.49031,"lng":22.26362},{"id":88460,"name":"Urzejowice","lat":50.01182,"lng":22.46189},{"id":88465,"name":"Ustrzyki Dolne","lat":49.4304,"lng":22.59381},{"id":88470,"name":"Wadowice Górne","lat":50.26312,"lng":21.30215},{"id":88492,"name":"Wesoła","lat":49.79977,"lng":22.10029},{"id":88555,"name":"Wiązownica","lat":50.08066,"lng":22.70668},{"id":88508,"name":"Wielkie Oczy","lat":50.02357,"lng":23.16407},{"id":88509,"name":"Wielopole Skrzyńskie","lat":49.94564,"lng":21.61491},{"id":88516,"name":"Wierzawice","lat":50.23623,"lng":22.4509},{"id":88519,"name":"Wierzbna","lat":50.03311,"lng":22.60128},{"id":88564,"name":"Wiśniowa","lat":49.86897,"lng":21.65508},{"id":88571,"name":"Wojaszówka","lat":49.77777,"lng":21.67079},{"id":88592,"name":"Wola Żarczycka","lat":50.2912,"lng":22.25023},{"id":88627,"name":"Wólka Niedźwiedzka","lat":50.24226,"lng":22.18826},{"id":88628,"name":"Wólka Pełkińska","lat":50.09553,"lng":22.62342},{"id":88629,"name":"Wólka Podleśna","lat":50.11785,"lng":22.11213},{"id":88630,"name":"Wólka Tanewska","lat":50.50005,"lng":22.26113},{"id":88615,"name":"Wysoka","lat":50.04474,"lng":22.26002},{"id":88619,"name":"Wysoka Głogowska","lat":50.16019,"lng":22.02124},{"id":88620,"name":"Wysoka Strzyżowska","lat":49.83056,"lng":21.74074},{"id":88669,"name":"Zagórz","lat":49.51457,"lng":22.26706},{"id":88671,"name":"Zagórzyce","lat":50.0169,"lng":21.67517},{"id":88674,"name":"Zaklików","lat":50.75769,"lng":22.10226},{"id":88684,"name":"Zalesie","lat":50.01226,"lng":22.53262},{"id":88687,"name":"Zaleszany","lat":50.64799,"lng":21.89069},{"id":88695,"name":"Zarszyn","lat":49.58178,"lng":22.01283},{"id":88696,"name":"Zarzecze","lat":50.52767,"lng":22.19522},{"id":88718,"name":"Zdziechowice Drugie","lat":50.78478,"lng":22.10999},{"id":88727,"name":"Zgłobień","lat":50.0127,"lng":21.8549},{"id":88732,"name":"Zmiennica","lat":49.67652,"lng":21.96596},{"id":88891,"name":"Żołynia","lat":50.162,"lng":22.30825},{"id":88893,"name":"Żurawica","lat":49.82348,"lng":22.78925},{"id":88894,"name":"Żurawiczki","lat":50.0137,"lng":22.49949},{"id":88898,"name":"Żyraków","lat":50.08545,"lng":21.39622}]