[{"id":85810,"name":"Bardo","lat":50.50589,"lng":16.73986},{"id":85853,"name":"Bielany Wrocławskie","lat":51.0361,"lng":16.9677},{"id":85854,"name":"Bielawa","lat":50.69075,"lng":16.623},{"id":85866,"name":"Bierutów","lat":51.12443,"lng":17.54607},{"id":85875,"name":"Biskupin","lat":51.10097,"lng":17.10442},{"id":85895,"name":"Bogatynia","lat":50.90747,"lng":14.95634},{"id":85899,"name":"Boguszów-Gorce","lat":50.75514,"lng":16.20494},{"id":85911,"name":"Bolesławiec","lat":51.26418,"lng":15.5697},{"id":85914,"name":"Bolków","lat":50.92203,"lng":16.10111},{"id":85932,"name":"Bozkow","lat":50.51315,"lng":16.57528},{"id":85959,"name":"Brzeg Dolny","lat":51.27299,"lng":16.70815},{"id":85985,"name":"Budzów","lat":50.59337,"lng":16.71038},{"id":86002,"name":"Bystrzyca","lat":50.96048,"lng":17.39702},{"id":86003,"name":"Bystrzyca Kłodzka","lat":50.30179,"lng":16.64231},{"id":86039,"name":"Chocianów","lat":51.41867,"lng":15.90172},{"id":86050,"name":"Chojnów","lat":51.27373,"lng":15.93661},{"id":86080,"name":"Ciechów","lat":51.13218,"lng":16.56773},{"id":86084,"name":"Cieplice Śląskie Zdrój","lat":50.86545,"lng":15.68367},{"id":86085,"name":"Ciepłowody","lat":50.67477,"lng":16.90871},{"id":86087,"name":"Cieszków","lat":51.63104,"lng":17.35726},{"id":86117,"name":"Czarny Bór","lat":50.77083,"lng":16.1305},{"id":86129,"name":"Czernica","lat":51.04609,"lng":17.2451},{"id":86235,"name":"Dąbie","lat":51.10573,"lng":17.08108},{"id":86261,"name":"Długołęka","lat":51.17902,"lng":17.19137},{"id":86174,"name":"Dobroszyce","lat":51.26776,"lng":17.34205},{"id":86209,"name":"Duszniki-Zdrój","lat":50.40327,"lng":16.39091},{"id":86215,"name":"Dziadowa Kłoda","lat":51.23543,"lng":17.70919},{"id":86227,"name":"Dziećmorowice","lat":50.76947,"lng":16.35212},{"id":86225,"name":"Dzierżoniów","lat":50.7282,"lng":16.65141},{"id":86423,"name":"Gądów Mały","lat":51.11853,"lng":16.98596},{"id":86288,"name":"Gaworzyce","lat":51.62773,"lng":15.88198},{"id":86427,"name":"Głogów","lat":51.66361,"lng":16.0845},{"id":86435,"name":"Głuszyca","lat":50.68743,"lng":16.37173},{"id":86436,"name":"Głuszyca Górna","lat":50.66606,"lng":16.37585},{"id":86309,"name":"Gniechowice","lat":50.98804,"lng":16.83363},{"id":86408,"name":"Góra","lat":51.66638,"lng":16.53494},{"id":86363,"name":"Grabiszyn","lat":51.09369,"lng":16.97819},{"id":86364,"name":"Grabiszynek","lat":51.08703,"lng":16.98629},{"id":86401,"name":"Grębocice","lat":51.59909,"lng":16.16741},{"id":86380,"name":"Gromadka","lat":51.36063,"lng":15.76452},{"id":86392,"name":"Gryfów Śląski","lat":51.03081,"lng":15.42017},{"id":86447,"name":"Henryków","lat":50.65327,"lng":17.01027},{"id":86499,"name":"Janowice Wielkie","lat":50.87569,"lng":15.92322},{"id":86507,"name":"Jarnołtów-Jerzmanowo","lat":51.12163,"lng":16.86621},{"id":86531,"name":"Jawor","lat":51.05132,"lng":16.19347},{"id":86537,"name":"Jaworzyna Śląska","lat":50.9134,"lng":16.43241},{"id":86541,"name":"Jedlina-Zdrój","lat":50.72005,"lng":16.34645},{"id":86548,"name":"Jelcz","lat":51.02102,"lng":17.32095},{"id":86549,"name":"Jelcz Laskowice","lat":51.02134,"lng":17.31649},{"id":86550,"name":"Jelenia Góra","lat":50.89973,"lng":15.72899},{"id":86561,"name":"Jeżów Sudecki","lat":50.93507,"lng":15.74306},{"id":86569,"name":"Jordanów Śląski","lat":50.86421,"lng":16.86873},{"id":86570,"name":"Jugów","lat":50.62758,"lng":16.51812},{"id":86594,"name":"Kamieniec Wrocławski","lat":51.07182,"lng":17.18193},{"id":86595,"name":"Kamieniec Ząbkowicki","lat":50.52541,"lng":16.87921},{"id":86596,"name":"Kamienna Góra","lat":50.78314,"lng":16.03037},{"id":86618,"name":"Karłowice","lat":51.14132,"lng":17.05212},{"id":86615,"name":"Karpacz","lat":50.77669,"lng":15.75594},{"id":86852,"name":"Kąty Wrocławskie","lat":51.03098,"lng":16.76767},{"id":86636,"name":"Kiełczów","lat":51.13999,"lng":17.17798},{"id":86866,"name":"Kłodzko","lat":50.43488,"lng":16.66145},{"id":86661,"name":"Kobierzyce","lat":50.97054,"lng":16.93508},{"id":86722,"name":"Kotla","lat":51.74542,"lng":16.03575},{"id":86729,"name":"Kowale-Popiele","lat":51.1309,"lng":17.10175},{"id":86731,"name":"Kowary","lat":50.79313,"lng":15.83559},{"id":86733,"name":"Kozanów","lat":51.14447,"lng":16.96937},{"id":86789,"name":"Krośnice","lat":51.47641,"lng":17.35917},{"id":86811,"name":"Krzeszów","lat":50.73434,"lng":16.06991},{"id":86813,"name":"Krzyki","lat":51.07085,"lng":16.99475},{"id":86831,"name":"Księże Małe-Księże Wielkie","lat":51.07293,"lng":17.08881},{"id":86835,"name":"Kudowa-Zdrój","lat":50.44297,"lng":16.24397},{"id":86837,"name":"Kunice","lat":51.22231,"lng":16.24809},{"id":86977,"name":"Lądek-Zdrój","lat":50.34371,"lng":16.87946},{"id":86877,"name":"Legnica","lat":51.21006,"lng":16.1619},{"id":86878,"name":"Legnickie Pole","lat":51.14419,"lng":16.24208},{"id":86889,"name":"Leśna","lat":51.02431,"lng":15.26413},{"id":86893,"name":"Leśnica-Ratyń-Pustki","lat":51.14228,"lng":16.84773},{"id":86886,"name":"Lewin Kłodzki","lat":50.40559,"lng":16.29101},{"id":86936,"name":"Lubań","lat":51.12014,"lng":15.28768},{"id":86935,"name":"Lubawka","lat":50.70456,"lng":16.00026},{"id":86944,"name":"Lubin","lat":51.40089,"lng":16.20149},{"id":86953,"name":"Lubomierz","lat":51.01278,"lng":15.50969},{"id":86963,"name":"Ludwikowice Kłodzkie","lat":50.62464,"lng":16.46052},{"id":86974,"name":"Lwówek Śląski","lat":51.11074,"lng":15.58582},{"id":88758,"name":"Łagiewniki","lat":50.79088,"lng":16.84457},{"id":88760,"name":"Łagów","lat":51.15835,"lng":15.04372},{"id":86987,"name":"Malczyce","lat":51.22038,"lng":16.49365},{"id":86991,"name":"Marciszów","lat":50.8447,"lng":16.02116},{"id":86998,"name":"Marszowice","lat":51.17198,"lng":16.88441},{"id":87011,"name":"Maślice Małe","lat":51.14937,"lng":16.94191},{"id":87012,"name":"Maślice Wielkie","lat":51.16333,"lng":16.92837},{"id":87060,"name":"Międzybórz","lat":51.39626,"lng":17.6661},{"id":87063,"name":"Międzylesie","lat":50.14778,"lng":16.66712},{"id":87068,"name":"Miękinia","lat":51.18844,"lng":16.73595},{"id":87038,"name":"Mieroszów","lat":50.66589,"lng":16.18883},{"id":87050,"name":"Milicz","lat":51.5277,"lng":17.27137},{"id":87071,"name":"Miłkowice","lat":51.25601,"lng":16.07231},{"id":87053,"name":"Mirków","lat":51.16105,"lng":17.17026},{"id":87056,"name":"Mirsk","lat":50.97054,"lng":15.38567},{"id":87103,"name":"Mrozów","lat":51.18817,"lng":16.78831},{"id":87120,"name":"Mysłakowice","lat":50.84123,"lng":15.77894},{"id":87163,"name":"Niemcza","lat":50.72007,"lng":16.83573},{"id":87173,"name":"Nowa Ruda","lat":50.58008,"lng":16.50164},{"id":87195,"name":"Nowogrodziec","lat":51.19543,"lng":15.39854},{"id":87217,"name":"Oborniki Śląskie","lat":51.30137,"lng":16.91465},{"id":87241,"name":"Oleśnica","lat":51.21338,"lng":17.38986},{"id":87245,"name":"Olszanica","lat":51.20672,"lng":15.8004},{"id":87250,"name":"Olszyna","lat":51.0671,"lng":15.37228},{"id":87322,"name":"Oława","lat":50.9466,"lng":17.2926},{"id":87280,"name":"Osiedle Henrykowskie","lat":51.08999,"lng":17.05289},{"id":87281,"name":"Osiedle Kosmonautów","lat":51.12753,"lng":16.96186},{"id":87286,"name":"Osiek","lat":51.36717,"lng":16.2338},{"id":87298,"name":"Ostroszowice","lat":50.64576,"lng":16.63965},{"id":87348,"name":"Partynice","lat":51.06798,"lng":17.01394},{"id":87352,"name":"Paszowice","lat":51.01078,"lng":16.15273},{"id":87358,"name":"Pawłowice-Kłokoczyce","lat":51.16495,"lng":17.09822},{"id":87373,"name":"Piechowice","lat":50.84963,"lng":15.59887},{"id":87386,"name":"Pieńsk","lat":51.249,"lng":15.04685},{"id":87383,"name":"Pieszyce","lat":50.71287,"lng":16.58232},{"id":87389,"name":"Pilczyce","lat":51.13704,"lng":16.95752},{"id":87404,"name":"Piława Górna","lat":50.68357,"lng":16.74359},{"id":87396,"name":"Pisarzowice","lat":51.14479,"lng":15.23057},{"id":87416,"name":"Podgórzyn","lat":50.83261,"lng":15.68161},{"id":87430,"name":"Polanica-Zdrój","lat":50.40373,"lng":16.51271},{"id":87436,"name":"Polkowice","lat":51.50391,"lng":16.07261},{"id":87782,"name":"Poświętne","lat":51.15702,"lng":17.02904},{"id":87771,"name":"Powstańców Śląskich Wschód","lat":51.09164,"lng":17.0247},{"id":87772,"name":"Powstańców Śląskich Zachód-Centrum Południow","lat":51.09607,"lng":17.0177},{"id":87784,"name":"Pracze Odrzańskie-Janówek","lat":51.1878,"lng":16.90824},{"id":87789,"name":"Prochowice","lat":51.27307,"lng":16.36532},{"id":87796,"name":"Prusice","lat":51.37116,"lng":16.96025},{"id":87811,"name":"Przemków","lat":51.5253,"lng":15.79441},{"id":87815,"name":"Przeworno","lat":50.68629,"lng":17.16588},{"id":87839,"name":"Psary","lat":51.18712,"lng":17.03173},{"id":87841,"name":"Psie Pole Południe-Kiełczów","lat":51.14783,"lng":17.12744},{"id":87881,"name":"Radków","lat":50.50426,"lng":16.40061},{"id":87892,"name":"Radwanice","lat":51.05413,"lng":17.10932},{"id":87917,"name":"Ratowice","lat":51.03308,"lng":17.27205},{"id":87925,"name":"Rejon alei Kromera","lat":51.13375,"lng":17.07107},{"id":87926,"name":"Rejon placu Grunwaldzkiego","lat":51.11669,"lng":17.06126},{"id":87927,"name":"Rejon placu Świętego Macieja","lat":51.12056,"lng":17.03761},{"id":87928,"name":"Rejon ulicy Borowskiej-Południe","lat":51.0766,"lng":17.02582},{"id":87929,"name":"Rejon ulicy Klęczkowskiej","lat":51.1297,"lng":17.03376},{"id":87930,"name":"Rejon ulicy Mieleckiej","lat":51.09145,"lng":17.00207},{"id":87931,"name":"Rejon ulicy Saperów","lat":51.08614,"lng":17.0005},{"id":87932,"name":"Rejon ulicy Traugutta","lat":51.10247,"lng":17.04827},{"id":88034,"name":"Różanka-Polanka","lat":51.14344,"lng":17.01987},{"id":87975,"name":"Rudna","lat":51.50981,"lng":16.26363},{"id":88829,"name":"Ścinawa","lat":51.41626,"lng":16.4251},{"id":88331,"name":"Sępolno","lat":51.10995,"lng":17.102},{"id":88063,"name":"Siechnice","lat":51.03384,"lng":17.14743},{"id":88070,"name":"Siekierczyn","lat":51.12217,"lng":15.19375},{"id":88125,"name":"Smolec","lat":51.07322,"lng":16.88221},{"id":88133,"name":"Sobótka","lat":50.89992,"lng":16.74441},{"id":88155,"name":"Sołtysowice","lat":51.15282,"lng":17.07103},{"id":88154,"name":"Sosnówka","lat":50.8183,"lng":15.72315},{"id":88839,"name":"Środa Śląska","lat":51.16406,"lng":16.59508},{"id":88164,"name":"Stabłowice","lat":51.15375,"lng":16.9002},{"id":88172,"name":"Stanowice","lat":50.93106,"lng":16.37426},{"id":88175,"name":"Stara Kamienica","lat":50.91602,"lng":15.57286},{"id":88182,"name":"Stare Bogaczowice","lat":50.84752,"lng":16.19308},{"id":88208,"name":"Stoszowice","lat":50.59986,"lng":16.73896},{"id":88209,"name":"Strachocin-Wojnów","lat":51.10486,"lng":17.15073},{"id":88217,"name":"Stronie Śląskie","lat":50.29554,"lng":16.87397},{"id":88224,"name":"Strzegom","lat":50.96264,"lng":16.35006},{"id":88231,"name":"Strzelin","lat":50.78157,"lng":17.06477},{"id":88259,"name":"Sulików","lat":51.07624,"lng":15.06792},{"id":88274,"name":"Sułów","lat":51.49966,"lng":17.16811},{"id":88842,"name":"Świdnica","lat":50.84378,"lng":16.48859},{"id":88845,"name":"Świebodzice","lat":50.85974,"lng":16.31966},{"id":88851,"name":"Świeradów-Zdrój","lat":50.9092,"lng":15.34309},{"id":88857,"name":"Świerzawa","lat":51.01375,"lng":15.89516},{"id":88865,"name":"Święta Katarzyna","lat":51.02596,"lng":17.11464},{"id":88277,"name":"Swojczyce","lat":51.11567,"lng":17.12535},{"id":88278,"name":"Syców","lat":51.30814,"lng":17.71979},{"id":88291,"name":"Szczawno-Zdrój","lat":50.80352,"lng":16.25655},{"id":88296,"name":"Szczepanów","lat":51.19796,"lng":16.61064},{"id":88304,"name":"Szczytna","lat":50.41343,"lng":16.44743},{"id":88310,"name":"Szklarska Poręba","lat":50.82567,"lng":15.52274},{"id":88408,"name":"Trzebnica","lat":51.31076,"lng":17.06331},{"id":88432,"name":"Twardogóra","lat":51.36487,"lng":17.46878},{"id":88441,"name":"Tyniec Mały","lat":51.01948,"lng":16.91998},{"id":88446,"name":"Uciechów","lat":50.75487,"lng":16.68175},{"id":88447,"name":"Udanin","lat":51.0374,"lng":16.45469},{"id":88475,"name":"Walim","lat":50.69749,"lng":16.44482},{"id":88487,"name":"Wałbrzych","lat":50.77141,"lng":16.28432},{"id":88636,"name":"Wąsosz","lat":51.56224,"lng":16.69059},{"id":88639,"name":"Węgliniec","lat":51.28753,"lng":15.22894},{"id":88556,"name":"Wiązów","lat":50.81399,"lng":17.20214},{"id":88495,"name":"Widawa-Lipa Piotrowska-Polanowice","lat":51.17093,"lng":17.02164},{"id":88521,"name":"Wierzbno","lat":50.93674,"lng":17.17961},{"id":88535,"name":"Wilczyce","lat":51.12944,"lng":17.15472},{"id":88543,"name":"Wilków","lat":51.09212,"lng":15.92824},{"id":88559,"name":"Wińsko","lat":51.47032,"lng":16.6139},{"id":88565,"name":"Wleń","lat":51.01635,"lng":15.67474},{"id":88575,"name":"Wojcieszów","lat":50.95194,"lng":15.92185},{"id":88578,"name":"Wojszyce","lat":51.05837,"lng":17.04513},{"id":88601,"name":"Wołów","lat":51.33656,"lng":16.64429},{"id":88604,"name":"Wrocław","lat":51.1081,"lng":17.03859},{"id":88739,"name":"Ząbkowice Śląskie","lat":50.58969,"lng":16.81239},{"id":88664,"name":"Zacisze","lat":51.12303,"lng":17.07465},{"id":88667,"name":"Zagrodno","lat":51.19134,"lng":15.86533},{"id":88681,"name":"Zakrzów","lat":51.16624,"lng":17.13688},{"id":88686,"name":"Zalesie i Stadion","lat":51.1197,"lng":17.09194},{"id":88878,"name":"Żarów","lat":50.94116,"lng":16.49466},{"id":88886,"name":"Żerniki Wrocławskie","lat":51.03308,"lng":17.05662},{"id":88725,"name":"Zgorzelec","lat":51.14942,"lng":15.00835},{"id":88726,"name":"Zgorzelisko","lat":51.13833,"lng":17.13365},{"id":88731,"name":"Ziębice","lat":50.60122,"lng":17.04065},{"id":88747,"name":"Złotniki","lat":51.13769,"lng":16.88923},{"id":88749,"name":"Złotoryja","lat":51.12637,"lng":15.91979},{"id":88750,"name":"Złoty Stok","lat":50.44472,"lng":16.87586},{"id":88887,"name":"Żmigród","lat":51.46672,"lng":16.90564},{"id":88902,"name":"Żórawina","lat":50.9808,"lng":17.03671}]