[{"id":85780,"name":"Aleksandrów","lat":51.27126,"lng":19.99005},{"id":85782,"name":"Aleksandrów Łódzki","lat":51.81965,"lng":19.30384},{"id":85784,"name":"Andrespol","lat":51.72783,"lng":19.64175},{"id":86012,"name":"Będków","lat":51.58763,"lng":19.74956},{"id":85822,"name":"Bedlno","lat":52.20829,"lng":19.57592},{"id":85828,"name":"Bełchatów","lat":51.36883,"lng":19.35671},{"id":85837,"name":"Biała Rawska","lat":51.80779,"lng":20.47259},{"id":85838,"name":"Białaczów","lat":51.29815,"lng":20.29724},{"id":85855,"name":"Bielawy","lat":52.07539,"lng":19.65557},{"id":86014,"name":"Błaszki","lat":51.65163,"lng":18.43472},{"id":85888,"name":"Bobrowniki","lat":52.06442,"lng":20.01949},{"id":85912,"name":"Bolesławiec","lat":51.19866,"lng":18.19147},{"id":85913,"name":"Bolimów","lat":52.07671,"lng":20.16352},{"id":85980,"name":"Brąszewice","lat":51.49902,"lng":18.44982},{"id":85978,"name":"Brójce","lat":51.66436,"lng":19.64802},{"id":85964,"name":"Brzeziny","lat":51.80023,"lng":19.75144},{"id":85969,"name":"Brzeźnio","lat":51.494,"lng":18.62234},{"id":85981,"name":"Buczek","lat":51.50228,"lng":19.16419},{"id":85983,"name":"Budziszewice","lat":51.66739,"lng":19.93581},{"id":85995,"name":"Burzenin","lat":51.46077,"lng":18.83233},{"id":86072,"name":"Chąśno","lat":52.19535,"lng":19.94259},{"id":86082,"name":"Cielądz","lat":51.71576,"lng":20.34428},{"id":86114,"name":"Czarnocin","lat":51.59142,"lng":19.68158},{"id":86116,"name":"Czarnożyły","lat":51.28533,"lng":18.56106},{"id":86119,"name":"Czastary","lat":51.25869,"lng":18.31953},{"id":86135,"name":"Czerniewice","lat":51.65419,"lng":20.15553},{"id":86243,"name":"Dąbrowice","lat":52.31142,"lng":19.08437},{"id":86155,"name":"Dalików","lat":51.88476,"lng":19.11904},{"id":86160,"name":"Daszyna","lat":52.15503,"lng":19.18153},{"id":86262,"name":"Dłutów","lat":51.55936,"lng":19.39198},{"id":86163,"name":"Dmosin","lat":51.92437,"lng":19.75934},{"id":86175,"name":"Dobroń","lat":51.63885,"lng":19.24539},{"id":86184,"name":"Domaniewice","lat":52.00623,"lng":19.80294},{"id":86201,"name":"Drużbice","lat":51.46369,"lng":19.39404},{"id":86202,"name":"Drzewica","lat":51.45085,"lng":20.47701},{"id":86218,"name":"Działoszyn","lat":51.11699,"lng":18.86524},{"id":86280,"name":"Galewice","lat":51.34471,"lng":18.25756},{"id":86290,"name":"Gałków Mały","lat":51.72554,"lng":19.71359},{"id":86294,"name":"Gidle","lat":50.96199,"lng":19.47181},{"id":86430,"name":"Głowno","lat":51.96463,"lng":19.71565},{"id":86434,"name":"Głuchów","lat":51.77947,"lng":20.07666},{"id":86318,"name":"Godzianów","lat":51.89694,"lng":20.03589},{"id":86330,"name":"Gomunice","lat":51.1689,"lng":19.49335},{"id":86411,"name":"Góra Świętej Małgorzaty","lat":52.05713,"lng":19.31997},{"id":86336,"name":"Gorzkowice","lat":51.21533,"lng":19.59626},{"id":86348,"name":"Goszczanów","lat":51.79163,"lng":18.5057},{"id":86362,"name":"Grabica","lat":51.47989,"lng":19.53137},{"id":86368,"name":"Grabów","lat":52.12717,"lng":19.00257},{"id":86460,"name":"Inowłódz","lat":51.52717,"lng":20.223},{"id":86560,"name":"Jeżów","lat":51.81376,"lng":19.96877},{"id":86602,"name":"Kamieńsk","lat":51.20242,"lng":19.49661},{"id":86623,"name":"Kawęczyn Nowy","lat":51.88597,"lng":20.24703},{"id":86634,"name":"Kiernozia","lat":52.26858,"lng":19.87092},{"id":86648,"name":"Kleszczów","lat":51.22355,"lng":19.30418},{"id":86652,"name":"Klonowa","lat":51.41928,"lng":18.41815},{"id":86655,"name":"Kluki","lat":51.34187,"lng":19.23938},{"id":86671,"name":"Kocierzew Południowy","lat":52.21728,"lng":20.01812},{"id":86682,"name":"Koluszki","lat":51.73872,"lng":19.81994},{"id":86698,"name":"Konstantynów Łódzki","lat":51.74776,"lng":19.32564},{"id":86732,"name":"Kowiesy","lat":51.88942,"lng":20.41929},{"id":86790,"name":"Krośniewice","lat":52.25592,"lng":19.17037},{"id":86823,"name":"Krzyżanów","lat":52.18409,"lng":19.45619},{"id":86828,"name":"Ksawerów","lat":51.68288,"lng":19.4028},{"id":86844,"name":"Kutno","lat":52.23064,"lng":19.36409},{"id":86895,"name":"Lgota Wielka","lat":51.14904,"lng":19.32735},{"id":86905,"name":"Lipce Reymontowskie","lat":51.89863,"lng":19.94173},{"id":86950,"name":"Lubochnia","lat":51.60794,"lng":20.05391},{"id":86968,"name":"Lutomiersk","lat":51.75376,"lng":19.21097},{"id":86971,"name":"Lututów","lat":51.37033,"lng":18.4348},{"id":88764,"name":"Łanięta","lat":52.36203,"lng":19.28032},{"id":88770,"name":"Łask","lat":51.59056,"lng":19.13278},{"id":88817,"name":"Łęczyca","lat":52.05959,"lng":19.19972},{"id":88825,"name":"Łęki Szlacheckie","lat":51.18774,"lng":19.79796},{"id":88810,"name":"Łódź","lat":51.77058,"lng":19.47395},{"id":88795,"name":"Łowicz","lat":52.10714,"lng":19.94525},{"id":88799,"name":"Łubnice","lat":51.16406,"lng":18.29069},{"id":88809,"name":"Łyszkowice","lat":51.98551,"lng":19.90654},{"id":86982,"name":"Maków","lat":51.94696,"lng":20.05211},{"id":87078,"name":"Mniszków","lat":51.37017,"lng":20.03915},{"id":87089,"name":"Mokrsko","lat":51.17897,"lng":18.48879},{"id":87099,"name":"Moszczenica","lat":51.50297,"lng":19.71986},{"id":87149,"name":"Nieborów","lat":52.07771,"lng":20.06902},{"id":87189,"name":"Nowe Ostrowy","lat":52.30318,"lng":19.19217},{"id":87261,"name":"Opoczno","lat":51.37569,"lng":20.27827},{"id":87264,"name":"Oporów","lat":52.26448,"lng":19.56416},{"id":87295,"name":"Osjaków","lat":51.28946,"lng":18.79151},{"id":87303,"name":"Ostrowy","lat":52.30444,"lng":19.16565},{"id":87328,"name":"Ożarów","lat":51.14489,"lng":18.5111},{"id":87321,"name":"Ozorków","lat":51.96336,"lng":19.29139},{"id":87330,"name":"Pabianice","lat":51.66446,"lng":19.35473},{"id":87335,"name":"Pajęczno","lat":51.14449,"lng":18.99612},{"id":87345,"name":"Paradyż","lat":51.30604,"lng":20.11374},{"id":87350,"name":"Parzęczew","lat":51.94855,"lng":19.20608},{"id":87859,"name":"Pątnów","lat":51.14403,"lng":18.61659},{"id":87860,"name":"Pęczniew","lat":51.80384,"lng":18.72311},{"id":87401,"name":"Piątek","lat":52.0689,"lng":19.4797},{"id":87394,"name":"Piotrków Trybunalski","lat":51.40547,"lng":19.70321},{"id":87862,"name":"Pławno","lat":50.97772,"lng":19.45524},{"id":87412,"name":"Poddębice","lat":51.89344,"lng":18.9573},{"id":87781,"name":"Poświętne","lat":51.53203,"lng":20.36453},{"id":87806,"name":"Przedbórz","lat":51.08789,"lng":19.87384},{"id":87886,"name":"Radomsko","lat":51.06713,"lng":19.44477},{"id":87918,"name":"Rawa Mazowiecka","lat":51.76437,"lng":20.25493},{"id":88037,"name":"Ręczno","lat":51.19026,"lng":19.85375},{"id":87923,"name":"Regnów","lat":51.7485,"lng":20.38711},{"id":87949,"name":"Rogów","lat":51.81758,"lng":19.88654},{"id":87954,"name":"Rokiciny","lat":51.65078,"lng":19.80191},{"id":87955,"name":"Rokiciny-Kolonia","lat":51.66468,"lng":19.78312},{"id":87966,"name":"Rozprza","lat":51.30266,"lng":19.6457},{"id":87987,"name":"Rusiec","lat":51.32444,"lng":18.98506},{"id":88017,"name":"Rzeczyca","lat":51.59824,"lng":20.29484},{"id":88027,"name":"Rzgów","lat":51.66345,"lng":19.49181},{"id":88041,"name":"Sadkowice","lat":51.72517,"lng":20.51465},{"id":88327,"name":"Sędziejowice","lat":51.50677,"lng":19.02763},{"id":88076,"name":"Siemkowice","lat":51.20194,"lng":18.8988},{"id":88085,"name":"Sieradz","lat":51.59584,"lng":18.73023},{"id":88107,"name":"Skierniewice","lat":51.95485,"lng":20.15837},{"id":88111,"name":"Skomlin","lat":51.17089,"lng":18.38699},{"id":88338,"name":"Sławno","lat":51.39273,"lng":20.14043},{"id":88349,"name":"Słupia","lat":51.85518,"lng":19.96997},{"id":88137,"name":"Sokolniki","lat":51.30738,"lng":18.33275},{"id":88192,"name":"Starowa Góra","lat":51.69134,"lng":19.48374},{"id":88219,"name":"Stryków","lat":51.90224,"lng":19.60536},{"id":88226,"name":"Strzelce","lat":52.31478,"lng":19.40701},{"id":88229,"name":"Strzelce Wielkie","lat":51.1394,"lng":19.14539},{"id":88257,"name":"Sulejów","lat":51.35436,"lng":19.88538},{"id":88261,"name":"Sulmierzyce","lat":51.18456,"lng":19.19595},{"id":88860,"name":"Świnice Warckie","lat":52.04072,"lng":18.91786},{"id":88283,"name":"Szadek","lat":51.69174,"lng":18.97549},{"id":88298,"name":"Szczerców","lat":51.33319,"lng":19.10977},{"id":88380,"name":"Tomaszów Mazowiecki","lat":51.53131,"lng":20.00855},{"id":88429,"name":"Tuszyn","lat":51.60949,"lng":19.53009},{"id":88449,"name":"Ujazd","lat":51.59781,"lng":19.92225},{"id":88455,"name":"Uniejów","lat":51.97428,"lng":18.79308},{"id":88474,"name":"Walichnowy","lat":51.29579,"lng":18.38073},{"id":88482,"name":"Warta","lat":51.71049,"lng":18.62483},{"id":88483,"name":"Wartkowice","lat":51.97626,"lng":19.0018},{"id":88494,"name":"Widawa","lat":51.43855,"lng":18.94421},{"id":88511,"name":"Wieluń","lat":51.22097,"lng":18.56964},{"id":88515,"name":"Wieruszów","lat":51.29488,"lng":18.15547},{"id":88522,"name":"Wierzchlas","lat":51.20457,"lng":18.66543},{"id":88553,"name":"Witonia","lat":52.14655,"lng":19.30049},{"id":88567,"name":"Wodzierady","lat":51.71826,"lng":19.15123},{"id":88586,"name":"Wola Krzysztoporska","lat":51.34418,"lng":19.5809},{"id":88595,"name":"Wolbórz","lat":51.50196,"lng":19.83049},{"id":88608,"name":"Wróblew","lat":51.61215,"lng":18.61487},{"id":88665,"name":"Zadzim","lat":51.77666,"lng":18.84928},{"id":88694,"name":"Zapolice","lat":51.54319,"lng":18.88335},{"id":88876,"name":"Żarnów","lat":51.24607,"lng":20.17476},{"id":88717,"name":"Zduńska Wola","lat":51.59915,"lng":18.93974},{"id":88881,"name":"Żelechlinek","lat":51.71214,"lng":20.0346},{"id":88722,"name":"Zelów","lat":51.46452,"lng":19.21972},{"id":88724,"name":"Zgierz","lat":51.85561,"lng":19.40623},{"id":88743,"name":"Złoczew","lat":51.41719,"lng":18.60363},{"id":88897,"name":"Żychlin","lat":52.24404,"lng":19.62613}]