[{"id":17361,"name":"Acquarossa","lat":46.45473,"lng":8.94261},{"id":17380,"name":"Agno","lat":45.99863,"lng":8.9003},{"id":17384,"name":"Airolo","lat":46.52855,"lng":8.61189},{"id":17413,"name":"Arzo","lat":45.87606,"lng":8.94103},{"id":17414,"name":"Ascona","lat":46.15451,"lng":8.77327},{"id":17434,"name":"Balerna","lat":45.84638,"lng":9.00724},{"id":17452,"name":"Bellinzona","lat":46.19278,"lng":9.01703},{"id":17453,"name":"Bellinzona District","lat":46.18858,"lng":9.00254},{"id":17524,"name":"Biasca","lat":46.35972,"lng":8.96965},{"id":17533,"name":"Bioggio","lat":46.01357,"lng":8.91103},{"id":17540,"name":"Blenio","lat":46.47613,"lng":8.94609},{"id":17544,"name":"Bodio","lat":46.37808,"lng":8.90991},{"id":17564,"name":"Brissago","lat":46.12013,"lng":8.71181},{"id":17607,"name":"Cadempino","lat":46.03672,"lng":8.93403},{"id":17608,"name":"Cadenazzo","lat":46.15172,"lng":8.94719},{"id":17609,"name":"Cadro","lat":46.04595,"lng":8.98725},{"id":17610,"name":"Camorino","lat":46.16483,"lng":9.00547},{"id":17611,"name":"Canobbio","lat":46.03592,"lng":8.96605},{"id":17613,"name":"Caslano","lat":45.97364,"lng":8.87739},{"id":17614,"name":"Castel San Pietro","lat":45.86211,"lng":9.00843},{"id":17620,"name":"Cevio","lat":46.31479,"lng":8.60332},{"id":17636,"name":"Chiasso","lat":45.83203,"lng":9.03119},{"id":17645,"name":"Claro","lat":46.25763,"lng":9.02252},{"id":17648,"name":"Comano","lat":46.03635,"lng":8.95526},{"id":17670,"name":"Cugnasco","lat":46.17473,"lng":8.91684},{"id":17780,"name":"Faido","lat":46.477,"lng":8.80125},{"id":17836,"name":"Giubiasco","lat":46.17246,"lng":9.00793},{"id":17854,"name":"Gordola","lat":46.18256,"lng":8.86657},{"id":17863,"name":"Gravesano","lat":46.04208,"lng":8.91832},{"id":18053,"name":"Lavertezzo","lat":46.25893,"lng":8.83756},{"id":18078,"name":"Leventina","lat":46.46912,"lng":8.75539},{"id":18084,"name":"Ligornetto","lat":45.86161,"lng":8.95166},{"id":18088,"name":"Locarno","lat":46.17086,"lng":8.79953},{"id":18089,"name":"Locarno District","lat":46.18033,"lng":8.75991},{"id":18090,"name":"Lodrino","lat":46.30016,"lng":8.97986},{"id":18091,"name":"Losone","lat":46.16866,"lng":8.75928},{"id":18098,"name":"Lugano","lat":46.01008,"lng":8.96004},{"id":18099,"name":"Lugano District","lat":46.02322,"lng":8.93802},{"id":18100,"name":"Lumino","lat":46.2302,"lng":9.0642},{"id":18114,"name":"Magadino","lat":46.14892,"lng":8.8561},{"id":18120,"name":"Malvaglia","lat":46.40588,"lng":8.9819},{"id":18128,"name":"Massagno","lat":46.01257,"lng":8.94354},{"id":18145,"name":"Melano","lat":45.92202,"lng":8.98435},{"id":18147,"name":"Melide","lat":45.95455,"lng":8.94725},{"id":18149,"name":"Mendrisio","lat":45.87019,"lng":8.9816},{"id":18150,"name":"Mendrisio District","lat":45.86592,"lng":8.99931},{"id":18159,"name":"Minusio","lat":46.17769,"lng":8.81473},{"id":18163,"name":"Montagnola","lat":45.98323,"lng":8.91786},{"id":18166,"name":"Monte Carasso","lat":46.18649,"lng":8.99892},{"id":18170,"name":"Morbio Inferiore","lat":45.84915,"lng":9.01907},{"id":18180,"name":"Muralto","lat":46.17323,"lng":8.80219},{"id":18231,"name":"Novazzano","lat":45.84073,"lng":8.98236},{"id":18325,"name":"Pregassona","lat":46.02021,"lng":8.97429},{"id":18331,"name":"Pura","lat":45.98647,"lng":8.86877},{"id":18378,"name":"Riva San Vitale","lat":45.90123,"lng":8.97167},{"id":18379,"name":"Riviera","lat":46.30926,"lng":8.98148},{"id":18507,"name":"Sementina","lat":46.18363,"lng":8.99162},{"id":18530,"name":"Sorengo","lat":45.99766,"lng":8.93783},{"id":18536,"name":"Stabio","lat":45.84846,"lng":8.93642},{"id":18578,"name":"Tesserete","lat":46.06813,"lng":8.96501},{"id":18658,"name":"Vallemaggia","lat":46.35483,"lng":8.6054},{"id":18671,"name":"Verscio","lat":46.18482,"lng":8.73224},{"id":18678,"name":"Viganello","lat":46.01342,"lng":8.96879}]