[{"id":17358,"name":"Aarberg","lat":47.04439,"lng":7.27578},{"id":17360,"name":"Aarwangen","lat":47.23845,"lng":7.76854},{"id":17362,"name":"Adelboden","lat":46.49142,"lng":7.56031},{"id":17373,"name":"Aeschi b. Spiez","lat":46.65848,"lng":7.6965},{"id":17404,"name":"Arch","lat":47.16533,"lng":7.43139},{"id":17417,"name":"Attiswil","lat":47.24673,"lng":7.61353},{"id":17592,"name":"Bäriswil","lat":47.01947,"lng":7.52709},{"id":17593,"name":"Bätterkinden","lat":47.13164,"lng":7.53817},{"id":17447,"name":"Beatenberg","lat":46.69896,"lng":7.79428},{"id":17454,"name":"Bellmund","lat":47.10852,"lng":7.24608},{"id":17456,"name":"Belp","lat":46.89129,"lng":7.49825},{"id":17462,"name":"Bern","lat":46.94809,"lng":7.44744},{"id":17463,"name":"Bern-Mittelland","lat":46.92526,"lng":7.49024},{"id":17594,"name":"Bévilard","lat":47.23711,"lng":7.28325},{"id":17526,"name":"Biel/Bienne","lat":47.13713,"lng":7.24608},{"id":17527,"name":"Biel/Bienne District","lat":47.12725,"lng":7.26174},{"id":17528,"name":"Biglen","lat":46.92629,"lng":7.62508},{"id":17542,"name":"Blumenstein","lat":46.7421,"lng":7.52136},{"id":17545,"name":"Bolligen","lat":46.9751,"lng":7.49697},{"id":17546,"name":"Boltigen","lat":46.62847,"lng":7.39054},{"id":17595,"name":"Bönigen","lat":46.68736,"lng":7.8935},{"id":17556,"name":"Bowil","lat":46.89304,"lng":7.69757},{"id":17560,"name":"Brienz","lat":46.7545,"lng":8.03847},{"id":17572,"name":"Brügg","lat":47.1237,"lng":7.27887},{"id":17577,"name":"Buchholterberg","lat":46.81351,"lng":7.67463},{"id":17583,"name":"Burgdorf","lat":47.05901,"lng":7.62786},{"id":17584,"name":"Burgistein","lat":46.78464,"lng":7.49988},{"id":17653,"name":"Corgémont","lat":47.19457,"lng":7.14517},{"id":17664,"name":"Court","lat":47.23956,"lng":7.33655},{"id":17665,"name":"Courtelary","lat":47.17822,"lng":7.07236},{"id":17708,"name":"Därligen","lat":46.66175,"lng":7.80808},{"id":17686,"name":"Diemtigen","lat":46.64928,"lng":7.56477},{"id":17716,"name":"Dürrenroth","lat":47.08953,"lng":7.7917},{"id":17731,"name":"Eggiwil","lat":46.87575,"lng":7.79567},{"id":17747,"name":"Emmental","lat":47.04425,"lng":7.66176},{"id":17758,"name":"Eriswil","lat":47.07816,"lng":7.85149},{"id":17759,"name":"Erlach","lat":47.0422,"lng":7.09728},{"id":17764,"name":"Erlenbach im Simmental","lat":46.66021,"lng":7.55445},{"id":17767,"name":"Ersigen","lat":47.09368,"lng":7.59507},{"id":17777,"name":"Evilard","lat":47.15046,"lng":7.23895},{"id":17784,"name":"Ferenbalm","lat":46.9488,"lng":7.21124},{"id":17802,"name":"Fraubrunnen","lat":47.0862,"lng":7.52727},{"id":17805,"name":"Frauenkappelen","lat":46.95425,"lng":7.33835},{"id":17812,"name":"Frutigen","lat":46.58723,"lng":7.64945},{"id":17813,"name":"Frutigen-Niedersimmental","lat":46.60236,"lng":7.62292},{"id":17870,"name":"Grindelwald","lat":46.62396,"lng":8.03601},{"id":17874,"name":"Grossaffoltern","lat":47.06534,"lng":7.35689},{"id":17884,"name":"Gstaad","lat":46.47215,"lng":7.28685},{"id":17885,"name":"Guggisberg","lat":46.76756,"lng":7.32946},{"id":17902,"name":"Heimberg","lat":46.79482,"lng":7.60433},{"id":17903,"name":"Heimiswil","lat":47.06755,"lng":7.66665},{"id":17908,"name":"Hermiswil","lat":46.83125,"lng":7.47775},{"id":17910,"name":"Herzogenbuchsee","lat":47.18795,"lng":7.7062},{"id":17913,"name":"Hilterfingen","lat":46.73521,"lng":7.66185},{"id":17915,"name":"Hindelbank","lat":47.0427,"lng":7.54143},{"id":17936,"name":"Huttwil","lat":47.11502,"lng":7.86209},{"id":17952,"name":"Ins","lat":47.00584,"lng":7.10609},{"id":17953,"name":"Interlaken","lat":46.68387,"lng":7.86638},{"id":17954,"name":"Interlaken-Oberhasli","lat":46.68931,"lng":7.98869},{"id":17957,"name":"Jegenstorf","lat":47.04802,"lng":7.50787},{"id":17963,"name":"Jura bernois","lat":47.21892,"lng":7.21981},{"id":17968,"name":"Kallnach","lat":47.02032,"lng":7.23545},{"id":17970,"name":"Kandersteg","lat":46.49467,"lng":7.67326},{"id":17971,"name":"Kappelen","lat":47.06015,"lng":7.2686},{"id":17972,"name":"Kehrsatz","lat":46.91035,"lng":7.47096},{"id":17981,"name":"Kirchberg","lat":47.08538,"lng":7.58288},{"id":17982,"name":"Kirchlindach","lat":46.99965,"lng":7.41735},{"id":18011,"name":"Köniz","lat":46.92436,"lng":7.41457},{"id":18002,"name":"Konolfingen","lat":46.87909,"lng":7.62013},{"id":18003,"name":"Koppigen","lat":47.13125,"lng":7.60525},{"id":18004,"name":"Krauchthal","lat":47.00964,"lng":7.5664},{"id":18023,"name":"La Neuveville","lat":47.06592,"lng":7.09717},{"id":18036,"name":"Langenthal","lat":47.21526,"lng":7.79607},{"id":18037,"name":"Langnau","lat":46.93936,"lng":7.78738},{"id":18045,"name":"Laupen","lat":46.90214,"lng":7.23973},{"id":18047,"name":"Lauperswil","lat":46.96564,"lng":7.74214},{"id":18051,"name":"Lauterbrunnen","lat":46.59307,"lng":7.90938},{"id":18063,"name":"Lengnau","lat":47.18155,"lng":7.36814},{"id":18064,"name":"Lenk","lat":46.45826,"lng":7.44298},{"id":18077,"name":"Leuzigen","lat":47.17458,"lng":7.45775},{"id":153791,"name":"Liebefeld","lat":46.9333579,"lng":7.3960684},{"id":18085,"name":"Linden","lat":46.8469,"lng":7.67831},{"id":18093,"name":"Lotzwil","lat":47.19135,"lng":7.79102},{"id":18112,"name":"Lützelflüh","lat":47.00757,"lng":7.69165},{"id":18107,"name":"Lyss","lat":47.0741,"lng":7.30655},{"id":18108,"name":"Lyssach","lat":47.06445,"lng":7.58228},{"id":18113,"name":"Madiswil","lat":47.16463,"lng":7.79858},{"id":18118,"name":"Malleray","lat":47.23839,"lng":7.27286},{"id":18129,"name":"Matten","lat":46.67833,"lng":7.86889},{"id":18142,"name":"Meinisberg","lat":47.15965,"lng":7.34801},{"id":18143,"name":"Meiringen","lat":46.72709,"lng":8.1872},{"id":18146,"name":"Melchnau","lat":47.18213,"lng":7.85128},{"id":18175,"name":"Moutier","lat":47.27818,"lng":7.36951},{"id":18195,"name":"Mühleberg","lat":46.95466,"lng":7.26102},{"id":18197,"name":"Mühlethurnen","lat":46.81345,"lng":7.50881},{"id":18199,"name":"Münchenbuchsee","lat":47.02175,"lng":7.45036},{"id":18201,"name":"Münchenwiler","lat":46.91334,"lng":7.12556},{"id":18204,"name":"Münsingen","lat":46.87298,"lng":7.561},{"id":18206,"name":"Müntschemier","lat":46.99548,"lng":7.14626},{"id":18183,"name":"Muri","lat":46.93122,"lng":7.48658},{"id":18219,"name":"Nidau","lat":47.12545,"lng":7.24033},{"id":18220,"name":"Niederbipp","lat":47.27175,"lng":7.69583},{"id":18239,"name":"Oberaargau","lat":47.19202,"lng":7.74553},{"id":18240,"name":"Oberbipp","lat":47.2607,"lng":7.66359},{"id":18242,"name":"Oberburg","lat":47.03665,"lng":7.62745},{"id":18243,"name":"Oberdiessbach","lat":46.84117,"lng":7.6173},{"id":18267,"name":"Obersimmental-Saanen","lat":46.47932,"lng":7.35803},{"id":18289,"name":"Orpund","lat":47.13891,"lng":7.30775},{"id":18291,"name":"Orvin","lat":47.16068,"lng":7.21368},{"id":18332,"name":"Péry","lat":47.19398,"lng":7.24913},{"id":18314,"name":"Pieterlen","lat":47.17501,"lng":7.33791},{"id":18334,"name":"Radelfingen","lat":47.02146,"lng":7.27178},{"id":18343,"name":"Reconvilier","lat":47.23431,"lng":7.22239},{"id":18376,"name":"Riggisberg","lat":46.81028,"lng":7.48014},{"id":18377,"name":"Ringgenberg","lat":46.70114,"lng":7.89445},{"id":18382,"name":"Roggwil","lat":47.24119,"lng":7.82141},{"id":18385,"name":"Rohrbach","lat":47.13521,"lng":7.81334},{"id":18396,"name":"Rubigen","lat":46.89868,"lng":7.5446},{"id":18404,"name":"Rüderswil","lat":46.98374,"lng":7.72167},{"id":18405,"name":"Rüeggisberg","lat":46.82216,"lng":7.4389},{"id":18408,"name":"Rüschegg","lat":46.77977,"lng":7.39167},{"id":18415,"name":"Saanen","lat":46.48945,"lng":7.26003},{"id":18425,"name":"Saint-Imier","lat":47.15284,"lng":6.99692},{"id":18443,"name":"Sankt Stephan","lat":46.50827,"lng":7.39559},{"id":18488,"name":"Schüpfen","lat":47.03661,"lng":7.37723},{"id":18491,"name":"Seeberg","lat":47.15585,"lng":7.66567},{"id":18493,"name":"Seedorf","lat":47.03445,"lng":7.31249},{"id":18494,"name":"Seeland","lat":47.06635,"lng":7.26333},{"id":18502,"name":"Seftigen","lat":46.78765,"lng":7.53937},{"id":18519,"name":"Signau","lat":46.91944,"lng":7.72418},{"id":18520,"name":"Sigriswil","lat":46.71656,"lng":7.71335},{"id":18533,"name":"Spiez","lat":46.68473,"lng":7.69111},{"id":18550,"name":"Steffisburg","lat":46.77807,"lng":7.63249},{"id":18558,"name":"Stettlen","lat":46.95835,"lng":7.52508},{"id":18566,"name":"Sumiswald","lat":47.02747,"lng":7.74526},{"id":18617,"name":"Täuffelen","lat":47.0663,"lng":7.19883},{"id":18576,"name":"Tavannes","lat":47.22079,"lng":7.19759},{"id":18590,"name":"Thierachern","lat":46.75319,"lng":7.57442},{"id":18591,"name":"Thun","lat":46.75118,"lng":7.62166},{"id":18592,"name":"Thun District","lat":46.7629,"lng":7.62503},{"id":18597,"name":"Toffen","lat":46.86031,"lng":7.49216},{"id":18598,"name":"Trachselwald","lat":47.01699,"lng":7.73639},{"id":18599,"name":"Tramelan","lat":47.22298,"lng":7.10287},{"id":18608,"name":"Trub","lat":46.94168,"lng":7.87996},{"id":18609,"name":"Trubschachen","lat":46.92228,"lng":7.8452},{"id":18626,"name":"Uetendorf","lat":46.77392,"lng":7.57251},{"id":18635,"name":"Unterseen","lat":46.6853,"lng":7.84722},{"id":18644,"name":"Urtenen","lat":47.02667,"lng":7.50081},{"id":18651,"name":"Uttigen","lat":46.79435,"lng":7.57789},{"id":18653,"name":"Utzenstorf","lat":47.13248,"lng":7.55355},{"id":18663,"name":"Vechigen","lat":46.94616,"lng":7.56065},{"id":18714,"name":"Walkringen","lat":46.94856,"lng":7.6204},{"id":18723,"name":"Wangen an der Aare","lat":47.23208,"lng":7.65253},{"id":18724,"name":"Wattenwil","lat":46.76973,"lng":7.50835},{"id":18744,"name":"Wichtrach","lat":46.8501,"lng":7.57748},{"id":18745,"name":"Wiedlisbach","lat":47.25194,"lng":7.6461},{"id":18752,"name":"Wilderswil","lat":46.66369,"lng":7.86175},{"id":18756,"name":"Wimmis","lat":46.67587,"lng":7.63972},{"id":18762,"name":"Wohlen","lat":46.97118,"lng":7.35685},{"id":18768,"name":"Worb","lat":46.92984,"lng":7.56306},{"id":18769,"name":"Worben","lat":47.10279,"lng":7.29518},{"id":18770,"name":"Wynau","lat":47.2557,"lng":7.81626},{"id":18771,"name":"Wynigen","lat":47.10586,"lng":7.66681},{"id":18772,"name":"Wyssachen","lat":47.07851,"lng":7.82922},{"id":18808,"name":"Zäziwil","lat":46.90196,"lng":7.66185},{"id":18798,"name":"Zollikofen","lat":46.99905,"lng":7.45809},{"id":18806,"name":"Zweisimmen","lat":46.55539,"lng":7.37302}]