[{"id":17405,"name":"Ardon","lat":46.20951,"lng":7.26012},{"id":17427,"name":"Ayent","lat":46.28249,"lng":7.41028},{"id":17433,"name":"Bagnes","lat":46.08333,"lng":7.21667},{"id":17439,"name":"Baltschieder","lat":46.30888,"lng":7.8657},{"id":17441,"name":"Basse-Nendaz","lat":46.18993,"lng":7.31209},{"id":17561,"name":"Brig","lat":46.31667,"lng":7.98333},{"id":17562,"name":"Brig District","lat":46.28255,"lng":8.01185},{"id":17621,"name":"Chalais","lat":46.26758,"lng":7.51145},{"id":17623,"name":"Chamoson","lat":46.20275,"lng":7.22319},{"id":17624,"name":"Champéry","lat":46.17543,"lng":6.86903},{"id":17628,"name":"Charrat","lat":46.1249,"lng":7.13138},{"id":17632,"name":"Chermignon-d’en Haut","lat":46.28844,"lng":7.47487},{"id":17637,"name":"Chippis","lat":46.2802,"lng":7.53962},{"id":17646,"name":"Collombey-Muraz","lat":46.27385,"lng":6.94789},{"id":17650,"name":"Conthey","lat":46.2237,"lng":7.30283},{"id":17651,"name":"Conthey District","lat":46.20485,"lng":7.27857},{"id":17755,"name":"Entremont","lat":46.02099,"lng":7.2126},{"id":17778,"name":"Evionnaz","lat":46.18096,"lng":7.02232},{"id":17779,"name":"Evolène","lat":46.11422,"lng":7.49407},{"id":17788,"name":"Fiesch","lat":46.39981,"lng":8.13533},{"id":17815,"name":"Fully","lat":46.13851,"lng":7.11468},{"id":17820,"name":"Gampel","lat":46.31599,"lng":7.7421},{"id":17851,"name":"Goms","lat":46.46161,"lng":8.2219},{"id":17879,"name":"Grächen","lat":46.19529,"lng":7.83745},{"id":17869,"name":"Grimisuat","lat":46.25938,"lng":7.38408},{"id":17881,"name":"Grône","lat":46.25288,"lng":7.45947},{"id":17941,"name":"Hérémence","lat":46.18032,"lng":7.40477},{"id":17940,"name":"Hérens","lat":46.19407,"lng":7.42391},{"id":18065,"name":"Lens","lat":46.28298,"lng":7.44976},{"id":18074,"name":"Leuk","lat":46.31736,"lng":7.63412},{"id":18075,"name":"Leuk District","lat":46.31439,"lng":7.67291},{"id":18076,"name":"Leukerbad","lat":46.37943,"lng":7.62687},{"id":18080,"name":"Leytron","lat":46.1866,"lng":7.2078},{"id":18125,"name":"Martigny","lat":46.12386,"lng":7.10354},{"id":18126,"name":"Martigny-Combe","lat":46.07817,"lng":7.05099},{"id":18127,"name":"Martigny-Ville","lat":46.10276,"lng":7.07245},{"id":18165,"name":"Montana","lat":46.31338,"lng":7.48839},{"id":18167,"name":"Monthey","lat":46.25451,"lng":6.95406},{"id":18168,"name":"Monthey District","lat":46.27043,"lng":6.90274},{"id":18207,"name":"Naters","lat":46.32536,"lng":7.98912},{"id":18290,"name":"Orsières","lat":46.02903,"lng":7.14437},{"id":18337,"name":"Randogne","lat":46.30952,"lng":7.50058},{"id":18339,"name":"Raron","lat":46.31196,"lng":7.80029},{"id":18340,"name":"Raron District","lat":46.3,"lng":7.8},{"id":18374,"name":"Riddes","lat":46.17276,"lng":7.2236},{"id":18416,"name":"Saas-Fee","lat":46.10805,"lng":7.92741},{"id":18417,"name":"Saas-Grund","lat":46.12281,"lng":7.93651},{"id":18421,"name":"Saillon","lat":46.17035,"lng":7.18771},{"id":18427,"name":"Saint-Léonard","lat":46.25152,"lng":7.41714},{"id":18428,"name":"Saint-Maurice","lat":46.21826,"lng":7.0032},{"id":18429,"name":"Saint-Maurice District","lat":46.15384,"lng":6.99823},{"id":18432,"name":"Salgesch","lat":46.31155,"lng":7.5712},{"id":18434,"name":"Salvan","lat":46.1189,"lng":7.02078},{"id":18441,"name":"Sankt Niklaus","lat":46.17717,"lng":7.80349},{"id":18452,"name":"Savièse","lat":46.25115,"lng":7.34558},{"id":18453,"name":"Saxon","lat":46.14937,"lng":7.17514},{"id":18517,"name":"Sierre","lat":46.29192,"lng":7.53559},{"id":18518,"name":"Sierre District","lat":46.27052,"lng":7.5157},{"id":18524,"name":"Sion","lat":46.23343,"lng":7.34939},{"id":18527,"name":"Sitten","lat":46.22739,"lng":7.35559},{"id":18545,"name":"Stalden","lat":46.23341,"lng":7.87273},{"id":18573,"name":"Tanay","lat":46.34503,"lng":6.83041},{"id":18607,"name":"Troistorrents","lat":46.2289,"lng":6.91589},{"id":18615,"name":"Turtmann","lat":46.30028,"lng":7.702},{"id":18662,"name":"Varen","lat":46.3186,"lng":7.60743},{"id":18668,"name":"Verbier","lat":46.1002,"lng":7.22651},{"id":18669,"name":"Vernayaz","lat":46.13667,"lng":7.03906},{"id":18697,"name":"Vétroz","lat":46.22171,"lng":7.27858},{"id":18675,"name":"Vex","lat":46.21239,"lng":7.39826},{"id":18686,"name":"Vionnaz","lat":46.31101,"lng":6.90062},{"id":18687,"name":"Visp","lat":46.2937,"lng":7.88149},{"id":18688,"name":"Visp District","lat":46.17612,"lng":7.85609},{"id":18689,"name":"Visperterminen","lat":46.25899,"lng":7.90192},{"id":18694,"name":"Vouvry","lat":46.33746,"lng":6.8895},{"id":18793,"name":"Zermatt","lat":46.01998,"lng":7.74863}]