[{"id":17381,"name":"Aigle","lat":46.3181,"lng":6.96457},{"id":17382,"name":"Aigle District","lat":46.30577,"lng":7.02974},{"id":17401,"name":"Apples","lat":46.55237,"lng":6.42889},{"id":17412,"name":"Arzier","lat":46.45962,"lng":6.20813},{"id":17422,"name":"Aubonne","lat":46.49514,"lng":6.39155},{"id":17425,"name":"Avenches","lat":46.88004,"lng":7.04071},{"id":17436,"name":"Ballens","lat":46.55485,"lng":6.3731},{"id":17446,"name":"Bavois","lat":46.68403,"lng":6.5671},{"id":17449,"name":"Begnins","lat":46.44152,"lng":6.24762},{"id":17455,"name":"Belmont-sur-Lausanne","lat":46.51891,"lng":6.67636},{"id":17465,"name":"Berolle","lat":46.55798,"lng":6.33551},{"id":17470,"name":"Bex","lat":46.24965,"lng":7.0098},{"id":17539,"name":"Bière","lat":46.53761,"lng":6.33362},{"id":17543,"name":"Blécherette","lat":46.53932,"lng":6.62227},{"id":17541,"name":"Blonay","lat":46.46778,"lng":6.89615},{"id":17551,"name":"Bottens","lat":46.61596,"lng":6.66149},{"id":17569,"name":"Broye-Vully","lat":46.78082,"lng":6.90161},{"id":17586,"name":"Bussigny","lat":46.5511,"lng":6.55597},{"id":17616,"name":"Caux","lat":46.43241,"lng":6.93855},{"id":17626,"name":"Chardonne","lat":46.47676,"lng":6.8268},{"id":17640,"name":"Château-d'Oex","lat":46.47455,"lng":7.13155},{"id":17629,"name":"Chavannes","lat":46.53005,"lng":6.57068},{"id":17630,"name":"Chavannes-le-Veyron","lat":46.607,"lng":6.45086},{"id":17631,"name":"Chavornay","lat":46.70244,"lng":6.5694},{"id":17633,"name":"Cheseaux","lat":46.58624,"lng":6.60587},{"id":17634,"name":"Chevilly","lat":46.64272,"lng":6.47661},{"id":17635,"name":"Chexbres","lat":46.48208,"lng":6.77805},{"id":17647,"name":"Colombier","lat":46.55709,"lng":6.47284},{"id":17652,"name":"Coppet","lat":46.31682,"lng":6.19114},{"id":17658,"name":"Cossonay","lat":46.61443,"lng":6.50631},{"id":17668,"name":"Crissier","lat":46.54586,"lng":6.57567},{"id":17669,"name":"Cuarnens","lat":46.62545,"lng":6.43713},{"id":17672,"name":"Cully","lat":46.48892,"lng":6.72945},{"id":17721,"name":"Echallens","lat":46.6413,"lng":6.63317},{"id":17722,"name":"Ecublens","lat":46.52899,"lng":6.56261},{"id":17756,"name":"Epalinges","lat":46.54896,"lng":6.66831},{"id":17785,"name":"Ferreyres","lat":46.65804,"lng":6.4852},{"id":17800,"name":"Founex","lat":46.33277,"lng":6.19243},{"id":17811,"name":"Froideville","lat":46.60123,"lng":6.68085},{"id":17826,"name":"Genolier","lat":46.43537,"lng":6.21809},{"id":17833,"name":"Gimel","lat":46.50945,"lng":6.30736},{"id":17838,"name":"Gland","lat":46.42082,"lng":6.2701},{"id":17860,"name":"Grancy","lat":46.59214,"lng":6.46391},{"id":17862,"name":"Grandson","lat":46.80946,"lng":6.646},{"id":17872,"name":"Gros-de-Vaud","lat":46.6518,"lng":6.65728},{"id":17878,"name":"Gryon","lat":46.27377,"lng":7.05975},{"id":17961,"name":"Jongny","lat":46.47883,"lng":6.84114},{"id":17964,"name":"Jura-Nord vaudois","lat":46.72981,"lng":6.45429},{"id":18026,"name":"La Sarraz","lat":46.65863,"lng":6.51077},{"id":18027,"name":"La Tour-de-Peilz","lat":46.45312,"lng":6.85856},{"id":18048,"name":"Lausanne","lat":46.516,"lng":6.63282},{"id":18049,"name":"Lausanne District","lat":46.52131,"lng":6.63334},{"id":18052,"name":"Lavaux-Oron","lat":46.53618,"lng":6.77086},{"id":18054,"name":"Le Chenit","lat":46.60688,"lng":6.23062},{"id":18059,"name":"Le Mont-sur-Lausanne","lat":46.55815,"lng":6.63145},{"id":18061,"name":"Le Vaud","lat":46.47753,"lng":6.23603},{"id":18079,"name":"Leysin","lat":46.34183,"lng":7.01151},{"id":18094,"name":"Lucens","lat":46.70854,"lng":6.83931},{"id":18104,"name":"Lutry","lat":46.50241,"lng":6.68647},{"id":18137,"name":"Mauraz","lat":46.60558,"lng":6.42074},{"id":18161,"name":"Mollens","lat":46.5776,"lng":6.3632},{"id":18164,"name":"Montagny","lat":46.79289,"lng":6.61222},{"id":18169,"name":"Montreux","lat":46.43301,"lng":6.91143},{"id":18171,"name":"Morges","lat":46.51127,"lng":6.49854},{"id":18172,"name":"Morges District","lat":46.53578,"lng":6.48662},{"id":18174,"name":"Moudon","lat":46.66758,"lng":6.79781},{"id":18233,"name":"Nyon","lat":46.38318,"lng":6.23955},{"id":18234,"name":"Nyon District","lat":46.42004,"lng":6.22177},{"id":18282,"name":"Ollon","lat":46.29524,"lng":6.99314},{"id":18286,"name":"Orbe","lat":46.72504,"lng":6.53069},{"id":18288,"name":"Oron-la-Ville","lat":46.57094,"lng":6.82557},{"id":18295,"name":"Ouest Lausannois","lat":46.54589,"lng":6.56995},{"id":18296,"name":"Pailly","lat":46.70123,"lng":6.6754},{"id":18297,"name":"Palézieux","lat":46.54191,"lng":6.83989},{"id":18298,"name":"Pampigny","lat":46.58093,"lng":6.42941},{"id":18299,"name":"Paudex","lat":46.50548,"lng":6.66819},{"id":18300,"name":"Payerne","lat":46.82192,"lng":6.93817},{"id":18301,"name":"Penthalaz","lat":46.61077,"lng":6.52519},{"id":18302,"name":"Penthéréaz","lat":46.68171,"lng":6.6039},{"id":18303,"name":"Perroy","lat":46.4669,"lng":6.35349},{"id":18317,"name":"Pompaples","lat":46.66699,"lng":6.50966},{"id":18322,"name":"Prangins","lat":46.39518,"lng":6.2496},{"id":18327,"name":"Préverenges","lat":46.51854,"lng":6.52682},{"id":18326,"name":"Prilly","lat":46.53698,"lng":6.60456},{"id":18328,"name":"Puidoux","lat":46.50093,"lng":6.78249},{"id":18329,"name":"Pully","lat":46.51027,"lng":6.66183},{"id":18364,"name":"Renens","lat":46.53989,"lng":6.5881},{"id":18380,"name":"Riviera-Pays-d'Enhaut","lat":46.46459,"lng":6.88499},{"id":18386,"name":"Rolle","lat":46.4582,"lng":6.33499},{"id":18387,"name":"Romanel-sur-Lausanne","lat":46.56403,"lng":6.60538},{"id":18424,"name":"Saint-Cergue","lat":46.4459,"lng":6.15737},{"id":18426,"name":"Saint-Livres","lat":46.50794,"lng":6.38753},{"id":18430,"name":"Saint-Prex","lat":46.47963,"lng":6.45992},{"id":18431,"name":"Sainte-Croix","lat":46.82203,"lng":6.50283},{"id":18450,"name":"Saubraz","lat":46.51606,"lng":6.33018},{"id":18451,"name":"Savigny","lat":46.53844,"lng":6.73222},{"id":18531,"name":"Sottens","lat":46.65521,"lng":6.74197},{"id":18611,"name":"Trélex","lat":46.41538,"lng":6.20813},{"id":18659,"name":"Vallorbe","lat":46.71256,"lng":6.37894},{"id":18673,"name":"Vevey","lat":46.46299,"lng":6.84345},{"id":18680,"name":"Villars-sur-Ollon","lat":46.29832,"lng":7.05631},{"id":18682,"name":"Villeneuve","lat":46.39869,"lng":6.92654},{"id":18696,"name":"Vuarrens","lat":46.68578,"lng":6.64793},{"id":18790,"name":"Yverdon-les-Bains","lat":46.77852,"lng":6.64115},{"id":18791,"name":"Yvonand","lat":46.80034,"lng":6.74249}]