[{"id":17448,"name":"Beckenried","lat":46.96653,"lng":8.47575},{"id":17582,"name":"Buochs","lat":46.97398,"lng":8.42279},{"id":17675,"name":"Dallenwil","lat":46.9242,"lng":8.38785},{"id":17748,"name":"Emmetten","lat":46.95658,"lng":8.51467},{"id":17752,"name":"Ennetbürgen","lat":46.98423,"lng":8.41003},{"id":17906,"name":"Hergiswil","lat":46.98429,"lng":8.30944},{"id":18546,"name":"Stans","lat":46.95805,"lng":8.36609},{"id":18547,"name":"Stansstad","lat":46.9768,"lng":8.33553},{"id":18763,"name":"Wolfenschiessen","lat":46.90322,"lng":8.39423}]