[{"id":17423,"name":"Auvernier","lat":46.97545,"lng":6.87903},{"id":17469,"name":"Bevaix","lat":46.92958,"lng":6.8147},{"id":17554,"name":"Boudry","lat":46.94991,"lng":6.83757},{"id":17555,"name":"Boudry District","lat":46.94594,"lng":6.82842},{"id":17619,"name":"Cernier","lat":47.05878,"lng":6.9004},{"id":17642,"name":"Chézard-Saint-Martin","lat":47.06629,"lng":6.93332},{"id":17655,"name":"Cornaux","lat":47.0396,"lng":7.01872},{"id":17657,"name":"Cortaillod","lat":46.94306,"lng":6.8444},{"id":17667,"name":"Couvet","lat":46.92525,"lng":6.6327},{"id":17701,"name":"Dombresson","lat":47.07192,"lng":6.9592},{"id":17792,"name":"Fleurier","lat":46.90224,"lng":6.58253},{"id":17798,"name":"Fontainemelon","lat":47.05495,"lng":6.8868},{"id":17855,"name":"Gorgier","lat":46.90143,"lng":6.77985},{"id":17861,"name":"Grand-Savagnier","lat":47.05101,"lng":6.95489},{"id":18021,"name":"La Chaux-de-Fonds","lat":47.09993,"lng":6.82586},{"id":18022,"name":"La Chaux-de-Fonds District","lat":47.12159,"lng":6.84064},{"id":18056,"name":"Le Landeron","lat":47.05702,"lng":7.07052},{"id":18057,"name":"Le Locle","lat":47.05619,"lng":6.74913},{"id":18058,"name":"Le Locle District","lat":47.01927,"lng":6.69635},{"id":18070,"name":"Les Brenets","lat":47.06774,"lng":6.70478},{"id":18072,"name":"Les Geneveys-sur-Coffrane","lat":47.01528,"lng":6.8513},{"id":18073,"name":"Les Ponts-de-Martel","lat":46.99735,"lng":6.73059},{"id":18121,"name":"Marin-Epagnier","lat":47.01017,"lng":6.99941},{"id":18212,"name":"Neuchâtel","lat":46.99179,"lng":6.931},{"id":18213,"name":"Neuchâtel District","lat":47.01799,"lng":6.99337},{"id":18304,"name":"Peseux","lat":46.98704,"lng":6.88903},{"id":18422,"name":"Saint-Aubin-Sauges","lat":46.89419,"lng":6.77251},{"id":18423,"name":"Saint-Blaise","lat":47.01511,"lng":6.98832},{"id":18600,"name":"Travers","lat":46.94018,"lng":6.67595},{"id":18656,"name":"Val-de-Ruz","lat":47.04008,"lng":6.90829},{"id":18657,"name":"Val-de-Travers","lat":46.90357,"lng":6.5631}]