[{"id":17438,"name":"Balsthal","lat":47.31613,"lng":7.69318},{"id":17468,"name":"Bettlach","lat":47.20062,"lng":7.42405},{"id":17478,"name":"Bezirk Bucheggberg","lat":47.13205,"lng":7.47885},{"id":17482,"name":"Bezirk Dorneck","lat":47.48032,"lng":7.61816},{"id":17485,"name":"Bezirk Gäu","lat":47.29606,"lng":7.77503},{"id":17486,"name":"Bezirk Gösgen","lat":47.37758,"lng":7.9203},{"id":17495,"name":"Bezirk Lebern","lat":47.21798,"lng":7.48053},{"id":17503,"name":"Bezirk Olten","lat":47.34426,"lng":7.90755},{"id":17511,"name":"Bezirk Solothurn","lat":47.20818,"lng":7.53084},{"id":17513,"name":"Bezirk Thal","lat":47.31095,"lng":7.63592},{"id":17514,"name":"Bezirk Thierstein","lat":47.38333,"lng":7.55},{"id":17519,"name":"Bezirk Wasseramt","lat":47.18911,"lng":7.59157},{"id":17525,"name":"Biberist","lat":47.18009,"lng":7.56246},{"id":17557,"name":"Breitenbach","lat":47.40668,"lng":7.54554},{"id":17605,"name":"Büsserach","lat":47.39415,"lng":7.54117},{"id":17679,"name":"Deitingen","lat":47.21515,"lng":7.6188},{"id":17683,"name":"Derendingen","lat":47.1985,"lng":7.58844},{"id":17704,"name":"Dornach","lat":47.48038,"lng":7.61644},{"id":17728,"name":"Egerkingen","lat":47.31957,"lng":7.78424},{"id":17765,"name":"Erlinsbach","lat":47.39753,"lng":8.00797},{"id":17814,"name":"Fulenbach","lat":47.27103,"lng":7.83136},{"id":17828,"name":"Gerlafingen","lat":47.17087,"lng":7.57249},{"id":17868,"name":"Grenchen","lat":47.1921,"lng":7.39586},{"id":17886,"name":"Gunzgen","lat":47.31375,"lng":7.83102},{"id":17937,"name":"Hägendorf","lat":47.33497,"lng":7.84133},{"id":17914,"name":"Himmelried","lat":47.42136,"lng":7.59985},{"id":17924,"name":"Hochwald","lat":47.45389,"lng":7.64459},{"id":17984,"name":"Kleinlützel","lat":47.42518,"lng":7.41607},{"id":18007,"name":"Kriegstetten","lat":47.17449,"lng":7.59799},{"id":18035,"name":"Langendorf","lat":47.21974,"lng":7.51469},{"id":18046,"name":"Laupersdorf","lat":47.3126,"lng":7.65465},{"id":18092,"name":"Lostorf","lat":47.38372,"lng":7.94655},{"id":18102,"name":"Luterbach","lat":47.21426,"lng":7.58463},{"id":18134,"name":"Matzendorf","lat":47.30374,"lng":7.6282},{"id":18156,"name":"Messen","lat":47.09155,"lng":7.44528},{"id":18224,"name":"Niedergösgen","lat":47.37157,"lng":7.98837},{"id":18232,"name":"Nunningen","lat":47.3941,"lng":7.61951},{"id":18241,"name":"Oberbuchsiten","lat":47.31334,"lng":7.76836},{"id":18254,"name":"Obergösgen","lat":47.36538,"lng":7.95173},{"id":18279,"name":"Oensingen","lat":47.28764,"lng":7.71612},{"id":18283,"name":"Olten","lat":47.34999,"lng":7.90329},{"id":18375,"name":"Riedholz","lat":47.23158,"lng":7.56829},{"id":18381,"name":"Rodersdorf","lat":47.48082,"lng":7.45767},{"id":18384,"name":"Rohr","lat":47.41029,"lng":7.95333},{"id":18485,"name":"Schönenwerd","lat":47.3691,"lng":8.00167},{"id":18506,"name":"Selzach","lat":47.20531,"lng":7.45521},{"id":18528,"name":"Solothurn","lat":47.20791,"lng":7.53714},{"id":18561,"name":"Subingen","lat":47.19852,"lng":7.61949},{"id":18603,"name":"Trimbach","lat":47.36561,"lng":7.8868},{"id":18721,"name":"Wangen","lat":47.34365,"lng":7.86982},{"id":18734,"name":"Welschenrohr","lat":47.28052,"lng":7.52664},{"id":18765,"name":"Wolfwil","lat":47.26871,"lng":7.79652},{"id":18800,"name":"Zuchwil","lat":47.20173,"lng":7.56649}]