[{"id":135248,"name":"Acceglio","lat":44.47463,"lng":6.99092},{"id":135283,"name":"Acqui Terme","lat":44.67552,"lng":8.46934},{"id":135303,"name":"Agliano","lat":44.79164,"lng":8.25124},{"id":135304,"name":"Agliano Terme","lat":44.79025,"lng":8.25044},{"id":135306,"name":"Agliè","lat":45.368,"lng":7.768},{"id":135315,"name":"Agrate","lat":45.6754,"lng":8.56065},{"id":135317,"name":"Agrate Conturbia","lat":45.67547,"lng":8.55973},{"id":135331,"name":"Ailoche","lat":45.69812,"lng":8.22133},{"id":135332,"name":"Airali","lat":44.8167,"lng":7.25157},{"id":135333,"name":"Airasca","lat":44.91719,"lng":7.48322},{"id":135337,"name":"Aisone","lat":44.31392,"lng":7.21963},{"id":135339,"name":"Ala di Stura","lat":45.31492,"lng":7.30345},{"id":135341,"name":"Alagna Valsesia","lat":45.85182,"lng":7.93752},{"id":135346,"name":"Alba","lat":44.6999,"lng":8.0347},{"id":135353,"name":"Albano Vercellese","lat":45.42616,"lng":8.38093},{"id":135360,"name":"Albaretto della Torre","lat":44.59624,"lng":8.06464},{"id":135363,"name":"Albera Ligure","lat":44.70159,"lng":9.0672},{"id":135372,"name":"Albiano d'Ivrea","lat":45.43424,"lng":7.94789},{"id":135387,"name":"Albugnano","lat":45.07755,"lng":7.97113},{"id":135394,"name":"Alessandria","lat":44.90924,"lng":8.61007},{"id":135402,"name":"Alfiano Natta","lat":45.0486,"lng":8.2073},{"id":135408,"name":"Alice Bel Colle","lat":44.72605,"lng":8.45074},{"id":135409,"name":"Alice Castello","lat":45.3686,"lng":8.0732},{"id":135410,"name":"Alice Superiore","lat":45.46066,"lng":7.77922},{"id":135422,"name":"Almese-Rivera","lat":45.11915,"lng":7.40111},{"id":135425,"name":"Alpette","lat":45.40917,"lng":7.57795},{"id":135426,"name":"Alpignano","lat":45.09346,"lng":7.52392},{"id":135434,"name":"Altavilla Monferrato","lat":44.99355,"lng":8.37594},{"id":135443,"name":"Alto","lat":44.10863,"lng":8.00215},{"id":135451,"name":"Alzano Scrivia","lat":45.01806,"lng":8.88065},{"id":135470,"name":"Ameno","lat":45.78897,"lng":8.44},{"id":135483,"name":"Andezeno","lat":45.03376,"lng":7.86607},{"id":135485,"name":"Andorno Cacciorna","lat":45.61054,"lng":8.05589},{"id":135487,"name":"Andrate","lat":45.52633,"lng":7.88145},{"id":135501,"name":"Angrogna","lat":44.84354,"lng":7.22422},{"id":135518,"name":"Antignano","lat":44.84535,"lng":8.13494},{"id":135522,"name":"Antronapiana","lat":46.06091,"lng":8.11519},{"id":135528,"name":"Anzola d'Ossola","lat":45.98897,"lng":8.34531},{"id":135551,"name":"Aramengo","lat":45.10085,"lng":8.00003},{"id":135557,"name":"Arborio","lat":45.49586,"lng":8.38755},{"id":135595,"name":"Arguello","lat":44.58274,"lng":8.11084},{"id":135604,"name":"Arignano","lat":45.03966,"lng":7.90189},{"id":135608,"name":"Arizzano","lat":45.95738,"lng":8.58292},{"id":135613,"name":"Armeno","lat":45.82078,"lng":8.44557},{"id":135622,"name":"Arola","lat":45.80867,"lng":8.35808},{"id":135624,"name":"Arona","lat":45.7589,"lng":8.55715},{"id":135630,"name":"Arquata Scrivia","lat":44.6883,"lng":8.88682},{"id":135660,"name":"Asigliano Vercellese","lat":45.26146,"lng":8.40853},{"id":135670,"name":"Asti","lat":44.90162,"lng":8.20751},{"id":135688,"name":"Aurano","lat":46.00038,"lng":8.58822},{"id":135708,"name":"Avigliana","lat":45.07978,"lng":7.39647},{"id":135714,"name":"Avolasca","lat":44.80315,"lng":8.96545},{"id":135718,"name":"Azeglio","lat":45.42283,"lng":7.99222},{"id":135724,"name":"Azzano d'Asti","lat":44.87345,"lng":8.26684},{"id":135728,"name":"Baceno","lat":46.26062,"lng":8.31874},{"id":135755,"name":"Bagnasco","lat":44.30412,"lng":8.04522},{"id":135769,"name":"Bagnolo Piemonte","lat":44.76034,"lng":7.31392},{"id":135779,"name":"Bairo","lat":45.38606,"lng":7.75532},{"id":135782,"name":"Balangero","lat":45.26988,"lng":7.51884},{"id":135783,"name":"Baldichieri d'Asti","lat":44.90595,"lng":8.09163},{"id":135784,"name":"Baldissero Canavese","lat":45.41026,"lng":7.74422},{"id":135786,"name":"Baldissero d'Alba","lat":44.76184,"lng":7.90863},{"id":135785,"name":"Baldissero Torinese","lat":45.06837,"lng":7.81274},{"id":135792,"name":"Balme","lat":45.30192,"lng":7.21937},{"id":135793,"name":"Balmuccia","lat":45.81878,"lng":8.1408},{"id":135794,"name":"Balocco","lat":45.45589,"lng":8.28068},{"id":135799,"name":"Balzola","lat":45.18358,"lng":8.40277},{"id":135802,"name":"Banchette","lat":45.45356,"lng":7.85632},{"id":135803,"name":"Bandito","lat":44.72282,"lng":7.82403},{"id":135804,"name":"Bannio","lat":45.98397,"lng":8.14611},{"id":135816,"name":"Baratte","lat":45.1116,"lng":7.23643},{"id":135818,"name":"Barbania","lat":45.29143,"lng":7.6345},{"id":135823,"name":"Barbaresco","lat":44.72324,"lng":8.08194},{"id":135843,"name":"Bardonecchia","lat":45.07462,"lng":6.69888},{"id":135845,"name":"Barengo","lat":45.57597,"lng":8.51403},{"id":135851,"name":"Barge","lat":44.72786,"lng":7.32283},{"id":135862,"name":"Barolo","lat":44.61094,"lng":7.94284},{"id":135864,"name":"Barone Canavese","lat":45.32576,"lng":7.87342},{"id":135866,"name":"Barquedo","lat":45.74283,"lng":8.4963},{"id":135878,"name":"Basaluzzo","lat":44.76885,"lng":8.70485},{"id":135896,"name":"Bassignana","lat":45.0011,"lng":8.73291},{"id":135900,"name":"Bastia Mondovì","lat":44.44194,"lng":7.89444},{"id":135908,"name":"Battifollo","lat":44.31983,"lng":8.01094},{"id":135914,"name":"Baveno","lat":45.90818,"lng":8.50033},{"id":135922,"name":"Bee","lat":45.96328,"lng":8.57542},{"id":135924,"name":"Beinasco","lat":45.02472,"lng":7.58564},{"id":135925,"name":"Beinette","lat":44.36394,"lng":7.64464},{"id":135930,"name":"Belforte Monferrato","lat":44.62505,"lng":8.66125},{"id":135933,"name":"Belgirate","lat":45.84123,"lng":8.57064},{"id":135944,"name":"Bellinzago Novarese","lat":45.56877,"lng":8.64323},{"id":135962,"name":"Belvedere Langhe","lat":44.49361,"lng":7.97387},{"id":135967,"name":"Belveglio","lat":44.83012,"lng":8.32864},{"id":135972,"name":"Bene Vagienna","lat":44.54268,"lng":7.82726},{"id":135975,"name":"Benevello","lat":44.62981,"lng":8.10507},{"id":135977,"name":"Benna","lat":45.51528,"lng":8.12409},{"id":135986,"name":"Bergamasco","lat":44.82725,"lng":8.45474},{"id":135990,"name":"Bergolo","lat":44.54784,"lng":8.18314},{"id":135995,"name":"Bernezzo","lat":44.38533,"lng":7.43633},{"id":135998,"name":"Bersezio","lat":44.38031,"lng":6.96885},{"id":136004,"name":"Berzano di San Pietro","lat":45.09418,"lng":7.95352},{"id":136005,"name":"Berzano di Tortona","lat":44.87666,"lng":8.95108},{"id":136023,"name":"Beura","lat":46.07964,"lng":8.29826},{"id":136031,"name":"Biandrate","lat":45.45271,"lng":8.46402},{"id":136035,"name":"Bianzè","lat":45.30751,"lng":8.12202},{"id":136041,"name":"Bibiana","lat":44.79894,"lng":7.28822},{"id":136046,"name":"Biella","lat":45.56304,"lng":8.05796},{"id":136054,"name":"Bioglio-Portula-Andrè","lat":45.61516,"lng":8.13602},{"id":136065,"name":"Bistagno","lat":44.66059,"lng":8.37163},{"id":136086,"name":"Bobbio Pellice","lat":44.80854,"lng":7.11691},{"id":136087,"name":"Boca","lat":45.67897,"lng":8.40873},{"id":136089,"name":"Boccioleto","lat":45.83047,"lng":8.11282},{"id":136097,"name":"Bogogno","lat":45.66307,"lng":8.53473},{"id":136106,"name":"Bollengo","lat":45.47162,"lng":7.94133},{"id":136116,"name":"Bolzano Novarese","lat":45.76266,"lng":8.44248},{"id":136143,"name":"Bonvicino","lat":44.50354,"lng":8.01754},{"id":136155,"name":"Borgaro Torinese","lat":45.15122,"lng":7.65543},{"id":136162,"name":"Borghetto di Borbera","lat":44.72945,"lng":8.94346},{"id":136167,"name":"Borgiallo","lat":45.41758,"lng":7.66984},{"id":136169,"name":"Borgo","lat":44.70887,"lng":7.96222},{"id":136199,"name":"Borgo d'Ale","lat":45.34958,"lng":8.05198},{"id":136176,"name":"Borgo Melano","lat":45.01578,"lng":7.57656},{"id":136181,"name":"Borgo San Dalmazzo","lat":44.33785,"lng":7.4931},{"id":136185,"name":"Borgo San Martino","lat":45.09259,"lng":8.52373},{"id":136191,"name":"Borgo Ticino","lat":45.68931,"lng":8.60448},{"id":136196,"name":"Borgo Vercelli","lat":45.3568,"lng":8.4646},{"id":136203,"name":"Borgofranco d'Ivrea","lat":45.51636,"lng":7.85865},{"id":136205,"name":"Borgolavezzaro","lat":45.31918,"lng":8.69931},{"id":136206,"name":"Borgomale","lat":44.62034,"lng":8.13224},{"id":136207,"name":"Borgomanero","lat":45.69873,"lng":8.4623},{"id":136209,"name":"Borgomasino","lat":45.36205,"lng":7.98811},{"id":136210,"name":"Borgone Susa","lat":45.12334,"lng":7.23641},{"id":136213,"name":"Borgoratto Alessandrino","lat":44.83625,"lng":8.53854},{"id":136218,"name":"Borgosesia","lat":45.72045,"lng":8.27466},{"id":136228,"name":"Borriana","lat":45.50781,"lng":8.0386},{"id":136243,"name":"Bosco Marengo","lat":44.82373,"lng":8.68008},{"id":136246,"name":"Bosconero","lat":45.2663,"lng":7.76578},{"id":136250,"name":"Bosia","lat":44.60244,"lng":8.14734},{"id":136251,"name":"Bosio","lat":44.64975,"lng":8.79285},{"id":136255,"name":"Bossolasco","lat":44.52818,"lng":8.04993},{"id":136269,"name":"Boves","lat":44.32985,"lng":7.54733},{"id":136276,"name":"Bozzole","lat":45.06934,"lng":8.60561},{"id":136278,"name":"Bra","lat":44.69776,"lng":7.85128},{"id":136288,"name":"Brandizzo","lat":45.17706,"lng":7.83581},{"id":136297,"name":"Breia","lat":45.76497,"lng":8.30552},{"id":136312,"name":"Breo","lat":44.39865,"lng":7.81903},{"id":136324,"name":"Briaglia","lat":44.39583,"lng":7.87574},{"id":136326,"name":"Bricco di Neive","lat":44.71159,"lng":8.13409},{"id":136327,"name":"Bricherasio","lat":44.82328,"lng":7.303},{"id":136330,"name":"Briga Alta","lat":44.08273,"lng":7.74944},{"id":136331,"name":"Briga Novarese","lat":45.72931,"lng":8.45586},{"id":136332,"name":"Brignano","lat":44.81457,"lng":9.04005},{"id":136337,"name":"Briona","lat":45.54247,"lng":8.47973},{"id":136350,"name":"Brondello","lat":44.60073,"lng":7.40592},{"id":136355,"name":"Brossasco","lat":44.56778,"lng":7.36454},{"id":136356,"name":"Brosso","lat":45.4918,"lng":7.80225},{"id":136357,"name":"Brovello","lat":45.84246,"lng":8.53189},{"id":136358,"name":"Brovello-Carpugnino","lat":45.84247,"lng":8.53173},{"id":136359,"name":"Brozolo","lat":45.11695,"lng":8.07193},{"id":136366,"name":"Bruino","lat":45.01506,"lng":7.47754},{"id":136372,"name":"Bruno","lat":44.79262,"lng":8.43973},{"id":136374,"name":"Brusasco","lat":45.15499,"lng":8.06107},{"id":136377,"name":"Brusnengo","lat":45.59011,"lng":8.25219},{"id":136379,"name":"Bruzolo","lat":45.14093,"lng":7.19463},{"id":136383,"name":"Bubbio","lat":44.66344,"lng":8.29514},{"id":136414,"name":"Buriasco","lat":44.87222,"lng":7.412},{"id":136415,"name":"Burolo","lat":45.48116,"lng":7.93392},{"id":136416,"name":"Buronzo","lat":45.48018,"lng":8.26628},{"id":136420,"name":"Busano","lat":45.33137,"lng":7.65727},{"id":136421,"name":"Busca","lat":44.51625,"lng":7.47662},{"id":136433,"name":"Bussoleno","lat":45.1397,"lng":7.14432},{"id":136439,"name":"Buttigliera Alta","lat":45.06836,"lng":7.43254},{"id":136440,"name":"Buttigliera d'Asti","lat":45.02175,"lng":7.95103},{"id":136448,"name":"Cabella Ligure","lat":44.67491,"lng":9.09607},{"id":136465,"name":"Cafasse","lat":45.24865,"lng":7.51882},{"id":136488,"name":"Calamandrana","lat":44.73767,"lng":8.33726},{"id":136492,"name":"Calasca-Castiglione","lat":46.02081,"lng":8.21451},{"id":136531,"name":"Callabiana - Chiesa","lat":45.63137,"lng":8.09722},{"id":136532,"name":"Calliano","lat":45.00798,"lng":8.25661},{"id":136537,"name":"Calosso","lat":44.73994,"lng":8.22714},{"id":136545,"name":"Caltignaga","lat":45.52088,"lng":8.58616},{"id":136549,"name":"Caluso","lat":45.30466,"lng":7.89101},{"id":136566,"name":"Camagna Monferrato","lat":45.01765,"lng":8.42974},{"id":136570,"name":"Camandona","lat":45.64417,"lng":8.09972},{"id":136573,"name":"Cambiano","lat":44.97113,"lng":7.77447},{"id":136574,"name":"Cambiasca","lat":45.96238,"lng":8.54462},{"id":136575,"name":"Camburzano","lat":45.54393,"lng":8.00226},{"id":136576,"name":"Camerana","lat":44.42404,"lng":8.14144},{"id":136578,"name":"Camerano","lat":44.99118,"lng":8.08965},{"id":136579,"name":"Camerano Casasco","lat":44.99165,"lng":8.09103},{"id":136583,"name":"Cameri","lat":45.50159,"lng":8.66245},{"id":136590,"name":"Camino","lat":45.15723,"lng":8.29376},{"id":136596,"name":"Camo","lat":44.69504,"lng":8.19434},{"id":136613,"name":"Campertogno","lat":45.79877,"lng":8.03212},{"id":136617,"name":"Campiglia Cervo","lat":45.6629,"lng":7.99967},{"id":136620,"name":"Campiglione","lat":44.80284,"lng":7.32422},{"id":136669,"name":"Campomolino","lat":44.40883,"lng":7.21192},{"id":136687,"name":"Canale","lat":44.79532,"lng":7.99373},{"id":136698,"name":"Candelo","lat":45.54093,"lng":8.10659},{"id":136700,"name":"Candia Canavese","lat":45.32734,"lng":7.88429},{"id":136706,"name":"Candiolo","lat":44.95858,"lng":7.59812},{"id":136708,"name":"Canelli","lat":44.72084,"lng":8.29282},{"id":136715,"name":"Canischio","lat":45.37485,"lng":7.59621},{"id":136720,"name":"Cannero Riviera","lat":46.022,"lng":8.67933},{"id":136726,"name":"Cannobio","lat":46.06233,"lng":8.69628},{"id":136733,"name":"Canosio","lat":44.45583,"lng":7.08272},{"id":136740,"name":"Cantalupa","lat":44.94594,"lng":7.33032},{"id":136742,"name":"Cantalupo Ligure","lat":44.71811,"lng":9.04575},{"id":136745,"name":"Cantarana","lat":44.90245,"lng":8.02753},{"id":136750,"name":"Cantoira","lat":45.34014,"lng":7.3845},{"id":136806,"name":"Caprauna","lat":44.11603,"lng":7.95495},{"id":136808,"name":"Caprezzo","lat":45.98198,"lng":8.56282},{"id":136814,"name":"Capriata d'Orba","lat":44.72785,"lng":8.69085},{"id":136817,"name":"Caprie","lat":45.11944,"lng":7.33294},{"id":136820,"name":"Capriglio","lat":45.00355,"lng":8.00893},{"id":136829,"name":"Caraglio","lat":44.41725,"lng":7.43281},{"id":136830,"name":"Caramagna Piemonte","lat":44.78224,"lng":7.73943},{"id":136842,"name":"Caravino","lat":45.3995,"lng":7.9602},{"id":136845,"name":"Carbonara Scrivia","lat":44.84915,"lng":8.86975},{"id":136856,"name":"Carcoforo","lat":45.90858,"lng":8.04967},{"id":136863,"name":"Cardè","lat":44.74444,"lng":7.47762},{"id":136865,"name":"Carema","lat":45.58401,"lng":7.80879},{"id":136867,"name":"Carentino","lat":44.82885,"lng":8.47134},{"id":136869,"name":"Caresana","lat":45.22142,"lng":8.5048},{"id":136870,"name":"Caresanablot","lat":45.35736,"lng":8.39203},{"id":136871,"name":"Carezzano Maggiore","lat":44.80705,"lng":8.90055},{"id":136877,"name":"Carignano","lat":44.90599,"lng":7.67253},{"id":136882,"name":"Carisio","lat":45.41017,"lng":8.19962},{"id":136890,"name":"Carmagnola","lat":44.84963,"lng":7.72032},{"id":136911,"name":"Carpeneto","lat":44.67835,"lng":8.60555},{"id":136916,"name":"Carpignano Sesia","lat":45.53341,"lng":8.41734},{"id":136927,"name":"Carrega Ligure","lat":44.61879,"lng":9.17564},{"id":136930,"name":"Carrosio","lat":44.65776,"lng":8.83126},{"id":136935,"name":"Carrù","lat":44.47967,"lng":7.87236},{"id":136939,"name":"Cartignano","lat":44.47833,"lng":7.28573},{"id":136941,"name":"Cartosio","lat":44.59024,"lng":8.42065},{"id":136957,"name":"Casal Cermelli","lat":44.83495,"lng":8.62495},{"id":136964,"name":"Casalbeltrame","lat":45.43806,"lng":8.46653},{"id":136967,"name":"Casalborgone","lat":45.13045,"lng":7.94043},{"id":136974,"name":"Casale Corte Cerro","lat":45.91545,"lng":8.41407},{"id":136978,"name":"Casale Monferrato","lat":45.13338,"lng":8.4525},{"id":136982,"name":"Casaleggio Boiro","lat":44.63355,"lng":8.73045},{"id":136983,"name":"Casaleggio Novara","lat":45.48793,"lng":8.49307},{"id":136992,"name":"Casalgrasso","lat":44.81834,"lng":7.62498},{"id":136997,"name":"Casalino","lat":45.35836,"lng":8.52393},{"id":137002,"name":"Casalnoceto","lat":44.91326,"lng":8.98376},{"id":137013,"name":"Casalvolone","lat":45.39966,"lng":8.46472},{"id":137022,"name":"Casanova Elvo","lat":45.4002,"lng":8.29413},{"id":137027,"name":"Casapinta","lat":45.61566,"lng":8.19592},{"id":137036,"name":"Casasco","lat":44.82734,"lng":9.00565},{"id":137052,"name":"Cascinette d'Ivrea","lat":45.48016,"lng":7.90562},{"id":137057,"name":"Caselette","lat":45.10975,"lng":7.48582},{"id":137062,"name":"Caselle Torinese","lat":45.17458,"lng":7.6429},{"id":137090,"name":"Casorzo","lat":45.02165,"lng":8.33843},{"id":137098,"name":"Cassano Spinola","lat":44.76557,"lng":8.86228},{"id":137108,"name":"Cassinasco","lat":44.68977,"lng":8.30345},{"id":137109,"name":"Cassine","lat":44.75166,"lng":8.52872},{"id":137110,"name":"Cassinelle-Concentrico","lat":44.60154,"lng":8.56345},{"id":137118,"name":"Castagneto Po","lat":45.15854,"lng":7.88639},{"id":137119,"name":"Castagnito","lat":44.75472,"lng":8.03195},{"id":137123,"name":"Castagnole delle Lanze","lat":44.74988,"lng":8.14966},{"id":137121,"name":"Castagnole Monferrato","lat":44.95864,"lng":8.30507},{"id":137122,"name":"Castagnole Piemonte","lat":44.89814,"lng":7.56612},{"id":137130,"name":"Castel Boglione","lat":44.72195,"lng":8.37994},{"id":137148,"name":"Castel Rocchero","lat":44.71835,"lng":8.41534},{"id":137184,"name":"Castelceriolo","lat":44.91723,"lng":8.69384},{"id":137190,"name":"Casteldelfino","lat":44.59002,"lng":7.07026},{"id":137206,"name":"Castell'Alfero","lat":44.98505,"lng":8.22309},{"id":137214,"name":"Castellamonte","lat":45.38267,"lng":7.70886},{"id":137218,"name":"Castellania","lat":44.79845,"lng":8.93035},{"id":137220,"name":"Castellar","lat":44.62123,"lng":7.43743},{"id":137221,"name":"Castellar Guidobono","lat":44.90483,"lng":8.94835},{"id":137224,"name":"Castellazzo Bormida","lat":44.84353,"lng":8.579},{"id":137225,"name":"Castellazzo Novarese","lat":45.51337,"lng":8.48693},{"id":137228,"name":"Castellero","lat":44.92535,"lng":8.07383},{"id":137231,"name":"Castelletto Cervo","lat":45.52136,"lng":8.22542},{"id":137239,"name":"Castelletto d'Erro","lat":44.62597,"lng":8.39442},{"id":137240,"name":"Castelletto d'Orba","lat":44.68455,"lng":8.70395},{"id":137232,"name":"Castelletto Merli","lat":45.07395,"lng":8.24013},{"id":137233,"name":"Castelletto Molina","lat":44.75125,"lng":8.43324},{"id":137234,"name":"Castelletto Monferrato","lat":44.98115,"lng":8.56454},{"id":137236,"name":"Castelletto Sopra Ticino","lat":45.72002,"lng":8.63362},{"id":137237,"name":"Castelletto Stura","lat":44.44383,"lng":7.63923},{"id":137238,"name":"Castelletto Uzzone","lat":44.49527,"lng":8.18772},{"id":137247,"name":"Castellinaldo","lat":44.77484,"lng":8.02974},{"id":137248,"name":"Castellino Tanaro","lat":44.42784,"lng":7.98124},{"id":137259,"name":"Castello di Annone","lat":44.87944,"lng":8.31701},{"id":137282,"name":"Castelnuovo Belbo","lat":44.8011,"lng":8.41236},{"id":137285,"name":"Castelnuovo Bormida","lat":44.74236,"lng":8.5506},{"id":137287,"name":"Castelnuovo Calcea","lat":44.78688,"lng":8.28421},{"id":137299,"name":"Castelnuovo di Ceva","lat":44.35363,"lng":8.12894},{"id":137289,"name":"Castelnuovo Don Bosco","lat":45.04077,"lng":7.96389},{"id":137291,"name":"Castelnuovo Nigra","lat":45.43816,"lng":7.69461},{"id":137294,"name":"Castelnuovo Scrivia","lat":44.97932,"lng":8.88246},{"id":137317,"name":"Castelspina","lat":44.80615,"lng":8.58315},{"id":137341,"name":"Castiglione Falletto","lat":44.62254,"lng":7.97534},{"id":137345,"name":"Castiglione Tinella","lat":44.72534,"lng":8.19014},{"id":137346,"name":"Castiglione Torinese","lat":45.11905,"lng":7.80712},{"id":137361,"name":"Castino","lat":44.61784,"lng":8.18244},{"id":137409,"name":"Cavaglià","lat":45.40602,"lng":8.09163},{"id":137406,"name":"Cavaglietto","lat":45.60217,"lng":8.50213},{"id":137407,"name":"Cavaglio D'Agogna","lat":45.61317,"lng":8.48613},{"id":137408,"name":"Cavaglio-Spoccia","lat":46.07108,"lng":8.63072},{"id":137410,"name":"Cavagnolo","lat":45.15175,"lng":8.04903},{"id":137415,"name":"Cavallerleone","lat":44.74014,"lng":7.66393},{"id":137416,"name":"Cavallermaggiore","lat":44.70639,"lng":7.68693},{"id":137420,"name":"Cavallirio","lat":45.66227,"lng":8.39694},{"id":137427,"name":"Cavatore","lat":44.63099,"lng":8.45276},{"id":137441,"name":"Cavour","lat":44.79286,"lng":7.37438},{"id":137468,"name":"Cella Monte","lat":45.07405,"lng":8.39154},{"id":137471,"name":"Cellarengo","lat":44.86435,"lng":7.94533},{"id":137473,"name":"Celle Enomondo","lat":44.85685,"lng":8.12373},{"id":137481,"name":"Cellio","lat":45.75505,"lng":8.31185},{"id":137495,"name":"Centallo","lat":44.50153,"lng":7.58783},{"id":137509,"name":"Ceppo Morelli","lat":45.97114,"lng":8.06688},{"id":137514,"name":"Cerano","lat":45.40915,"lng":8.78351},{"id":137522,"name":"Cercenasco","lat":44.86204,"lng":7.49822},{"id":137535,"name":"Ceres","lat":45.31336,"lng":7.38961},{"id":137536,"name":"Ceresane-Curanuova","lat":45.52435,"lng":8.00708},{"id":137539,"name":"Cereseto","lat":45.08685,"lng":8.31817},{"id":137540,"name":"Ceresole Alba","lat":44.79974,"lng":7.82243},{"id":137541,"name":"Ceresole Reale","lat":45.43235,"lng":7.23506},{"id":137561,"name":"Cerreto Castello","lat":45.56446,"lng":8.16082},{"id":137567,"name":"Cerreto d'Asti","lat":45.05215,"lng":8.03513},{"id":137562,"name":"Cerreto Grue","lat":44.84255,"lng":8.93035},{"id":137564,"name":"Cerreto Langhe","lat":44.57484,"lng":8.09794},{"id":137570,"name":"Cerrina","lat":45.12135,"lng":8.21383},{"id":137571,"name":"Cerrione","lat":45.46933,"lng":8.0684},{"id":137573,"name":"Cerro Tanaro","lat":44.87335,"lng":8.35874},{"id":137585,"name":"Cervasca","lat":44.38093,"lng":7.47123},{"id":137586,"name":"Cervatto","lat":45.88297,"lng":8.16232},{"id":137588,"name":"Cervere","lat":44.63428,"lng":7.78884},{"id":137603,"name":"Cesana Torinese","lat":44.9534,"lng":6.79199},{"id":137607,"name":"Cesara","lat":45.83379,"lng":8.36777},{"id":137619,"name":"Cessole","lat":44.64877,"lng":8.24438},{"id":137625,"name":"Ceva","lat":44.38505,"lng":8.02769},{"id":137636,"name":"Cherasco","lat":44.64345,"lng":7.85818},{"id":137640,"name":"Chialamberto","lat":45.36295,"lng":7.34363},{"id":137647,"name":"Chianocco","lat":45.14854,"lng":7.16981},{"id":137661,"name":"Chiaverano","lat":45.49886,"lng":7.90262},{"id":137663,"name":"Chieri","lat":45.01054,"lng":7.82133},{"id":137667,"name":"Chiesa di Macra","lat":44.48283,"lng":7.18062},{"id":137669,"name":"Chiesanuova","lat":45.41745,"lng":7.65552},{"id":137678,"name":"Chiomonte","lat":45.11909,"lng":6.9842},{"id":137688,"name":"Chiusa di Pesio","lat":44.32588,"lng":7.67431},{"id":137689,"name":"Chiusa di San Michele","lat":45.10424,"lng":7.32711},{"id":137692,"name":"Chiusano d'Asti","lat":44.98665,"lng":8.11853},{"id":137699,"name":"Chivasso","lat":45.19093,"lng":7.88981},{"id":137714,"name":"Ciconio","lat":45.33025,"lng":7.75852},{"id":137715,"name":"Cigliano","lat":45.30804,"lng":8.02316},{"id":137716,"name":"Cigliè","lat":44.43653,"lng":7.92654},{"id":137729,"name":"Cinaglio","lat":44.97525,"lng":8.10003},{"id":137738,"name":"Cintano","lat":45.42812,"lng":7.68827},{"id":137742,"name":"Cinzano","lat":45.09528,"lng":7.92427},{"id":137749,"name":"Ciriè","lat":45.23486,"lng":7.60125},{"id":137760,"name":"Cissone","lat":44.56314,"lng":8.03044},{"id":137761,"name":"Cisterna d'Asti","lat":44.82525,"lng":8.00076},{"id":137781,"name":"Civiasco","lat":45.80786,"lng":8.29386},{"id":137809,"name":"Clavesana","lat":44.48334,"lng":7.91084},{"id":137810,"name":"Claviere","lat":44.93922,"lng":6.75213},{"id":137818,"name":"Coassolo","lat":45.29838,"lng":7.46136},{"id":137819,"name":"Coassolo Torinese","lat":45.29775,"lng":7.46041},{"id":137820,"name":"Coazze","lat":45.05181,"lng":7.30063},{"id":137821,"name":"Coazzolo","lat":44.72824,"lng":8.14514},{"id":137824,"name":"Cocconato","lat":45.08642,"lng":8.04019},{"id":137839,"name":"Coggiola","lat":45.6864,"lng":8.18252},{"id":137847,"name":"Colazza","lat":45.79257,"lng":8.50033},{"id":137883,"name":"Collegno","lat":45.07873,"lng":7.56735},{"id":137891,"name":"Colleretto Castelnuovo","lat":45.42236,"lng":7.67981},{"id":137892,"name":"Colleretto Giacosa","lat":45.43286,"lng":7.79852},{"id":137905,"name":"Collobiano","lat":45.39665,"lng":8.3475},{"id":137940,"name":"Comignago","lat":45.71487,"lng":8.56403},{"id":137964,"name":"Condove","lat":45.11591,"lng":7.30859},{"id":137970,"name":"Coniolo Bricco","lat":45.14816,"lng":8.37093},{"id":137984,"name":"Conzano","lat":45.02009,"lng":8.45554},{"id":138016,"name":"Corio","lat":45.31222,"lng":7.53351},{"id":138030,"name":"Corneliano d'Alba","lat":44.73614,"lng":7.95723},{"id":138049,"name":"Corsione","lat":45.00095,"lng":8.14523},{"id":138052,"name":"Cortandone","lat":44.95915,"lng":8.05843},{"id":138053,"name":"Cortanze","lat":45.01404,"lng":8.08879},{"id":138054,"name":"Cortazzone","lat":44.97915,"lng":8.06123},{"id":138061,"name":"Cortemilia","lat":44.58044,"lng":8.19367},{"id":138066,"name":"Cortiglione","lat":44.82225,"lng":8.35796},{"id":138083,"name":"Cossano Belbo","lat":44.66884,"lng":8.19864},{"id":138084,"name":"Cossano Canavese","lat":45.38776,"lng":7.99152},{"id":138085,"name":"Cossato","lat":45.57032,"lng":8.18471},{"id":138088,"name":"Cossogno","lat":45.96408,"lng":8.50962},{"id":138090,"name":"Cossombrato","lat":44.98976,"lng":8.13897},{"id":138095,"name":"Costa Vescovato","lat":44.81615,"lng":8.92695},{"id":138105,"name":"Costanzana","lat":45.23742,"lng":8.36943},{"id":138109,"name":"Costigliole d'Asti","lat":44.78517,"lng":8.18405},{"id":138110,"name":"Costiglione Saluzzo","lat":44.56453,"lng":7.48543},{"id":138124,"name":"Crava","lat":44.43001,"lng":7.74493},{"id":138125,"name":"Cravagliana","lat":45.84827,"lng":8.20182},{"id":138126,"name":"Cravanzana","lat":44.57448,"lng":8.12731},{"id":138127,"name":"Craveggia","lat":46.14124,"lng":8.48907},{"id":138137,"name":"Cremolino","lat":44.63674,"lng":8.58584},{"id":138141,"name":"Crescentino","lat":45.19941,"lng":8.08635},{"id":138148,"name":"Cressa","lat":45.64762,"lng":8.50942},{"id":138151,"name":"Crevacuore","lat":45.68548,"lng":8.24404},{"id":138153,"name":"Crevoladossola","lat":46.14858,"lng":8.29742},{"id":138158,"name":"Crissolo","lat":44.69953,"lng":7.15602},{"id":138162,"name":"Crodo","lat":46.21726,"lng":8.32238},{"id":138172,"name":"Crova","lat":45.33066,"lng":8.21083},{"id":138178,"name":"Cuccaro Monferrato","lat":44.99365,"lng":8.45754},{"id":138182,"name":"Cuceglio","lat":45.35853,"lng":7.81588},{"id":138187,"name":"Cumiana","lat":44.97629,"lng":7.37761},{"id":138190,"name":"Cuneo","lat":44.39071,"lng":7.54828},{"id":138193,"name":"Cunico","lat":45.0405,"lng":8.09554},{"id":138194,"name":"Cuorgnè","lat":45.39341,"lng":7.65015},{"id":138200,"name":"Cureggio","lat":45.67487,"lng":8.45973},{"id":138203,"name":"Curino","lat":45.62717,"lng":8.23622},{"id":138207,"name":"Cursolo","lat":46.09858,"lng":8.56822},{"id":138246,"name":"Demonte","lat":44.31646,"lng":7.29808},{"id":138247,"name":"Denice","lat":44.59884,"lng":8.33315},{"id":138250,"name":"Dernice","lat":44.7666,"lng":9.05001},{"id":138254,"name":"Desana","lat":45.26915,"lng":8.35777},{"id":138264,"name":"Diano d'Alba","lat":44.65294,"lng":8.02704},{"id":138271,"name":"Divignano","lat":45.66247,"lng":8.59987},{"id":138276,"name":"Dogliani","lat":44.53326,"lng":7.9451},{"id":138292,"name":"Domodossola","lat":46.1165,"lng":8.29313},{"id":138297,"name":"Donato","lat":45.52626,"lng":7.90962},{"id":138309,"name":"Dormelletto","lat":45.73627,"lng":8.56663},{"id":138312,"name":"Dorzano","lat":45.42606,"lng":8.09852},{"id":138332,"name":"Dronero","lat":44.46476,"lng":7.36242},{"id":138333,"name":"Drubiaglio-Grangia","lat":45.09552,"lng":7.4194},{"id":138334,"name":"Druento","lat":45.13306,"lng":7.57512},{"id":138335,"name":"Druogno","lat":46.13421,"lng":8.43276},{"id":138347,"name":"Dusino","lat":44.92566,"lng":7.97165},{"id":138361,"name":"Entracque","lat":44.24028,"lng":7.39847},{"id":138363,"name":"Envie","lat":44.6821,"lng":7.37206},{"id":138390,"name":"Exilles","lat":45.09754,"lng":6.9292},{"id":138423,"name":"Falmenta","lat":46.07309,"lng":8.58944},{"id":138439,"name":"Fara Novarese","lat":45.5544,"lng":8.45664},{"id":138446,"name":"Farigliano","lat":44.51204,"lng":7.91424},{"id":138457,"name":"Faule","lat":44.80624,"lng":7.58512},{"id":138460,"name":"Favari-Avatanei","lat":44.91235,"lng":7.7995},{"id":138463,"name":"Favria","lat":45.33099,"lng":7.68834},{"id":138465,"name":"Feisoglio","lat":44.54374,"lng":8.10494},{"id":138467,"name":"Feletto","lat":45.30336,"lng":7.74481},{"id":138471,"name":"Felizzano","lat":44.89935,"lng":8.43584},{"id":138477,"name":"Fenestrelle","lat":45.03594,"lng":7.04941},{"id":138494,"name":"Ferrere","lat":44.87605,"lng":7.99421},{"id":138495,"name":"Ferriera","lat":45.08382,"lng":7.43017},{"id":138500,"name":"Fiano","lat":45.21631,"lng":7.52603},{"id":138540,"name":"Fiorano Canavese","lat":45.46776,"lng":7.83372},{"id":138561,"name":"Fleccia-Chianavasso","lat":44.9467,"lng":7.21474},{"id":138570,"name":"Fobello","lat":45.89002,"lng":8.15799},{"id":138576,"name":"Foglizzo","lat":45.27361,"lng":7.82087},{"id":138599,"name":"Fontanella-Ozino","lat":45.61963,"lng":8.16927},{"id":138602,"name":"Fontaneto D'Agogna","lat":45.64347,"lng":8.47879},{"id":138603,"name":"Fontanetto Po","lat":45.19436,"lng":8.19206},{"id":138605,"name":"Fontanile","lat":44.75295,"lng":8.42134},{"id":138634,"name":"Formazza","lat":46.37689,"lng":8.42571},{"id":138641,"name":"Formigliana","lat":45.42926,"lng":8.29193},{"id":138648,"name":"Fornaci","lat":45.02816,"lng":7.59869},{"id":138656,"name":"Forno Canavese","lat":45.34287,"lng":7.58951},{"id":138674,"name":"Fossano","lat":44.55077,"lng":7.71922},{"id":138684,"name":"Frabosa Soprana","lat":44.29094,"lng":7.80353},{"id":138685,"name":"Frabosa Sottana","lat":44.30233,"lng":7.79754},{"id":138686,"name":"Fraconalto","lat":44.59105,"lng":8.87846},{"id":138693,"name":"Francavilla Bisio","lat":44.73465,"lng":8.73125},{"id":138706,"name":"Frascaro","lat":44.82575,"lng":8.53127},{"id":138712,"name":"Frassinello Monferrato","lat":45.03322,"lng":8.38666},{"id":138713,"name":"Frassineto Po","lat":45.13271,"lng":8.53525},{"id":138714,"name":"Frassinetto","lat":45.43834,"lng":7.60886},{"id":138715,"name":"Frassino","lat":44.57211,"lng":7.27536},{"id":138726,"name":"Frazione Chiesa","lat":45.69405,"lng":8.21228},{"id":138732,"name":"Fresonara","lat":44.78295,"lng":8.68615},{"id":138735,"name":"Frinco","lat":45.00405,"lng":8.17193},{"id":138738,"name":"Front","lat":45.27941,"lng":7.66425},{"id":138743,"name":"Frossasco","lat":44.92176,"lng":7.37125},{"id":138744,"name":"Frugarolo","lat":44.83924,"lng":8.68165},{"id":138745,"name":"Fubine","lat":44.96305,"lng":8.42814},{"id":138766,"name":"Gabbio-Cereda-Ramate","lat":45.90959,"lng":8.42113},{"id":138769,"name":"Gabiano","lat":45.15714,"lng":8.19469},{"id":138780,"name":"Gaglianico","lat":45.53718,"lng":8.07839},{"id":138790,"name":"Gaiola","lat":44.33554,"lng":7.40896},{"id":138804,"name":"Galliate","lat":45.47942,"lng":8.69815},{"id":138825,"name":"Gamalero","lat":44.8085,"lng":8.54116},{"id":138828,"name":"Gambasca","lat":44.6295,"lng":7.34686},{"id":138842,"name":"Garadassi","lat":44.75429,"lng":9.15393},{"id":138844,"name":"Garbagna","lat":44.78045,"lng":8.99786},{"id":138845,"name":"Garbagna Novarese","lat":45.38876,"lng":8.66124},{"id":138853,"name":"Garessio","lat":44.20705,"lng":8.01778},{"id":138854,"name":"Gargallo","lat":45.72877,"lng":8.42533},{"id":138857,"name":"Garino","lat":44.97325,"lng":7.61728},{"id":138863,"name":"Garzigliana","lat":44.83724,"lng":7.37442},{"id":138865,"name":"Gassino Torinese","lat":45.12907,"lng":7.82934},{"id":138868,"name":"Gattico","lat":45.70717,"lng":8.52003},{"id":138869,"name":"Gattinara","lat":45.61309,"lng":8.36463},{"id":138873,"name":"Gavazzana","lat":44.77585,"lng":8.88595},{"id":138876,"name":"Gavi","lat":44.68627,"lng":8.80717},{"id":138900,"name":"Genola","lat":44.59053,"lng":7.66114},{"id":138910,"name":"Gerbido","lat":45.04449,"lng":7.61408},{"id":138911,"name":"Gerbole","lat":45.00115,"lng":7.5067},{"id":138912,"name":"Gerbole-Zucche","lat":44.98605,"lng":7.51671},{"id":138916,"name":"Germagnano","lat":45.26317,"lng":7.46886},{"id":138917,"name":"Germagno","lat":45.89257,"lng":8.38772},{"id":138930,"name":"Ghemme","lat":45.59863,"lng":8.42013},{"id":138932,"name":"Ghiare-Madonna","lat":44.8077,"lng":8.37404},{"id":138933,"name":"Ghiffa","lat":45.95298,"lng":8.6043},{"id":138936,"name":"Ghislarengo","lat":45.52856,"lng":8.38514},{"id":138939,"name":"Giaglione","lat":45.13919,"lng":7.01534},{"id":138947,"name":"Giarole","lat":45.06148,"lng":8.5673},{"id":138952,"name":"Giaveno","lat":45.04435,"lng":7.34722},{"id":138955,"name":"Gifflenga","lat":45.49306,"lng":8.23223},{"id":138959,"name":"Gignese","lat":45.86396,"lng":8.50943},{"id":139002,"name":"Givoletto","lat":45.16225,"lng":7.49642},{"id":139023,"name":"Gonte","lat":45.99519,"lng":8.64982},{"id":139042,"name":"Gorzegno","lat":44.51236,"lng":8.1348},{"id":139045,"name":"Gottasecca","lat":44.46014,"lng":8.16754},{"id":139047,"name":"Govone","lat":44.80445,"lng":8.09404},{"id":139048,"name":"Gozzano","lat":45.74273,"lng":8.43659},{"id":139055,"name":"Graglia","lat":45.558,"lng":7.97899},{"id":139059,"name":"Grana","lat":44.99835,"lng":8.29944},{"id":139067,"name":"Granozzo con Monticello","lat":45.36016,"lng":8.57334},{"id":139080,"name":"Gravellona Toce","lat":45.92859,"lng":8.43209},{"id":139081,"name":"Gravere","lat":45.12534,"lng":7.01751},{"id":139085,"name":"Grazzano Badoglio","lat":45.03996,"lng":8.31105},{"id":139087,"name":"Greggio","lat":45.45148,"lng":8.38494},{"id":139088,"name":"Gremiasco","lat":44.79625,"lng":9.10686},{"id":139099,"name":"Grignasco","lat":45.67982,"lng":8.34442},{"id":139102,"name":"Grinzane Cavour","lat":44.65334,"lng":7.99504},{"id":139107,"name":"Grognardo","lat":44.63034,"lng":8.49265},{"id":139110,"name":"Grondona","lat":44.69645,"lng":8.96546},{"id":139115,"name":"Groscavallo","lat":45.36805,"lng":7.25801},{"id":139119,"name":"Grosso","lat":45.25645,"lng":7.55732},{"id":139134,"name":"Grugliasco","lat":45.06516,"lng":7.57954},{"id":139154,"name":"Guardabosone","lat":45.70187,"lng":8.24932},{"id":139167,"name":"Guarene","lat":44.74004,"lng":8.03514},{"id":139172,"name":"Guazzora","lat":45.01392,"lng":8.84822},{"id":139183,"name":"Gurro","lat":46.08498,"lng":8.56772},{"id":139192,"name":"Igliano","lat":44.44294,"lng":8.01334},{"id":139204,"name":"Incisa Scapaccino","lat":44.80805,"lng":8.37584},{"id":139208,"name":"Ingria","lat":45.4665,"lng":7.57119},{"id":139209,"name":"Intragna","lat":45.99468,"lng":8.57392},{"id":139217,"name":"Inverso Pinasca","lat":44.94564,"lng":7.21841},{"id":139219,"name":"Invorio","lat":45.75679,"lng":8.48741},{"id":139224,"name":"Isasca","lat":44.58763,"lng":7.38162},{"id":139242,"name":"Isola d'Asti","lat":44.83315,"lng":8.18024},{"id":139240,"name":"Isola Sant'Antonio","lat":45.03019,"lng":8.84928},{"id":139252,"name":"Isolabella","lat":44.90645,"lng":7.90903},{"id":139261,"name":"Issiglio","lat":45.44626,"lng":7.75322},{"id":139271,"name":"Ivrea","lat":45.46723,"lng":7.87617},{"id":139289,"name":"La Cassa","lat":45.18035,"lng":7.51632},{"id":139292,"name":"La Loggia","lat":44.95495,"lng":7.66864},{"id":139297,"name":"La Morra","lat":44.6379,"lng":7.93078},{"id":139309,"name":"La Villa","lat":45.26713,"lng":7.43109},{"id":139325,"name":"Lagnasco","lat":44.62504,"lng":7.55483},{"id":139351,"name":"Lamporo","lat":45.23092,"lng":8.09846},{"id":139356,"name":"Landiona","lat":45.49703,"lng":8.42224},{"id":139362,"name":"Lanvario","lat":45.6397,"lng":8.19856},{"id":139365,"name":"Lanzo Torinese","lat":45.27657,"lng":7.48235},{"id":139402,"name":"Lauriano","lat":45.15989,"lng":7.99474},{"id":139439,"name":"Leini","lat":45.18275,"lng":7.71422},{"id":139441,"name":"Lemie","lat":45.22866,"lng":7.29248},{"id":139449,"name":"Lenta","lat":45.55691,"lng":8.38402},{"id":139461,"name":"Lequio Berria","lat":44.60584,"lng":8.09814},{"id":139462,"name":"Lequio Tanaro","lat":44.55994,"lng":7.88214},{"id":139465,"name":"Lerma","lat":44.63577,"lng":8.71323},{"id":139466,"name":"Lesa","lat":45.82066,"lng":8.55964},{"id":139467,"name":"Lesegno","lat":44.4011,"lng":7.96943},{"id":139471,"name":"Lesna","lat":45.05418,"lng":7.62031},{"id":139472,"name":"Lessolo","lat":45.47794,"lng":7.81576},{"id":139473,"name":"Lessona","lat":45.58693,"lng":8.19433},{"id":139487,"name":"Levice","lat":44.53824,"lng":8.15504},{"id":139489,"name":"Levone","lat":45.31665,"lng":7.60632},{"id":139510,"name":"Lignana","lat":45.28606,"lng":8.34393},{"id":139525,"name":"Limone Piemonte","lat":44.20091,"lng":7.57861},{"id":139542,"name":"Lisio","lat":44.30713,"lng":7.97874},{"id":139544,"name":"Litta Parodi-Cascinagrossa","lat":44.87336,"lng":8.71246},{"id":139545,"name":"Livera","lat":45.61239,"lng":8.10571},{"id":139552,"name":"Livorno Ferraris","lat":45.28271,"lng":8.0778},{"id":139558,"name":"Loazzolo","lat":44.66904,"lng":8.25844},{"id":139559,"name":"Locana","lat":45.41419,"lng":7.45712},{"id":139580,"name":"Lombardore","lat":45.2358,"lng":7.73703},{"id":139581,"name":"Lombriasco","lat":44.84094,"lng":7.63593},{"id":139602,"name":"Loranzè","lat":45.44269,"lng":7.81328},{"id":139605,"name":"Loreglia","lat":45.90687,"lng":8.37132},{"id":139625,"name":"Lozzolo","lat":45.61894,"lng":8.32284},{"id":139626,"name":"Lu","lat":45.00184,"lng":8.48561},{"id":139646,"name":"Lugnacco","lat":45.44506,"lng":7.78212},{"id":139654,"name":"Lumellogno","lat":45.40801,"lng":8.58787},{"id":139672,"name":"Luserna","lat":44.80745,"lng":7.24579},{"id":139673,"name":"Lusernetta","lat":44.80314,"lng":7.24672},{"id":139677,"name":"Lusigliè","lat":45.31845,"lng":7.76462},{"id":139695,"name":"Macello","lat":44.85114,"lng":7.39802},{"id":139704,"name":"Macra","lat":44.50013,"lng":7.17952},{"id":139705,"name":"Macugnaga","lat":45.96929,"lng":7.96783},{"id":139710,"name":"Madonna del Sasso","lat":45.79217,"lng":8.36952},{"id":139718,"name":"Maggiora","lat":45.68937,"lng":8.42233},{"id":139723,"name":"Magliano Alfieri","lat":44.76924,"lng":8.07014},{"id":139724,"name":"Magliano Alpi","lat":44.45808,"lng":7.81926},{"id":139733,"name":"Maglione","lat":45.34666,"lng":8.01332},{"id":139734,"name":"Maglione-Crosa","lat":45.60297,"lng":8.14937},{"id":139737,"name":"Magnano","lat":45.46336,"lng":8.00302},{"id":139762,"name":"Malesco","lat":46.128,"lng":8.49801},{"id":139777,"name":"Malvicino","lat":44.55934,"lng":8.41315},{"id":139787,"name":"Mandello Vitta","lat":45.49567,"lng":8.45983},{"id":139790,"name":"Mandrogne","lat":44.86308,"lng":8.74676},{"id":139797,"name":"Mango","lat":44.68812,"lng":8.14922},{"id":139805,"name":"Manta","lat":44.61583,"lng":7.48703},{"id":139816,"name":"Mappano","lat":45.14833,"lng":7.70778},{"id":139825,"name":"Marano Ticino","lat":45.62783,"lng":8.63155},{"id":139831,"name":"Maranzana","lat":44.76035,"lng":8.47845},{"id":139857,"name":"Marene","lat":44.66113,"lng":7.73436},{"id":139859,"name":"Marentino","lat":45.05368,"lng":7.87609},{"id":139861,"name":"Maretto","lat":44.94485,"lng":8.03413},{"id":139862,"name":"Margarita","lat":44.40343,"lng":7.68493},{"id":139907,"name":"Marmora","lat":44.45833,"lng":7.09402},{"id":139909,"name":"Marocchi","lat":44.94201,"lng":7.81888},{"id":139918,"name":"Marsaglia","lat":44.45284,"lng":7.97994},{"id":139935,"name":"Martiniana Po","lat":44.62723,"lng":7.36282},{"id":139957,"name":"Masera","lat":46.13888,"lng":8.32526},{"id":139962,"name":"Masio","lat":44.86965,"lng":8.40774},{"id":139981,"name":"Massazza","lat":45.49183,"lng":8.16495},{"id":139982,"name":"Massello","lat":44.95874,"lng":7.05671},{"id":139984,"name":"Masserano","lat":45.59536,"lng":8.22197},{"id":139989,"name":"Massino Visconti","lat":45.82417,"lng":8.54133},{"id":139990,"name":"Massiola","lat":45.91247,"lng":8.32012},{"id":139995,"name":"Mathi","lat":45.25515,"lng":7.54202},{"id":140000,"name":"Mattie","lat":45.11814,"lng":7.11511},{"id":140010,"name":"Mazze","lat":45.30025,"lng":7.93272},{"id":140014,"name":"Meana di Susa","lat":45.12204,"lng":7.06471},{"id":140032,"name":"Meina","lat":45.79123,"lng":8.53761},{"id":140036,"name":"Melazzo","lat":44.64394,"lng":8.42495},{"id":140054,"name":"Melle","lat":44.56197,"lng":7.31948},{"id":140067,"name":"Merana","lat":44.51884,"lng":8.29824},{"id":140080,"name":"Mercenasco","lat":45.36002,"lng":7.88013},{"id":140084,"name":"Mergozzo","lat":45.96229,"lng":8.45403},{"id":140103,"name":"Meugliano","lat":45.49026,"lng":7.77942},{"id":140107,"name":"Mezzana Mortigliengo","lat":45.62657,"lng":8.18952},{"id":140117,"name":"Mezzenile","lat":45.29485,"lng":7.39561},{"id":140124,"name":"Mezzomerico","lat":45.61991,"lng":8.60616},{"id":140125,"name":"Miagliano","lat":45.61346,"lng":8.04472},{"id":140128,"name":"Miasino","lat":45.80197,"lng":8.42972},{"id":140129,"name":"Miazzina","lat":45.97566,"lng":8.52308},{"id":140143,"name":"Milanere","lat":45.10436,"lng":7.43373},{"id":140170,"name":"Mirabello Monferrato","lat":45.03496,"lng":8.52385},{"id":140186,"name":"Moasca","lat":44.76355,"lng":8.27834},{"id":140208,"name":"Moiola","lat":44.32113,"lng":7.38973},{"id":140210,"name":"Molare","lat":44.61807,"lng":8.5996},{"id":140222,"name":"Molino dei Torti","lat":45.02426,"lng":8.89365},{"id":140229,"name":"Mollia","lat":45.81667,"lng":8.03031},{"id":140234,"name":"Mombaldone","lat":44.57025,"lng":8.33302},{"id":140235,"name":"Mombarcaro","lat":44.46764,"lng":8.08824},{"id":140237,"name":"Mombaruzzo","lat":44.77145,"lng":8.44824},{"id":140238,"name":"Mombasiglio","lat":44.36663,"lng":7.96794},{"id":140241,"name":"Mombello di Torino","lat":45.04575,"lng":7.92083},{"id":140240,"name":"Mombello Monferrato","lat":45.13285,"lng":8.25033},{"id":140242,"name":"Mombercelli","lat":44.81785,"lng":8.29474},{"id":140244,"name":"Momo","lat":45.57424,"lng":8.5539},{"id":140245,"name":"Mompantero","lat":45.14744,"lng":7.04301},{"id":140247,"name":"Momperone","lat":44.83845,"lng":9.03425},{"id":140249,"name":"Monale","lat":44.93755,"lng":8.07243},{"id":140252,"name":"Monastero Bormida","lat":44.64854,"lng":8.32664},{"id":140253,"name":"Monastero di Lanzo","lat":45.30185,"lng":7.43971},{"id":140254,"name":"Monastero di Vasco","lat":44.34033,"lng":7.82264},{"id":140255,"name":"Monasterolo","lat":45.23549,"lng":7.50821},{"id":140257,"name":"Monasterolo Casotto","lat":44.32823,"lng":7.94324},{"id":140259,"name":"Monasterolo di Savigliano","lat":44.68634,"lng":7.61953},{"id":140262,"name":"Moncalieri","lat":44.9994,"lng":7.68236},{"id":140263,"name":"Moncalvo","lat":45.05057,"lng":8.26277},{"id":140264,"name":"Moncenisio","lat":45.20404,"lng":6.98461},{"id":140265,"name":"Moncestino","lat":45.15465,"lng":8.16143},{"id":140266,"name":"Monchiero Borgonuovo","lat":44.57054,"lng":7.92024},{"id":140269,"name":"Moncrivello","lat":45.33236,"lng":7.99552},{"id":140271,"name":"Moncucco Torinese","lat":45.06738,"lng":7.93246},{"id":140275,"name":"Mondovì","lat":44.39603,"lng":7.81764},{"id":140278,"name":"Monesiglio","lat":44.4655,"lng":8.11915},{"id":140281,"name":"Monforte d'Alba","lat":44.58271,"lng":7.96793},{"id":140283,"name":"Mongardino","lat":44.84915,"lng":8.21906},{"id":140286,"name":"Mongiardino Ligure","lat":44.63443,"lng":9.06462},{"id":140289,"name":"Mongrando","lat":45.52826,"lng":8.00712},{"id":140294,"name":"Monleale","lat":44.88435,"lng":8.97395},{"id":140591,"name":"Montà","lat":44.81474,"lng":7.95477},{"id":140304,"name":"Montabone","lat":44.69875,"lng":8.39064},{"id":140305,"name":"Montacuto","lat":44.76645,"lng":9.10496},{"id":140306,"name":"Montafia","lat":44.98925,"lng":8.02463},{"id":140320,"name":"Montaldeo","lat":44.66715,"lng":8.73015},{"id":140321,"name":"Montaldo Bormida","lat":44.68265,"lng":8.58785},{"id":140325,"name":"Montaldo di Mondovì","lat":44.32173,"lng":7.86714},{"id":140322,"name":"Montaldo Roero","lat":44.76834,"lng":7.92483},{"id":140323,"name":"Montaldo Scarampi","lat":44.83035,"lng":8.25904},{"id":140324,"name":"Montaldo Torinese","lat":45.06535,"lng":7.85023},{"id":140328,"name":"Montalenghe","lat":45.33666,"lng":7.83794},{"id":140331,"name":"Montalto Dora","lat":45.48993,"lng":7.86253},{"id":140339,"name":"Montanaro","lat":45.23274,"lng":7.85492},{"id":140341,"name":"Montanera","lat":44.46223,"lng":7.66563},{"id":140347,"name":"Montariolo","lat":44.99575,"lng":8.77539},{"id":140403,"name":"Montecastello","lat":44.94945,"lng":8.68575},{"id":140414,"name":"Montechiaro d'Acqui","lat":44.59444,"lng":8.37865},{"id":140415,"name":"Montechiaro d'Asti","lat":45.00701,"lng":8.11286},{"id":140424,"name":"Montecrestese","lat":46.16448,"lng":8.32621},{"id":140453,"name":"Montegioco","lat":44.84205,"lng":8.96275},{"id":140459,"name":"Montegrosso","lat":44.82065,"lng":8.23754},{"id":140474,"name":"Montelera","lat":45.15429,"lng":7.4429},{"id":140480,"name":"Montelupo Albese","lat":44.62151,"lng":8.0472},{"id":140485,"name":"Montemagno","lat":44.98305,"lng":8.32534},{"id":140486,"name":"Montemale di Cuneo","lat":44.43743,"lng":7.37533},{"id":140489,"name":"Montemarzino","lat":44.84835,"lng":8.99365},{"id":140524,"name":"Monterosso Grana","lat":44.40823,"lng":7.32293},{"id":140536,"name":"Montescheno","lat":46.06658,"lng":8.23192},{"id":140545,"name":"Monteu da Po","lat":45.15031,"lng":8.01428},{"id":140544,"name":"Monteu Roero","lat":44.78059,"lng":7.93383},{"id":140552,"name":"Montezemolo","lat":44.37703,"lng":8.14114},{"id":140567,"name":"Monticello d'Alba","lat":44.71894,"lng":7.94263},{"id":140572,"name":"Montiglio","lat":45.06462,"lng":8.09878},{"id":140598,"name":"Morano sul Po","lat":45.16621,"lng":8.36674},{"id":140599,"name":"Moransengo","lat":45.11485,"lng":8.02523},{"id":140603,"name":"Morbello","lat":44.60504,"lng":8.51075},{"id":140611,"name":"Moretta","lat":44.76137,"lng":7.53632},{"id":140621,"name":"Moriondo Torinese","lat":45.03853,"lng":7.94086},{"id":140625,"name":"Mornese","lat":44.63925,"lng":8.75615},{"id":140630,"name":"Morozzo","lat":44.42277,"lng":7.71006},{"id":140638,"name":"Morsasco","lat":44.66535,"lng":8.55085},{"id":140653,"name":"Mosso","lat":45.65007,"lng":8.13762},{"id":140654,"name":"Mosso Santa Maria","lat":45.64958,"lng":8.13682},{"id":140658,"name":"Motta Dè Conti","lat":45.19356,"lng":8.52094},{"id":140667,"name":"Mottalciata","lat":45.50019,"lng":8.21065},{"id":140687,"name":"Murazzano","lat":44.47334,"lng":8.01938},{"id":140689,"name":"Murello","lat":44.75214,"lng":7.60093},{"id":140691,"name":"Murisengo","lat":45.08165,"lng":8.13554},{"id":140705,"name":"Mussotto","lat":44.71766,"lng":8.03404},{"id":140708,"name":"Muzzano","lat":45.56076,"lng":7.98892},{"id":140722,"name":"Narzole","lat":44.59441,"lng":7.86765},{"id":140734,"name":"Nebbiuno","lat":45.80774,"lng":8.52593},{"id":140738,"name":"Neive-Borgonovo","lat":44.72397,"lng":8.1178},{"id":140752,"name":"Netro","lat":45.54004,"lng":7.94695},{"id":140756,"name":"Neviglie","lat":44.69194,"lng":8.11684},{"id":140759,"name":"Nibbiola","lat":45.37236,"lng":8.65674},{"id":140762,"name":"Nichelino","lat":45.00031,"lng":7.65305},{"id":140767,"name":"Niella Belbo","lat":44.51275,"lng":8.08036},{"id":140768,"name":"Niella Tanaro","lat":44.40573,"lng":7.92794},{"id":140774,"name":"Nizza Monferrato","lat":44.77416,"lng":8.35784},{"id":140777,"name":"Noasca","lat":45.45332,"lng":7.31494},{"id":140798,"name":"Nole","lat":45.24159,"lng":7.56983},{"id":140800,"name":"Nomaglio","lat":45.53616,"lng":7.86032},{"id":140803,"name":"None","lat":44.93645,"lng":7.54015},{"id":140804,"name":"Nonio","lat":45.84577,"lng":8.37752},{"id":140821,"name":"Novalesa","lat":45.19065,"lng":7.01416},{"id":140822,"name":"Novara","lat":45.44694,"lng":8.62118},{"id":140830,"name":"Novello","lat":44.58882,"lng":7.92587},{"id":140835,"name":"Novi Ligure","lat":44.76246,"lng":8.787},{"id":140841,"name":"Nucetto","lat":44.33963,"lng":8.0596},{"id":140866,"name":"Occhieppo Inferiore","lat":45.55006,"lng":8.02102},{"id":140867,"name":"Occhieppo Superiore","lat":45.564,"lng":8.00618},{"id":140869,"name":"Occimiano","lat":45.05991,"lng":8.50666},{"id":140870,"name":"Odalengo Grande","lat":45.10922,"lng":8.16748},{"id":140871,"name":"Odalengo Piccolo","lat":45.07165,"lng":8.20603},{"id":140879,"name":"Oggebbio","lat":45.99088,"lng":8.64663},{"id":140882,"name":"Oglianico","lat":45.34154,"lng":7.69196},{"id":140885,"name":"Olcenengo","lat":45.36346,"lng":8.30983},{"id":140886,"name":"Oldenico","lat":45.40276,"lng":8.38103},{"id":140887,"name":"Oleggio","lat":45.59674,"lng":8.64213},{"id":140888,"name":"Oleggio Castello","lat":45.74887,"lng":8.52713},{"id":140904,"name":"Olivola","lat":45.03725,"lng":8.36784},{"id":140910,"name":"Olmo Gentile","lat":44.58574,"lng":8.24694},{"id":140918,"name":"Omegna","lat":45.88002,"lng":8.40665},{"id":140922,"name":"Oncino","lat":44.67683,"lng":7.19032},{"id":140939,"name":"Orbassano","lat":45.00547,"lng":7.53813},{"id":140955,"name":"Orio Canavese","lat":45.32883,"lng":7.85991},{"id":140961,"name":"Ormea","lat":44.15586,"lng":7.92811},{"id":140964,"name":"Ornavasso","lat":45.96795,"lng":8.41584},{"id":140971,"name":"Orsara Bormida","lat":44.69015,"lng":8.56275},{"id":140978,"name":"Orta San Giulio","lat":45.79727,"lng":8.41437},{"id":140999,"name":"Osasco","lat":44.84944,"lng":7.34302},{"id":141000,"name":"Osasio","lat":44.87144,"lng":7.60802},{"id":141030,"name":"Ostana","lat":44.69263,"lng":7.18942},{"id":141051,"name":"Ottiglio","lat":45.05426,"lng":8.3398},{"id":141054,"name":"Oulx","lat":45.03641,"lng":6.83372},{"id":141055,"name":"Ovada","lat":44.63727,"lng":8.64196},{"id":141057,"name":"Oviglio","lat":44.86125,"lng":8.48774},{"id":141061,"name":"Ozegna","lat":45.34801,"lng":7.74503},{"id":141063,"name":"Ozzano Monferrato","lat":45.10592,"lng":8.37238},{"id":141075,"name":"Paderna","lat":44.82148,"lng":8.89088},{"id":141092,"name":"Paesana","lat":44.68332,"lng":7.27571},{"id":58211,"name":"Pagno","lat":44.61173,"lng":7.42572},{"id":58229,"name":"Palazzo Canavese","lat":45.45962,"lng":7.97776},{"id":58234,"name":"Palazzolo Vercellese","lat":45.18554,"lng":8.23302},{"id":58249,"name":"Pallanza-Intra-Suna","lat":45.93778,"lng":8.57088},{"id":58250,"name":"Pallanzeno","lat":46.04202,"lng":8.25949},{"id":58272,"name":"Pamparato","lat":44.27666,"lng":7.91432},{"id":58273,"name":"Pancalieri","lat":44.83344,"lng":7.58592},{"id":58301,"name":"Parella","lat":45.43018,"lng":7.79128},{"id":58304,"name":"Pareto","lat":44.51644,"lng":8.38185},{"id":58309,"name":"Parodi Ligure","lat":44.66975,"lng":8.75865},{"id":58310,"name":"Paroldo","lat":44.43204,"lng":8.07244},{"id":58318,"name":"Paruzzaro","lat":45.74818,"lng":8.51486},{"id":58327,"name":"Passerano Marmorito","lat":45.05585,"lng":8.01873},{"id":58336,"name":"Pasta","lat":45.01131,"lng":7.55243},{"id":58341,"name":"Pasturana","lat":44.75085,"lng":8.74925},{"id":58358,"name":"Pavarolo","lat":45.06665,"lng":7.83943},{"id":58363,"name":"Pavone Canavese","lat":45.44193,"lng":7.85294},{"id":58368,"name":"Pecco","lat":45.45206,"lng":7.77742},{"id":58369,"name":"Pecetto","lat":45.0176,"lng":7.75107},{"id":58370,"name":"Pecetto di Valenza","lat":44.98904,"lng":8.66996},{"id":58391,"name":"Pella","lat":45.79722,"lng":8.38444},{"id":58399,"name":"Penango","lat":45.03295,"lng":8.25174},{"id":58428,"name":"Perletto","lat":44.59934,"lng":8.21304},{"id":58429,"name":"Perlo","lat":44.33183,"lng":8.08554},{"id":58431,"name":"Pernate","lat":45.45958,"lng":8.67845},{"id":58436,"name":"Perosa Argentina","lat":44.95909,"lng":7.19167},{"id":58437,"name":"Perosa Canavese","lat":45.39706,"lng":7.83082},{"id":58438,"name":"Perrero","lat":44.93849,"lng":7.11263},{"id":58441,"name":"Pertengo","lat":45.23606,"lng":8.41651},{"id":58445,"name":"Pertusio","lat":45.35565,"lng":7.64152},{"id":58471,"name":"Pessinetto","lat":45.28675,"lng":7.41531},{"id":58472,"name":"Pessione","lat":44.96504,"lng":7.84115},{"id":58489,"name":"Pettenasco","lat":45.81657,"lng":8.40702},{"id":58490,"name":"Pettinengo","lat":45.61306,"lng":8.10422},{"id":58495,"name":"Peveragno","lat":44.3206,"lng":7.61859},{"id":58497,"name":"Pezzana","lat":45.26152,"lng":8.48396},{"id":58501,"name":"Pezzolo Valle Uzzone","lat":44.53874,"lng":8.19394},{"id":58513,"name":"Piana San Raffaele","lat":45.1529,"lng":7.85013},{"id":58529,"name":"Pianezza","lat":45.1042,"lng":7.55003},{"id":58531,"name":"Pianfei","lat":44.37203,"lng":7.71143},{"id":58546,"name":"Piano-Molini d'Isola","lat":44.83194,"lng":8.18073},{"id":58556,"name":"Piasco","lat":44.56106,"lng":7.4442},{"id":58558,"name":"Piatto","lat":45.58986,"lng":8.13532},{"id":58564,"name":"Piazza","lat":44.38597,"lng":7.83163},{"id":58586,"name":"Piea","lat":45.02706,"lng":8.07146},{"id":58587,"name":"Piedicavallo","lat":45.68986,"lng":7.95482},{"id":58593,"name":"Piedimulera","lat":46.02408,"lng":8.25897},{"id":58602,"name":"Pietra Marazzi","lat":44.94265,"lng":8.66854},{"id":58623,"name":"Pietraporzio","lat":44.34352,"lng":7.03433},{"id":58642,"name":"Pieve Vergonte","lat":46.01298,"lng":8.26082},{"id":58667,"name":"Pila","lat":45.76997,"lng":8.08122},{"id":58673,"name":"Pinasca-Dubbione","lat":44.94264,"lng":7.22912},{"id":58675,"name":"Pinerolo","lat":44.88534,"lng":7.33135},{"id":58679,"name":"Pino d'Asti","lat":45.05745,"lng":7.98623},{"id":58678,"name":"Pino Torinese","lat":45.03955,"lng":7.77712},{"id":58686,"name":"Piobesi d'Alba","lat":44.73444,"lng":7.97937},{"id":58685,"name":"Piobesi Torinese","lat":44.76667,"lng":7.61667},{"id":58687,"name":"Piode","lat":45.77059,"lng":8.05265},{"id":58694,"name":"Piossasco","lat":44.98802,"lng":7.4601},{"id":58698,"name":"Piovà Massaia","lat":45.05515,"lng":8.05013},{"id":58697,"name":"Piovera","lat":44.95845,"lng":8.73595},{"id":58700,"name":"Piozzo","lat":44.51384,"lng":7.89254},{"id":58703,"name":"Pisano","lat":45.79567,"lng":8.51487},{"id":58704,"name":"Piscina","lat":44.91874,"lng":7.42532},{"id":58722,"name":"Piverone","lat":45.44557,"lng":8.00745},{"id":58738,"name":"Pleyne","lat":44.58063,"lng":7.01712},{"id":58742,"name":"Pocapaglia","lat":44.71524,"lng":7.88293},{"id":58777,"name":"Pogno","lat":45.75806,"lng":8.38559},{"id":58781,"name":"Poirino","lat":44.92047,"lng":7.84465},{"id":58801,"name":"Pollone","lat":45.57976,"lng":8.00592},{"id":58803,"name":"Polonghera","lat":44.80234,"lng":7.59572},{"id":58809,"name":"Pomaretto","lat":45.15194,"lng":8.04661},{"id":58811,"name":"Pomaro Monferrato","lat":45.06246,"lng":8.59604},{"id":58813,"name":"Pombia","lat":45.6555,"lng":8.62846},{"id":58823,"name":"Ponderano","lat":45.53846,"lng":8.05592},{"id":58828,"name":"Pont-Canavese","lat":45.42138,"lng":7.60024},{"id":58865,"name":"Pontechianale","lat":44.62123,"lng":7.03002},{"id":58867,"name":"Pontecurone","lat":44.9588,"lng":8.93289},{"id":58879,"name":"Pontestura","lat":45.14245,"lng":8.33324},{"id":58882,"name":"Ponti","lat":44.62847,"lng":8.36461},{"id":58896,"name":"Ponzano Monferrato","lat":45.08485,"lng":8.26553},{"id":58899,"name":"Ponzone","lat":44.58814,"lng":8.45935},{"id":58913,"name":"Portacomaro","lat":44.95665,"lng":8.25804},{"id":58915,"name":"Porte","lat":44.88714,"lng":7.26982},{"id":58951,"name":"Portula","lat":45.67512,"lng":8.17244},{"id":58964,"name":"Postua","lat":45.71355,"lng":8.22853},{"id":58983,"name":"Pozzol Groppo","lat":44.87806,"lng":9.02985},{"id":58986,"name":"Pozzolo Formigaro","lat":44.79925,"lng":8.78364},{"id":58996,"name":"Pradleves","lat":44.41786,"lng":7.28146},{"id":58997,"name":"Pragelato-Ruà","lat":45.01364,"lng":6.94161},{"id":59001,"name":"Prali","lat":44.88944,"lng":7.05131},{"id":59002,"name":"Pralormo","lat":44.85976,"lng":7.9044},{"id":59003,"name":"Pralungo","lat":45.58999,"lng":8.03976},{"id":59006,"name":"Pramollo","lat":44.90814,"lng":7.19071},{"id":59007,"name":"Prarolo","lat":45.28149,"lng":8.47784},{"id":59008,"name":"Prarostino","lat":44.86634,"lng":7.26762},{"id":59009,"name":"Prasco","lat":44.63938,"lng":8.55167},{"id":59010,"name":"Prascorsano","lat":45.36721,"lng":7.61727},{"id":59023,"name":"Pratiglione","lat":45.35275,"lng":7.59602},{"id":59031,"name":"Prato Sesia","lat":45.65067,"lng":8.37293},{"id":59038,"name":"Pray","lat":45.67508,"lng":8.20951},{"id":59039,"name":"Prazzo Superiore","lat":44.48297,"lng":7.05468},{"id":59047,"name":"Predosa","lat":44.75049,"lng":8.65568},{"id":59054,"name":"Premeno","lat":45.97818,"lng":8.59587},{"id":59056,"name":"Premia","lat":46.26807,"lng":8.3383},{"id":59059,"name":"Premosello-Chiovenda","lat":46.0038,"lng":8.32973},{"id":59074,"name":"Priero","lat":44.37604,"lng":8.09334},{"id":59079,"name":"Priocca","lat":44.78624,"lng":8.06424},{"id":59080,"name":"Priola","lat":44.24478,"lng":8.02149},{"id":59107,"name":"Provincia di Alessandria","lat":44.81667,"lng":8.7},{"id":59110,"name":"Provincia di Asti","lat":44.91667,"lng":8.16667},{"id":59116,"name":"Provincia di Biella","lat":45.58713,"lng":8.08594},{"id":59129,"name":"Provincia di Cuneo","lat":44.51667,"lng":7.56667},{"id":59152,"name":"Provincia di Novara","lat":45.58533,"lng":8.57781},{"id":59186,"name":"Provincia di Vercelli","lat":45.33188,"lng":8.41415},{"id":59104,"name":"Provincia Verbano-Cusio-Ossola","lat":45.93333,"lng":8.55},{"id":59192,"name":"Prunetto","lat":44.48894,"lng":8.14374},{"id":59214,"name":"Quagliuzzo","lat":45.42654,"lng":7.78101},{"id":59216,"name":"Quaranti","lat":44.75095,"lng":8.44914},{"id":59219,"name":"Quaregna","lat":45.58116,"lng":8.16372},{"id":59220,"name":"Quargnento","lat":44.94566,"lng":8.48821},{"id":59221,"name":"Quarna Sopra","lat":45.87307,"lng":8.37355},{"id":59222,"name":"Quarna Sotto","lat":45.86917,"lng":8.36332},{"id":59223,"name":"Quarona","lat":45.76044,"lng":8.26749},{"id":59234,"name":"Quassolo","lat":45.52294,"lng":7.83305},{"id":59235,"name":"Quattordio","lat":44.89877,"lng":8.40495},{"id":59243,"name":"Quincinetto","lat":45.56157,"lng":7.80834},{"id":59248,"name":"Quinto Vercellese","lat":45.3792,"lng":8.3621},{"id":59257,"name":"Racconigi","lat":44.76598,"lng":7.67893},{"id":59289,"name":"Rassa","lat":45.76821,"lng":8.01208},{"id":59303,"name":"Re","lat":46.13148,"lng":8.54569},{"id":59308,"name":"Reano","lat":45.05217,"lng":7.42779},{"id":59312,"name":"Recetto","lat":45.45965,"lng":8.43503},{"id":59316,"name":"Refrancore","lat":44.93635,"lng":8.34084},{"id":59340,"name":"Revello","lat":44.65451,"lng":7.39026},{"id":59342,"name":"Revigliasco","lat":45.01589,"lng":7.73306},{"id":59343,"name":"Revigliasco d'Asti","lat":44.85755,"lng":8.16044},{"id":59361,"name":"Ribordone","lat":45.43255,"lng":7.50231},{"id":59363,"name":"Ricaldone","lat":44.73235,"lng":8.46814},{"id":59364,"name":"Ricca","lat":44.66127,"lng":8.04527},{"id":59376,"name":"Rifreddo","lat":44.65073,"lng":7.34642},{"id":59382,"name":"Rima","lat":45.88542,"lng":7.99864},{"id":59383,"name":"Rimasco","lat":45.86025,"lng":8.06412},{"id":59384,"name":"Rimella","lat":45.90807,"lng":8.18222},{"id":59414,"name":"Rittana","lat":44.35103,"lng":7.39843},{"id":59415,"name":"Riva","lat":44.89252,"lng":7.38189},{"id":59417,"name":"Riva Presso Chieri","lat":44.98338,"lng":7.87313},{"id":59418,"name":"Riva Valdobbia","lat":45.83097,"lng":7.95661},{"id":59421,"name":"Rivalba","lat":45.11669,"lng":7.88811},{"id":59423,"name":"Rivalta Bormida","lat":44.70975,"lng":8.55175},{"id":59424,"name":"Rivalta di Torino","lat":45.03268,"lng":7.52042},{"id":59427,"name":"Rivara","lat":45.33042,"lng":7.649},{"id":59428,"name":"Rivarolo Canavese","lat":45.32829,"lng":7.7211},{"id":59431,"name":"Rivarone","lat":44.97686,"lng":8.71565},{"id":59432,"name":"Rivarossa","lat":45.24954,"lng":7.71953},{"id":59434,"name":"Rive","lat":45.21364,"lng":8.41701},{"id":59441,"name":"Rivoli","lat":45.07073,"lng":7.51465},{"id":59448,"name":"Roapiana","lat":44.34079,"lng":7.82329},{"id":59449,"name":"Roaschia","lat":44.27023,"lng":7.45573},{"id":59450,"name":"Roascio","lat":44.41714,"lng":8.02234},{"id":59451,"name":"Roasio","lat":45.60457,"lng":8.28482},{"id":59452,"name":"Roata Rossi","lat":44.44383,"lng":7.52572},{"id":59453,"name":"Roatto","lat":44.95205,"lng":8.02693},{"id":59454,"name":"Robassomero","lat":45.19841,"lng":7.56754},{"id":59462,"name":"Robella","lat":45.10165,"lng":8.10193},{"id":59463,"name":"Robilante","lat":44.29288,"lng":7.51367},{"id":59464,"name":"Roburent","lat":44.30633,"lng":7.89224},{"id":59465,"name":"Rocca Canavese","lat":45.3087,"lng":7.57875},{"id":59467,"name":"Rocca Cigliè","lat":44.44523,"lng":7.95094},{"id":59481,"name":"Rocca d'Arazzo","lat":44.87205,"lng":8.28464},{"id":59468,"name":"Rocca De' Baldi","lat":44.42363,"lng":7.76114},{"id":59469,"name":"Rocca Grimalda","lat":44.67145,"lng":8.64845},{"id":59493,"name":"Roccabruna","lat":44.47453,"lng":7.34373},{"id":59497,"name":"Roccaforte Ligure","lat":44.6778,"lng":9.028},{"id":59498,"name":"Roccaforte Mondovì","lat":44.31721,"lng":7.74426},{"id":59523,"name":"Roccasparvera","lat":44.34213,"lng":7.44153},{"id":59527,"name":"Roccaverano","lat":44.59224,"lng":8.27214},{"id":59529,"name":"Roccavione","lat":44.31355,"lng":7.47845},{"id":59536,"name":"Rocchetta Belbo","lat":44.63604,"lng":8.17534},{"id":59537,"name":"Rocchetta Ligure","lat":44.70655,"lng":9.05046},{"id":59540,"name":"Rocchetta Palafea","lat":44.70744,"lng":8.34534},{"id":59542,"name":"Rocchetta Tanaro","lat":44.85865,"lng":8.34564},{"id":59545,"name":"Roddi","lat":44.67964,"lng":7.97544},{"id":59546,"name":"Roddino","lat":44.57384,"lng":8.01914},{"id":59548,"name":"Rodello","lat":44.62854,"lng":8.05684},{"id":59568,"name":"Roletto","lat":44.92444,"lng":7.33232},{"id":59571,"name":"Romagnano Sesia","lat":45.63279,"lng":8.38697},{"id":59577,"name":"Romano Canavese","lat":45.39925,"lng":7.86885},{"id":59584,"name":"Romentino","lat":45.46296,"lng":8.71811},{"id":59602,"name":"Ronco Biellese","lat":45.57846,"lng":8.09072},{"id":59604,"name":"Ronco Canavese","lat":45.50081,"lng":7.54702},{"id":59615,"name":"Rondissone","lat":45.2463,"lng":7.96426},{"id":59616,"name":"Ronsecco","lat":45.25284,"lng":8.27749},{"id":59620,"name":"Roppolo","lat":45.42056,"lng":8.06972},{"id":59622,"name":"Rorà","lat":44.79214,"lng":7.19902},{"id":59621,"name":"Roreto","lat":44.66932,"lng":7.83423},{"id":59628,"name":"Rosazza","lat":45.67576,"lng":7.97712},{"id":59640,"name":"Rosignano Monferrato","lat":45.08055,"lng":8.39974},{"id":59645,"name":"Rossa","lat":45.83327,"lng":8.12432},{"id":59646,"name":"Rossana","lat":44.5447,"lng":7.43193},{"id":59652,"name":"Rosta","lat":45.06795,"lng":7.46512},{"id":59666,"name":"Roure","lat":45.00214,"lng":7.13161},{"id":59668,"name":"Rovasenda","lat":45.53866,"lng":8.31592},{"id":59691,"name":"Rubiana","lat":45.13622,"lng":7.38439},{"id":59695,"name":"Rueglio","lat":45.46826,"lng":7.75462},{"id":59697,"name":"Ruffia","lat":44.70598,"lng":7.60391},{"id":59712,"name":"Sabbia","lat":45.8572,"lng":8.2358},{"id":59724,"name":"Sagliano Micca","lat":45.62576,"lng":8.04332},{"id":59740,"name":"Sala Biellese","lat":45.50856,"lng":7.958},{"id":59744,"name":"Sala Monferrato","lat":45.07546,"lng":8.36119},{"id":59749,"name":"Salasco","lat":45.32556,"lng":8.26423},{"id":59750,"name":"Salassa","lat":45.36175,"lng":7.68297},{"id":59751,"name":"Salbertrand","lat":45.0735,"lng":6.88744},{"id":59754,"name":"Sale","lat":44.97932,"lng":8.80963},{"id":59757,"name":"Sale delle Langhe","lat":44.39523,"lng":8.08014},{"id":59756,"name":"Sale San Giovanni","lat":44.39914,"lng":8.07794},{"id":59760,"name":"Salerano Canavese","lat":45.45806,"lng":7.85112},{"id":59766,"name":"Sali Vercellese","lat":45.30986,"lng":8.32893},{"id":59769,"name":"Saliceto","lat":44.41334,"lng":8.16864},{"id":59778,"name":"Salmour","lat":44.57556,"lng":7.79148},{"id":59784,"name":"Saluggia","lat":45.23687,"lng":8.0146},{"id":59785,"name":"Salussola","lat":45.44666,"lng":8.111},{"id":59786,"name":"Saluzzo","lat":44.64671,"lng":7.49309},{"id":59794,"name":"Salza di Pinerolo","lat":44.94004,"lng":7.05241},{"id":59808,"name":"Sambuco","lat":44.3351,"lng":7.07878},{"id":59813,"name":"Samone","lat":45.44914,"lng":7.84198},{"id":59815,"name":"Sampeyre","lat":44.57846,"lng":7.19039},{"id":59827,"name":"San Benedetto Belbo","lat":44.49014,"lng":8.05784},{"id":59834,"name":"San Benigno Canavese","lat":45.22617,"lng":7.78427},{"id":59835,"name":"San Bernardino Verbano","lat":45.95638,"lng":8.51922},{"id":59855,"name":"San Carlo Canavese","lat":45.24455,"lng":7.60572},{"id":59876,"name":"San Colombano Belmonte","lat":45.38225,"lng":7.62101},{"id":59883,"name":"San Cristoforo","lat":44.69304,"lng":8.74939},{"id":59887,"name":"San Damiano d'Asti","lat":44.83344,"lng":8.06353},{"id":59885,"name":"San Damiano Macra","lat":44.48848,"lng":7.25606},{"id":59890,"name":"San Defendente","lat":44.39088,"lng":7.49091},{"id":59893,"name":"San Didero","lat":45.13544,"lng":7.21301},{"id":59927,"name":"San Francesco al Campo","lat":45.22732,"lng":7.65479},{"id":59936,"name":"San Germano Chisone","lat":44.90204,"lng":7.23662},{"id":59937,"name":"San Germano Vercellese","lat":45.3509,"lng":8.24717},{"id":59945,"name":"San Giacomo Vercellese","lat":45.49816,"lng":8.32673},{"id":59948,"name":"San Gillio","lat":45.1405,"lng":7.53285},{"id":59953,"name":"San Giorgio","lat":45.10778,"lng":8.41421},{"id":59955,"name":"San Giorgio Canavese","lat":45.33557,"lng":7.79823},{"id":59958,"name":"San Giorgio Monferrato","lat":45.10735,"lng":8.41614},{"id":59961,"name":"San Giorgio Scarampi","lat":44.61094,"lng":8.24244},{"id":59977,"name":"San Giorio","lat":45.12752,"lng":7.17683},{"id":60006,"name":"San Giuliano Vecchio","lat":44.88902,"lng":8.76057},{"id":60010,"name":"San Giuseppe","lat":45.14701,"lng":7.04271},{"id":60017,"name":"San Giusto Canavese","lat":45.31535,"lng":7.81001},{"id":60037,"name":"San Lorenzo","lat":46.1272,"lng":8.20065},{"id":60071,"name":"San Martino Alfieri","lat":44.81795,"lng":8.10994},{"id":60074,"name":"San Martino Canavese","lat":45.39453,"lng":7.81622},{"id":60098,"name":"San Marzano Oliveto","lat":44.75445,"lng":8.29534},{"id":60102,"name":"San Maurizio","lat":45.21705,"lng":7.63052},{"id":60103,"name":"San Maurizio D'Opaglio","lat":45.77299,"lng":8.39599},{"id":60110,"name":"San Mauro Torinese","lat":45.10359,"lng":7.76803},{"id":60118,"name":"San Michele Mondovì","lat":44.37595,"lng":7.90829},{"id":60131,"name":"San Nazzaro Sesia","lat":45.43804,"lng":8.42498},{"id":60159,"name":"San Paolo Solbrito","lat":44.95065,"lng":7.97073},{"id":60180,"name":"San Pietro Mosezzo","lat":45.45455,"lng":8.5445},{"id":60182,"name":"San Pietro Val Lemina","lat":44.90654,"lng":7.31092},{"id":60209,"name":"San Ponso","lat":45.35101,"lng":7.67111},{"id":60219,"name":"San Raffaele Cimena","lat":45.14665,"lng":7.84932},{"id":60223,"name":"San Rocco","lat":44.39653,"lng":7.4723},{"id":60231,"name":"San Salvatore Monferrato","lat":44.99489,"lng":8.56639},{"id":60236,"name":"San Sebastiano Curone","lat":44.78633,"lng":9.06446},{"id":60238,"name":"San Sebastiano da Po","lat":45.16755,"lng":7.95723},{"id":60241,"name":"San Secondo di Pinerolo","lat":44.86644,"lng":7.29842},{"id":60299,"name":"Sandigliano","lat":45.52204,"lng":8.0766},{"id":60303,"name":"Sanfrè","lat":44.7518,"lng":7.80289},{"id":60302,"name":"Sanfront","lat":44.64698,"lng":7.32243},{"id":60304,"name":"Sangano","lat":45.02508,"lng":7.44987},{"id":60317,"name":"Sant'Agata Fossili","lat":44.78475,"lng":8.92115},{"id":60329,"name":"Sant'Albano Stura","lat":44.50759,"lng":7.72282},{"id":60337,"name":"Sant'Ambrogio di Torino","lat":45.09622,"lng":7.366},{"id":60378,"name":"Sant'Antonino di Susa","lat":45.10763,"lng":7.27333},{"id":60381,"name":"Sant'Antonio","lat":44.75887,"lng":8.06996},{"id":60466,"name":"Santa Maria Maggiore","lat":46.13683,"lng":8.46108},{"id":60500,"name":"Santa Vittoria d'Alba","lat":44.69864,"lng":7.93733},{"id":60505,"name":"Santena","lat":44.94624,"lng":7.77303},{"id":60508,"name":"Santhià","lat":45.36795,"lng":8.17012},{"id":60510,"name":"Santino","lat":45.95606,"lng":8.51914},{"id":60512,"name":"Santo Stefano Belbo","lat":44.71023,"lng":8.23269},{"id":60515,"name":"Santo Stefano Roero","lat":44.78844,"lng":7.94093},{"id":60544,"name":"Sardigliano","lat":44.7524,"lng":8.89575},{"id":60547,"name":"Sarezzano","lat":44.86878,"lng":8.91237},{"id":60581,"name":"Sauze d'Oulx","lat":45.02659,"lng":6.86074},{"id":60582,"name":"Sauze di Cesana","lat":44.94058,"lng":6.85988},{"id":60587,"name":"Savigliano","lat":44.64808,"lng":7.65677},{"id":60600,"name":"Savonera","lat":45.11368,"lng":7.61506},{"id":60603,"name":"Scagnello","lat":44.33333,"lng":7.98644},{"id":60608,"name":"Scalenghe","lat":44.8899,"lng":7.49423},{"id":60634,"name":"Scarmagno","lat":45.38492,"lng":7.8411},{"id":60635,"name":"Scarnafigi","lat":44.67944,"lng":7.56513},{"id":60657,"name":"Sciolze","lat":45.09453,"lng":7.87818},{"id":60663,"name":"Scopa","lat":45.79297,"lng":8.11402},{"id":60664,"name":"Scopello","lat":45.77369,"lng":8.09435},{"id":60672,"name":"Scurzolengo","lat":44.96485,"lng":8.27914},{"id":60711,"name":"Selve Marcone","lat":45.61976,"lng":8.08742},{"id":60733,"name":"Seppiana","lat":46.05828,"lng":8.21661},{"id":60748,"name":"Serole","lat":44.55404,"lng":8.25974},{"id":60760,"name":"Serralunga d'Alba","lat":44.61004,"lng":7.99944},{"id":60761,"name":"Serralunga di Crea","lat":45.1011,"lng":8.28069},{"id":60772,"name":"Serravalle Langhe","lat":44.55995,"lng":8.05944},{"id":60774,"name":"Serravalle Scrivia","lat":44.72277,"lng":8.85635},{"id":60775,"name":"Serravalle Sesia","lat":45.68485,"lng":8.3085},{"id":60779,"name":"Serre","lat":44.54033,"lng":7.09032},{"id":60790,"name":"Sessame","lat":44.67064,"lng":8.33684},{"id":60804,"name":"Sestriere","lat":44.95864,"lng":6.87751},{"id":60809,"name":"Settime","lat":44.96175,"lng":8.11433},{"id":60813,"name":"Settimo Rottaro","lat":45.40776,"lng":7.99352},{"id":60815,"name":"Settimo Torinese","lat":45.13925,"lng":7.77008},{"id":60816,"name":"Settimo Vittone","lat":45.54929,"lng":7.83328},{"id":60823,"name":"Sezzadio","lat":44.78485,"lng":8.57255},{"id":60854,"name":"Sillavengo","lat":45.52067,"lng":8.44103},{"id":60856,"name":"Silvano d'Orba","lat":44.6858,"lng":8.67182},{"id":60867,"name":"Sinio","lat":44.60034,"lng":8.01994},{"id":60886,"name":"Sizzano","lat":45.57663,"lng":8.43613},{"id":60898,"name":"Soglio","lat":44.99625,"lng":8.07843},{"id":60914,"name":"Solero","lat":44.91835,"lng":8.50754},{"id":60922,"name":"Solonghello","lat":45.12905,"lng":8.28323},{"id":60927,"name":"Somano","lat":44.53534,"lng":8.00784},{"id":60932,"name":"Sommariva del Bosco","lat":44.77257,"lng":7.78177},{"id":60931,"name":"Sommariva Perno","lat":44.74564,"lng":7.90063},{"id":60943,"name":"Soprana","lat":45.63947,"lng":8.19892},{"id":60952,"name":"Sordevolo","lat":45.57346,"lng":7.97342},{"id":60962,"name":"Soriso","lat":45.74037,"lng":8.40953},{"id":60972,"name":"Sostegno","lat":45.65287,"lng":8.26982},{"id":60987,"name":"Sozzago","lat":45.39832,"lng":8.72271},{"id":60991,"name":"Sparone","lat":45.41442,"lng":7.54516},{"id":61007,"name":"Spigno Monferrato","lat":44.54314,"lng":8.33395},{"id":61018,"name":"Spineto Scrivia","lat":44.83735,"lng":8.87375},{"id":61020,"name":"Spinetta Marengo","lat":44.88554,"lng":8.6775},{"id":61038,"name":"Staffa","lat":45.96855,"lng":7.96708},{"id":61058,"name":"Stazzano","lat":44.72728,"lng":8.86846},{"id":61087,"name":"Strambinello","lat":45.42306,"lng":7.76992},{"id":61088,"name":"Strambino","lat":45.3799,"lng":7.88967},{"id":61093,"name":"Stresa","lat":45.88158,"lng":8.53834},{"id":61095,"name":"Strevi","lat":44.69985,"lng":8.5247},{"id":61100,"name":"Stroppiana","lat":45.23037,"lng":8.45461},{"id":61101,"name":"Stroppo","lat":44.50653,"lng":7.12652},{"id":61122,"name":"Suno","lat":45.63137,"lng":8.54437},{"id":61128,"name":"Susa","lat":45.13677,"lng":7.05809},{"id":61143,"name":"Tagliaferro","lat":44.9785,"lng":7.6643},{"id":61146,"name":"Tagliolo Monferrato","lat":44.63835,"lng":8.66585},{"id":61164,"name":"Tarantasca","lat":44.49322,"lng":7.54459},{"id":61172,"name":"Tassarolo","lat":44.72811,"lng":8.77164},{"id":61179,"name":"Tavagnasco","lat":45.54448,"lng":7.82293},{"id":61194,"name":"Tavigliano","lat":45.62206,"lng":8.05172},{"id":61218,"name":"Terdobbiate","lat":45.37588,"lng":8.69458},{"id":61231,"name":"Ternengo","lat":45.58896,"lng":8.11372},{"id":61253,"name":"Terruggia","lat":45.08199,"lng":8.44428},{"id":61256,"name":"Terzo","lat":44.67045,"lng":8.42164},{"id":61266,"name":"Tetti Neirotti","lat":45.05338,"lng":7.54077},{"id":61267,"name":"Tettorosso","lat":44.47284,"lng":7.34291},{"id":61275,"name":"Ticineto","lat":45.09627,"lng":8.55315},{"id":61278,"name":"Tigliole","lat":44.88625,"lng":8.07663},{"id":61294,"name":"Toceno","lat":46.14468,"lng":8.46902},{"id":61300,"name":"Tollegno","lat":45.59077,"lng":8.05089},{"id":61308,"name":"Tonco","lat":45.02344,"lng":8.18942},{"id":61309,"name":"Tonengo","lat":45.11765,"lng":8.00213},{"id":61310,"name":"Tonengo-Casale","lat":45.28609,"lng":7.93964},{"id":61329,"name":"Torino","lat":45.13333,"lng":7.36667},{"id":61333,"name":"Tornaco","lat":45.35651,"lng":8.71745},{"id":61344,"name":"Torrazza Piemonte","lat":45.21535,"lng":7.97673},{"id":61346,"name":"Torrazzo","lat":45.49874,"lng":7.95428},{"id":61350,"name":"Torre Bormida","lat":44.56274,"lng":8.15444},{"id":61352,"name":"Torre Canavese","lat":45.39206,"lng":7.75982},{"id":61356,"name":"Torre Mondovì","lat":44.35283,"lng":7.89964},{"id":61359,"name":"Torre Pellice","lat":44.82102,"lng":7.21672},{"id":61360,"name":"Torre San Giorgio","lat":44.73574,"lng":7.52813},{"id":61388,"name":"Torresina","lat":44.43364,"lng":8.03674},{"id":61407,"name":"Torrion Quartara","lat":45.41819,"lng":8.61472},{"id":61412,"name":"Tortona","lat":44.89784,"lng":8.86374},{"id":61436,"name":"Trana","lat":45.03862,"lng":7.421},{"id":61442,"name":"Trarego","lat":46.03435,"lng":8.66998},{"id":61446,"name":"Trasquera","lat":46.21338,"lng":8.21271},{"id":61448,"name":"Trausella","lat":45.48996,"lng":7.76312},{"id":61452,"name":"Traversella","lat":45.50907,"lng":7.74938},{"id":61454,"name":"Traves","lat":45.26795,"lng":7.43081},{"id":61466,"name":"Trecate","lat":45.43399,"lng":8.7364},{"id":61476,"name":"Treiso","lat":44.68974,"lng":8.08814},{"id":61507,"name":"Treville","lat":45.09685,"lng":8.35954},{"id":61512,"name":"Trezzo Tinella","lat":44.67704,"lng":8.10754},{"id":61520,"name":"Tricerro","lat":45.2357,"lng":8.32746},{"id":61529,"name":"Trinità","lat":44.5073,"lng":7.75637},{"id":61532,"name":"Trino","lat":45.19538,"lng":8.29621},{"id":61536,"name":"Trisobbio","lat":44.66063,"lng":8.58621},{"id":61540,"name":"Trivero-Prativero-Ponzone","lat":45.66047,"lng":8.17402},{"id":61548,"name":"Trofarello","lat":44.98238,"lng":7.74688},{"id":61553,"name":"Trontano","lat":46.12248,"lng":8.33322},{"id":61555,"name":"Tronzano Vercellese","lat":45.34226,"lng":8.17368},{"id":61575,"name":"Turin","lat":45.07049,"lng":7.68682},{"id":61617,"name":"Usseaux","lat":45.04894,"lng":7.02851},{"id":61618,"name":"Usseglio","lat":45.23274,"lng":7.21993},{"id":61624,"name":"Vaccheria","lat":44.727,"lng":8.04295},{"id":61635,"name":"Vaglio Serra","lat":44.79635,"lng":8.33894},{"id":61639,"name":"Vaie","lat":45.10234,"lng":7.28941},{"id":61645,"name":"Val della Torre","lat":45.15515,"lng":7.44501},{"id":61652,"name":"Valdengo","lat":45.56706,"lng":8.13832},{"id":61654,"name":"Valdieri","lat":44.27763,"lng":7.39763},{"id":61659,"name":"Valduggia","lat":45.72722,"lng":8.3273},{"id":61663,"name":"Valentino","lat":45.15558,"lng":8.09391},{"id":61664,"name":"Valenza","lat":45.01242,"lng":8.64379},{"id":61669,"name":"Valfenera","lat":44.90175,"lng":7.96433},{"id":61673,"name":"Valgioie","lat":45.064,"lng":7.34927},{"id":61675,"name":"Valgrana","lat":44.41181,"lng":7.38068},{"id":61681,"name":"Vallanzengo","lat":45.60327,"lng":8.15042},{"id":61689,"name":"Valle Mosso","lat":45.63069,"lng":8.14764},{"id":61691,"name":"Valle San Bartolomeo","lat":44.95017,"lng":8.6404},{"id":61692,"name":"Valle San Nicolao","lat":45.60706,"lng":8.14102},{"id":61723,"name":"Vallo Torinese","lat":45.22355,"lng":7.49632},{"id":61726,"name":"Valloriate","lat":44.33763,"lng":7.37393},{"id":61728,"name":"Valmacca","lat":45.10101,"lng":8.58382},{"id":61729,"name":"Valmadonna","lat":44.97444,"lng":8.61146},{"id":61731,"name":"Valmala","lat":44.54423,"lng":7.34603},{"id":61736,"name":"Valperga","lat":45.37004,"lng":7.66124},{"id":61737,"name":"Valprato Soana","lat":45.52166,"lng":7.54948},{"id":61741,"name":"Valstrona","lat":45.90767,"lng":8.34322},{"id":61755,"name":"Vanzone","lat":45.97785,"lng":8.10826},{"id":61756,"name":"Vaprio D'Agogna","lat":45.60322,"lng":8.55402},{"id":61759,"name":"Varallo","lat":45.81383,"lng":8.25814},{"id":61760,"name":"Varallo Pombia","lat":45.66784,"lng":8.6285},{"id":61771,"name":"Varisella","lat":45.20835,"lng":7.48381},{"id":61776,"name":"Varzo","lat":46.20736,"lng":8.25267},{"id":61784,"name":"Vauda Canavese Superiore","lat":45.27947,"lng":7.61945},{"id":61797,"name":"Veglio","lat":45.64057,"lng":8.11412},{"id":61809,"name":"Venaria Reale","lat":45.12597,"lng":7.63136},{"id":61811,"name":"Venasca","lat":44.56134,"lng":7.39698},{"id":61812,"name":"Venaus","lat":45.1571,"lng":7.0107},{"id":61834,"name":"Verbania","lat":45.92136,"lng":8.55183},{"id":61838,"name":"Vercelli","lat":45.32163,"lng":8.41989},{"id":61844,"name":"Verduno","lat":44.66614,"lng":7.93074},{"id":61849,"name":"Vergnasco","lat":45.48803,"lng":8.08553},{"id":61853,"name":"Vernante","lat":44.24447,"lng":7.53455},{"id":61861,"name":"Verolengo","lat":45.1904,"lng":7.97126},{"id":61868,"name":"Verrone","lat":45.50824,"lng":8.11514},{"id":61870,"name":"Verrua Savoia","lat":45.15675,"lng":8.09223},{"id":61874,"name":"Veruno","lat":45.68887,"lng":8.52863},{"id":61878,"name":"Verzuolo","lat":44.59279,"lng":7.48164},{"id":61882,"name":"Vesime","lat":44.63535,"lng":8.22683},{"id":61883,"name":"Vespolate","lat":45.34953,"lng":8.66878},{"id":61886,"name":"Vestignè","lat":45.38655,"lng":7.95336},{"id":61892,"name":"Vezza d'Alba","lat":44.76274,"lng":8.00793},{"id":61902,"name":"Viale","lat":45.00015,"lng":8.04993},{"id":61903,"name":"Vialfrè","lat":45.38076,"lng":7.81822},{"id":61906,"name":"Viarigi","lat":44.98055,"lng":8.35714},{"id":61916,"name":"Vico Canavese","lat":45.49342,"lng":7.77887},{"id":61921,"name":"Vicoforte","lat":44.36393,"lng":7.86264},{"id":61923,"name":"Vicolungo","lat":45.47522,"lng":8.46124},{"id":61932,"name":"Vidracco","lat":45.43066,"lng":7.75742},{"id":61936,"name":"Viganella","lat":46.05173,"lng":8.19374},{"id":61951,"name":"Vigliano Biellese","lat":45.56317,"lng":8.10509},{"id":61952,"name":"Vigliano d'Asti","lat":44.83405,"lng":8.22914},{"id":61956,"name":"Vignale Monferrato","lat":45.00996,"lng":8.39703},{"id":61963,"name":"Vignole Borbera","lat":44.70819,"lng":8.89026},{"id":61965,"name":"Vignolo","lat":44.36364,"lng":7.47208},{"id":61966,"name":"Vignone","lat":45.96118,"lng":8.56372},{"id":61974,"name":"Vigone","lat":44.84236,"lng":7.49774},{"id":61979,"name":"Viguzzolo","lat":44.90567,"lng":8.91968},{"id":61982,"name":"Villa","lat":44.74606,"lng":7.90066},{"id":62038,"name":"Villa del Bosco","lat":45.61669,"lng":8.27776},{"id":62021,"name":"Villa San Secondo","lat":45.00513,"lng":8.13462},{"id":62044,"name":"Villa-Borgo","lat":44.69865,"lng":7.93486},{"id":62051,"name":"Villadeati","lat":45.07225,"lng":8.16793},{"id":62053,"name":"Villadossola","lat":46.0708,"lng":8.26709},{"id":62054,"name":"Villafalletto","lat":44.54624,"lng":7.54069},{"id":62060,"name":"Villafranca d'Asti","lat":44.91539,"lng":8.02658},{"id":62057,"name":"Villafranca Piemonte","lat":44.78824,"lng":7.50788},{"id":62079,"name":"Villalvernia","lat":44.81387,"lng":8.85532},{"id":62085,"name":"Villamiroglio","lat":45.13455,"lng":8.17103},{"id":62096,"name":"Villanova Biellese","lat":45.48156,"lng":8.19432},{"id":62097,"name":"Villanova Canavese","lat":45.24355,"lng":7.55212},{"id":62107,"name":"Villanova d'Asti","lat":44.94299,"lng":7.93671},{"id":62099,"name":"Villanova Mondovì","lat":44.34804,"lng":7.76752},{"id":62100,"name":"Villanova Monferrato","lat":45.18111,"lng":8.47813},{"id":62102,"name":"Villanova Solaro","lat":44.72994,"lng":7.57443},{"id":62121,"name":"Villar Dora","lat":45.11465,"lng":7.38352},{"id":62122,"name":"Villar Focchiardo","lat":45.11244,"lng":7.23841},{"id":62123,"name":"Villar Pellice","lat":44.80893,"lng":7.15978},{"id":62124,"name":"Villar Perosa","lat":44.91849,"lng":7.24821},{"id":62125,"name":"Villar San Costanzo","lat":44.48473,"lng":7.38223},{"id":62126,"name":"Villarbasse","lat":45.04514,"lng":7.46842},{"id":62127,"name":"Villarboit","lat":45.43775,"lng":8.33694},{"id":62128,"name":"Villareggia","lat":45.30885,"lng":7.97724},{"id":62130,"name":"Villaromagnano","lat":44.84965,"lng":8.88775},{"id":62141,"name":"Villastellone","lat":44.92201,"lng":7.7436},{"id":62142,"name":"Villata","lat":45.3865,"lng":8.43279},{"id":62152,"name":"Villette","lat":46.13188,"lng":8.53422},{"id":62160,"name":"Vinadio","lat":44.30759,"lng":7.17628},{"id":62162,"name":"Vinchio","lat":44.81095,"lng":8.32094},{"id":62164,"name":"Vinovo","lat":44.94674,"lng":7.63252},{"id":62165,"name":"Vinzaglio","lat":45.32309,"lng":8.51979},{"id":62166,"name":"Viola","lat":44.29081,"lng":7.96491},{"id":62169,"name":"Virle Piemonte","lat":44.86369,"lng":7.57033},{"id":62171,"name":"Vische","lat":45.33566,"lng":7.94482},{"id":62174,"name":"Visone","lat":44.66184,"lng":8.50075},{"id":62177,"name":"Vistrorio","lat":45.44147,"lng":7.76781},{"id":62196,"name":"Viù","lat":45.23785,"lng":7.37333},{"id":62192,"name":"Viverone","lat":45.42726,"lng":8.04942},{"id":62199,"name":"Vocca","lat":45.83269,"lng":8.1958},{"id":62203,"name":"Vogogna","lat":46.01002,"lng":8.29137},{"id":62210,"name":"Volpedo","lat":44.88887,"lng":8.98615},{"id":62211,"name":"Volpeglino","lat":44.89296,"lng":8.95945},{"id":62212,"name":"Volpiano","lat":45.1994,"lng":7.77546},{"id":62214,"name":"Voltaggio","lat":44.62095,"lng":8.84274},{"id":62223,"name":"Volvera","lat":44.95484,"lng":7.51142},{"id":62225,"name":"Vottignasco","lat":44.56413,"lng":7.57913},{"id":62261,"name":"Zimone","lat":45.44912,"lng":8.03734},{"id":62278,"name":"Zubiena","lat":45.49266,"lng":7.99552},{"id":62284,"name":"Zumaglia","lat":45.59386,"lng":8.08942}]