[{"id":56337,"name":"Bantaeng","lat":-5.48333,"lng":119.98333},{"id":56345,"name":"Barru","lat":-4.43333,"lng":119.68333},{"id":56374,"name":"Bone","lat":-4.7,"lng":120.13333},{"id":56380,"name":"Bulukumba","lat":-5.41667,"lng":120.23333},{"id":56404,"name":"Enrekang","lat":-3.5,"lng":119.86667},{"id":56273,"name":"Galesong","lat":-5.3166,"lng":119.3661},{"id":56412,"name":"Gowa","lat":-5.31667,"lng":119.75},{"id":56432,"name":"Jeneponto","lat":-5.63333,"lng":119.73333},{"id":56530,"name":"Kabupaten Maros","lat":-5.05,"lng":119.71667},{"id":56635,"name":"Kabupaten Sinjai","lat":-5.21667,"lng":120.15},{"id":56501,"name":"Luwu","lat":-2.5577,"lng":121.3242},{"id":56502,"name":"Luwu Timur","lat":-2.50957,"lng":120.3978},{"id":56503,"name":"Luwu Utara","lat":-2.6,"lng":120.25},{"id":56855,"name":"Makassar","lat":-5.14861,"lng":119.43194},{"id":56863,"name":"Maros","lat":-5.006,"lng":119.5727},{"id":56900,"name":"Palopo","lat":-2.9925,"lng":120.19694},{"id":56576,"name":"Pangkajene Dan Kepulauan","lat":-4.7827,"lng":119.5506},{"id":56916,"name":"Parepare","lat":-4.0135,"lng":119.6255},{"id":56594,"name":"Pinrang","lat":-3.61667,"lng":119.6},{"id":56952,"name":"Rantepao","lat":-2.9701,"lng":119.8978},{"id":56963,"name":"Selayar Islands Regency","lat":-6.81667,"lng":120.8},{"id":56967,"name":"Sengkang","lat":-4.1279,"lng":120.0297},{"id":56628,"name":"Sidenreng Rappang","lat":-3.85,"lng":119.96667},{"id":56985,"name":"Sinjai","lat":-5.1241,"lng":120.253},{"id":56640,"name":"Soppeng","lat":-4.3842,"lng":119.89},{"id":56659,"name":"Takalar","lat":-5.41667,"lng":119.51667},{"id":56662,"name":"Tana Toraja","lat":-3.0024,"lng":119.79655},{"id":56684,"name":"Toraja Utara","lat":-2.92738,"lng":119.79218},{"id":56689,"name":"Wajo","lat":-4.0,"lng":120.16667},{"id":57052,"name":"Watampone","lat":-4.5386,"lng":120.3279}]