[{"id":56405,"name":"Fakfak","lat":-2.92641,"lng":132.29608},{"id":56527,"name":"Kabupaten Manokwari","lat":-0.9,"lng":133.75},{"id":56435,"name":"Kaimana","lat":-3.66093,"lng":133.77451},{"id":56860,"name":"Manokwari","lat":-0.86291,"lng":134.06402},{"id":56528,"name":"Manokwari Selatan","lat":-1.0798,"lng":133.96729},{"id":56677,"name":"Teluk Bintuni","lat":-1.88037,"lng":133.33105},{"id":56678,"name":"Teluk Wondama","lat":-2.7,"lng":134.5}]