[{"id":56175,"name":"Amahai","lat":-3.33984,"lng":128.91975},{"id":56178,"name":"Ambon","lat":-3.69583,"lng":128.18333},{"id":56384,"name":"Buru","lat":-3.32767,"lng":126.68413},{"id":56385,"name":"Buru Selatan","lat":-3.52187,"lng":126.59271},{"id":56451,"name":"Kepulauan Aru","lat":-6.17059,"lng":134.46991},{"id":56513,"name":"Maluku Barat Daya","lat":-7.8296,"lng":126.17386},{"id":56514,"name":"Maluku Tengah","lat":-3.29167,"lng":128.9675},{"id":56515,"name":"Maluku Tenggara","lat":-5.75,"lng":132.73333},{"id":56516,"name":"Maluku Tenggara Barat","lat":-7.61186,"lng":131.38},{"id":56621,"name":"Seram Bagian Barat","lat":-3.1027,"lng":128.42996},{"id":56622,"name":"Seram Bagian Timur","lat":-3.39851,"lng":130.39167},{"id":57041,"name":"Tual","lat":-5.62878,"lng":132.75229}]