[{"id":56174,"name":"Adiwerna","lat":-6.9375,"lng":109.1325},{"id":56176,"name":"Ambarawa","lat":-7.26333,"lng":110.3975},{"id":56186,"name":"Baekrajan","lat":-6.7674,"lng":110.8541},{"id":56187,"name":"Baki","lat":-7.61278,"lng":110.78389},{"id":56189,"name":"Balapulang","lat":-7.04858,"lng":109.10056},{"id":56336,"name":"Banjarnegara","lat":-7.35111,"lng":109.5875},{"id":56205,"name":"Banyumas","lat":-7.51417,"lng":109.29417},{"id":56209,"name":"Batang","lat":-6.4846,"lng":110.7083},{"id":56211,"name":"Baturaden","lat":-7.3,"lng":109.21667},{"id":56225,"name":"Blora","lat":-6.9698,"lng":111.4186},{"id":56230,"name":"Boyolali","lat":-7.53306,"lng":110.59583},{"id":56378,"name":"Brebes","lat":-7.05,"lng":108.9},{"id":56232,"name":"Buaran","lat":-7.05,"lng":109.55},{"id":56235,"name":"Bulakamba","lat":-6.8748,"lng":108.9559},{"id":56236,"name":"Candi Prambanan","lat":-7.75,"lng":110.49417},{"id":56238,"name":"Ceper","lat":-7.67417,"lng":110.67889},{"id":56239,"name":"Cepu","lat":-7.1475,"lng":111.5906},{"id":56392,"name":"Cilacap","lat":-7.57417,"lng":108.98861},{"id":56255,"name":"Colomadu","lat":-7.53333,"lng":110.75},{"id":56256,"name":"Comal","lat":-6.9053,"lng":109.5347},{"id":56260,"name":"Delanggu","lat":-7.61667,"lng":110.68333},{"id":56262,"name":"Demak","lat":-6.8909,"lng":110.6396},{"id":56269,"name":"Dukuhturi","lat":-6.9,"lng":109.08333},{"id":56277,"name":"Gatak","lat":-7.59083,"lng":110.70444},{"id":56278,"name":"Gebog","lat":-6.735,"lng":110.8444},{"id":56283,"name":"Gombong","lat":-7.60722,"lng":109.51417},{"id":56413,"name":"Grobogan","lat":-7.11667,"lng":110.91667},{"id":56288,"name":"Grogol","lat":-7.60111,"lng":110.81861},{"id":56289,"name":"Gunung Kendil","lat":-7.33167,"lng":110.40417},{"id":56295,"name":"Jaten","lat":-7.57722,"lng":110.8975},{"id":56297,"name":"Jatiroto","lat":-7.88333,"lng":111.11667},{"id":56300,"name":"Jekulo","lat":-6.8057,"lng":110.9262},{"id":56433,"name":"Jepara","lat":-6.58333,"lng":110.76667},{"id":56303,"name":"Jogonalan","lat":-7.70361,"lng":110.53611},{"id":56305,"name":"Juwana","lat":-6.715,"lng":111.1514},{"id":56339,"name":"Kabupaten Banyumas","lat":-7.45,"lng":109.16667},{"id":56346,"name":"Kabupaten Batang","lat":-7.03333,"lng":109.88333},{"id":56364,"name":"Kabupaten Blora","lat":-7.06667,"lng":111.38333},{"id":56377,"name":"Kabupaten Boyolali","lat":-7.5,"lng":110.7},{"id":56397,"name":"Kabupaten Demak","lat":-6.8993,"lng":110.6122},{"id":56459,"name":"Kabupaten Klaten","lat":-7.68333,"lng":110.61667},{"id":56472,"name":"Kabupaten Kudus","lat":-6.8,"lng":110.86667},{"id":56505,"name":"Kabupaten Magelang","lat":-7.4275,"lng":110.16194},{"id":56583,"name":"Kabupaten Pati","lat":-6.76667,"lng":111.1},{"id":56585,"name":"Kabupaten Pekalongan","lat":-7.0319,"lng":109.624},{"id":56587,"name":"Kabupaten Pemalang","lat":-7.03333,"lng":109.4},{"id":56605,"name":"Kabupaten Purbalingga","lat":-7.28417,"lng":109.35028},{"id":56620,"name":"Kabupaten Semarang","lat":-7.20667,"lng":110.44139},{"id":56643,"name":"Kabupaten Sragen","lat":-7.41278,"lng":110.935},{"id":56676,"name":"Kabupaten Tegal","lat":-7.03333,"lng":109.16667},{"id":56693,"name":"Kabupaten Wonosobo","lat":-7.36139,"lng":109.92667},{"id":56699,"name":"Karanganom","lat":-7.64889,"lng":110.625},{"id":56439,"name":"Karanganyar","lat":-7.62806,"lng":111.0625},{"id":56701,"name":"Kartasura","lat":-7.55194,"lng":110.73778},{"id":56706,"name":"Kebonarun","lat":-7.70028,"lng":110.56306},{"id":56445,"name":"Kebumen","lat":-7.63917,"lng":109.66056},{"id":56709,"name":"Kedungwuni","lat":-6.97038,"lng":109.64794},{"id":56448,"name":"Kendal","lat":-7.0256,"lng":110.1685},{"id":56715,"name":"Ketanggungan","lat":-6.9383,"lng":108.891},{"id":56719,"name":"Klaten","lat":-7.70583,"lng":110.60639},{"id":56821,"name":"Kroya","lat":-7.63306,"lng":109.24611},{"id":56824,"name":"Kudus","lat":-6.8048,"lng":110.8405},{"id":56828,"name":"Kutoarjo","lat":-7.71694,"lng":109.91278},{"id":56838,"name":"Lasem","lat":-6.6922,"lng":111.4527},{"id":56840,"name":"Lebaksiu","lat":-7.0496,"lng":109.1441},{"id":56851,"name":"Magelang","lat":-7.47056,"lng":110.21778},{"id":56853,"name":"Majenang","lat":-7.2975,"lng":108.7642},{"id":56862,"name":"Margasari","lat":-7.1,"lng":109.01667},{"id":56870,"name":"Mertoyudan","lat":-7.52,"lng":110.22639},{"id":56873,"name":"Mlonggo","lat":-6.53333,"lng":110.7},{"id":56877,"name":"Mranggen","lat":-7.0268,"lng":110.5158},{"id":56880,"name":"Muntilan","lat":-7.58111,"lng":110.29278},{"id":56887,"name":"Ngemplak","lat":-7.54972,"lng":110.71639},{"id":56922,"name":"Pati","lat":-6.7559,"lng":111.038},{"id":56924,"name":"Pecangaan","lat":-6.6978,"lng":110.7107},{"id":56925,"name":"Pekalongan","lat":-6.8886,"lng":109.6753},{"id":56929,"name":"Pemalang","lat":-6.89193,"lng":109.38263},{"id":56944,"name":"Purbalingga","lat":-7.38806,"lng":109.36389},{"id":56946,"name":"Purwodadi","lat":-7.0868,"lng":110.9158},{"id":56947,"name":"Purwokerto","lat":-7.42139,"lng":109.23444},{"id":56607,"name":"Purworejo","lat":-7.7,"lng":109.96667},{"id":56949,"name":"Randudongkal","lat":-7.0981,"lng":109.3243},{"id":56610,"name":"Rembang","lat":-6.78333,"lng":111.46667},{"id":56953,"name":"Rembangan","lat":-6.7036,"lng":111.3416},{"id":56958,"name":"Salatiga","lat":-7.33194,"lng":110.49278},{"id":56964,"name":"Selogiri","lat":-7.78333,"lng":110.86667},{"id":56965,"name":"Semarang","lat":-6.99306,"lng":110.42083},{"id":56974,"name":"Sidareja","lat":-7.4846,"lng":108.7923},{"id":56987,"name":"Slawi","lat":-6.9816,"lng":109.1407},{"id":56991,"name":"Sokaraja","lat":-7.45806,"lng":109.28806},{"id":56997,"name":"Sragen","lat":-7.42639,"lng":111.02222},{"id":56647,"name":"Sukoharjo","lat":-7.68333,"lng":110.83333},{"id":57012,"name":"Surakarta","lat":-7.55611,"lng":110.83167},{"id":57024,"name":"Tarub","lat":-6.93333,"lng":109.16667},{"id":57026,"name":"Tayu","lat":-6.5397,"lng":111.0518},{"id":57028,"name":"Tegal","lat":-6.8694,"lng":109.1402},{"id":56679,"name":"Temanggung","lat":-7.25,"lng":110.11667},{"id":57040,"name":"Trucuk","lat":-7.71833,"lng":110.65889},{"id":57047,"name":"Ungaran","lat":-7.13972,"lng":110.405},{"id":57051,"name":"Wangon","lat":-7.51611,"lng":109.05389},{"id":57053,"name":"Wedi","lat":-7.74306,"lng":110.57944},{"id":57054,"name":"Welahan","lat":-6.8,"lng":110.71667},{"id":57055,"name":"Weleri","lat":-6.9713,"lng":110.0666},{"id":57057,"name":"Wiradesa","lat":-6.8922,"lng":109.619},{"id":56692,"name":"Wonogiri","lat":-7.91667,"lng":111.0},{"id":57059,"name":"Wonopringgo","lat":-6.98333,"lng":109.61667},{"id":57060,"name":"Wonosobo","lat":-7.35889,"lng":109.90306}]