[{"id":56188,"name":"Balaipungut","lat":1.05949,"lng":101.29054},{"id":56208,"name":"Batam","lat":1.14937,"lng":104.02491},{"id":56354,"name":"Bengkalis","lat":0.9838,"lng":102.5096},{"id":56270,"name":"Dumai","lat":1.66711,"lng":101.44316},{"id":56424,"name":"Indragiri Hilir","lat":-0.33333,"lng":103.16667},{"id":56425,"name":"Indragiri Hulu","lat":-0.55,"lng":102.31667},{"id":56436,"name":"Kampar","lat":0.2344,"lng":101.2131},{"id":56453,"name":"Kepulauan Meranti","lat":0.97488,"lng":102.69539},{"id":56471,"name":"Kuantan Singingi","lat":-0.47532,"lng":101.45857},{"id":56927,"name":"Pekanbaru","lat":0.51667,"lng":101.44167},{"id":56586,"name":"Pelalawan","lat":0.20822,"lng":102.18607},{"id":56611,"name":"Rokan Hilir","lat":2.16599,"lng":100.82514},{"id":56612,"name":"Rokan Hulu","lat":0.88333,"lng":100.48333},{"id":56626,"name":"Siak","lat":0.97453,"lng":102.01355}]