[{"id":56326,"name":"Banggai","lat":-0.91141,"lng":122.71836},{"id":56327,"name":"Banggai Kepulauan","lat":-1.30236,"lng":123.03726},{"id":56328,"name":"Banggai Laut","lat":-1.61841,"lng":123.49388},{"id":56383,"name":"Buol","lat":1.04656,"lng":121.36867},{"id":56401,"name":"Donggala","lat":-0.58333,"lng":119.85},{"id":56598,"name":"Kabupaten Poso","lat":-1.65,"lng":120.5},{"id":56849,"name":"Luwuk","lat":-0.9516,"lng":122.7875},{"id":56876,"name":"Morowali Regency","lat":-2.76062,"lng":121.95267},{"id":56541,"name":"Morowali Utara","lat":-1.7207,"lng":121.24649},{"id":56901,"name":"Palu","lat":-0.90833,"lng":119.87083},{"id":56578,"name":"Parigi Moutong","lat":0.3368,"lng":120.17841},{"id":56937,"name":"Poso","lat":-1.3959,"lng":120.7524},{"id":56630,"name":"Sigi","lat":-1.385,"lng":119.96694},{"id":57034,"name":"Tojo Una-Una Regency","lat":-1.2036,"lng":121.48201},{"id":56682,"name":"Toli-Toli","lat":1.30862,"lng":120.88643}]