[{"id":56347,"name":"Batang Hari","lat":-1.75,"lng":103.11667},{"id":56214,"name":"Bejubang Dua","lat":-1.7923,"lng":103.3167},{"id":56382,"name":"Bungo","lat":-1.50222,"lng":101.96},{"id":56294,"name":"Jambi City","lat":-1.6,"lng":103.61667},{"id":56458,"name":"Kerinci","lat":-2.03333,"lng":101.53333},{"id":56822,"name":"Kuala Tungkal","lat":-0.81623,"lng":103.46111},{"id":56869,"name":"Mendaha","lat":-1.0163,"lng":103.59331},{"id":56532,"name":"Merangin","lat":-2.06933,"lng":102.13303},{"id":56543,"name":"Muaro Jambi","lat":-1.55214,"lng":103.82163},{"id":56618,"name":"Sarolangun","lat":-2.3,"lng":102.65},{"id":56978,"name":"Simpang","lat":-1.26424,"lng":104.09701},{"id":57008,"name":"Sungai Penuh","lat":-2.0561,"lng":101.3913},{"id":56668,"name":"Tanjung Jabung Barat","lat":-1.1544,"lng":103.24402},{"id":56669,"name":"Tanjung Jabung Timur","lat":-1.13198,"lng":103.61755},{"id":56675,"name":"Tebo","lat":-1.45576,"lng":102.37473}]