[{"id":56212,"name":"Baturaja","lat":-4.12891,"lng":104.16695},{"id":56402,"name":"Empat Lawang","lat":3.22667,"lng":99.09256},{"id":56833,"name":"Lahat","lat":-3.78514,"lng":103.54279},{"id":56834,"name":"Lahat Regency","lat":-3.7864,"lng":103.5428},{"id":56847,"name":"Lubuklinggau","lat":-3.2945,"lng":102.8614},{"id":56542,"name":"Muara Enim","lat":-4.2327,"lng":103.6141},{"id":56548,"name":"Musi Banyuasin","lat":-2.41667,"lng":103.75},{"id":56549,"name":"Musi Rawas","lat":-3.08333,"lng":103.2},{"id":56550,"name":"Musi Rawas Utara","lat":-2.48533,"lng":103.29346},{"id":56563,"name":"Ogan Ilir","lat":-3.43186,"lng":104.62727},{"id":56564,"name":"Ogan Komering Ilir","lat":-3.36667,"lng":105.36667},{"id":56565,"name":"Ogan Komering Ulu","lat":-4.13333,"lng":104.03333},{"id":56566,"name":"Ogan Komering Ulu Selatan","lat":-4.65728,"lng":104.00659},{"id":56567,"name":"Ogan Komering Ulu Timur","lat":-3.85679,"lng":104.75209},{"id":56895,"name":"Pagar Alam","lat":-4.02506,"lng":103.24694},{"id":56898,"name":"Palembang","lat":-2.91673,"lng":104.7458},{"id":56589,"name":"Penukal Abab Lematang Ilir","lat":-3.21342,"lng":104.08722},{"id":56939,"name":"Prabumulih","lat":-3.43447,"lng":104.23056},{"id":57020,"name":"Tanjungagung","lat":-3.93728,"lng":103.80465}]