[{"id":56509,"name":"Kabupaten Majene","lat":-3.15,"lng":118.86667},{"id":56520,"name":"Kabupaten Mamuju","lat":-2.5,"lng":119.41667},{"id":56854,"name":"Majene","lat":-3.5403,"lng":118.9707},{"id":56517,"name":"Mamasa","lat":-2.96492,"lng":119.30631},{"id":56857,"name":"Mamuju","lat":-2.68056,"lng":118.88611},{"id":56521,"name":"Mamuju Tengah","lat":-2.8212,"lng":119.2662},{"id":56522,"name":"Mamuju Utara","lat":-1.51639,"lng":119.42139},{"id":56935,"name":"Polewali","lat":-3.4324,"lng":119.3435},{"id":56596,"name":"Polewali Mandar","lat":-3.3,"lng":119.16667}]