[{"id":56181,"name":"Amuntai","lat":-2.41773,"lng":115.24941},{"id":56323,"name":"Balangan","lat":-2.32314,"lng":115.62922},{"id":56335,"name":"Banjar","lat":-3.31667,"lng":115.08333},{"id":56203,"name":"Banjarmasin","lat":-3.31987,"lng":114.59075},{"id":56207,"name":"Barabai","lat":-2.58333,"lng":115.38333},{"id":56341,"name":"Barito Kuala","lat":-3.08333,"lng":114.61667},{"id":56420,"name":"Hulu Sungai Selatan","lat":-2.75,"lng":115.2},{"id":56421,"name":"Hulu Sungai Tengah","lat":-2.61667,"lng":115.41667},{"id":56422,"name":"Hulu Sungai Utara","lat":-2.45,"lng":115.13333},{"id":56468,"name":"Kota Baru","lat":-3.0,"lng":116.0},{"id":56864,"name":"Martapura","lat":-3.4109,"lng":114.8642},{"id":56657,"name":"Tabalong","lat":-1.88333,"lng":115.5},{"id":56663,"name":"Tanah Bumbu","lat":-3.45413,"lng":115.70372},{"id":56665,"name":"Tanah Laut","lat":-3.88333,"lng":114.86667},{"id":56673,"name":"Tapin","lat":-2.91667,"lng":115.03333}]