[{"id":56381,"name":"Bulungan","lat":3.0,"lng":117.16667},{"id":56512,"name":"Malinau","lat":2.45,"lng":115.68333},{"id":56562,"name":"Nunukan","lat":4.13333,"lng":116.7},{"id":56661,"name":"Tana Tidung","lat":3.55,"lng":117.25},{"id":57019,"name":"Tanjung Selor","lat":2.8375,"lng":117.36528},{"id":57023,"name":"Tarakan","lat":3.31332,"lng":117.59152}]