[{"id":56185,"name":"Babat","lat":-7.11282,"lng":112.16354},{"id":56191,"name":"Balung","lat":-7.73333,"lng":113.91667},{"id":56197,"name":"Bangil","lat":-7.59939,"lng":112.8186},{"id":56198,"name":"Bangkalan","lat":-7.0455,"lng":112.7351},{"id":56206,"name":"Banyuwangi","lat":-8.2325,"lng":114.35755},{"id":56210,"name":"Batu","lat":-7.87,"lng":112.52833},{"id":56219,"name":"Besuki","lat":-7.73379,"lng":113.69785},{"id":56224,"name":"Blitar","lat":-8.0983,"lng":112.1681},{"id":56227,"name":"Bojonegoro","lat":-7.1502,"lng":111.8817},{"id":56228,"name":"Bondowoso","lat":-7.91346,"lng":113.82145},{"id":56231,"name":"Boyolangu","lat":-8.1181,"lng":111.8935},{"id":56233,"name":"Buduran","lat":-7.4281,"lng":112.7234},{"id":56259,"name":"Dampit","lat":-8.21162,"lng":112.74934},{"id":56266,"name":"Diwek","lat":-7.57897,"lng":112.23109},{"id":56268,"name":"Driyorejo","lat":-7.3659,"lng":112.6219},{"id":56274,"name":"Gambiran Satu","lat":-8.3939,"lng":114.1464},{"id":56275,"name":"Gampengrejo","lat":-7.76667,"lng":112.01667},{"id":56279,"name":"Gedangan","lat":-7.39083,"lng":112.72667},{"id":56280,"name":"Genteng","lat":-8.36667,"lng":114.15},{"id":56284,"name":"Gongdanglegi Kulon","lat":-8.17529,"lng":112.63594},{"id":56286,"name":"Gresik","lat":-7.15389,"lng":112.65611},{"id":56287,"name":"Gresik Regency","lat":-7.1933,"lng":112.553},{"id":56301,"name":"Jember","lat":-8.17211,"lng":113.69953},{"id":56304,"name":"Jombang","lat":-7.54595,"lng":112.23307},{"id":56333,"name":"Kabupaten Bangkalan","lat":-7.05,"lng":112.93333},{"id":56340,"name":"Kabupaten Banyuwangi","lat":-8.33333,"lng":114.2},{"id":56363,"name":"Kabupaten Blitar","lat":-8.13333,"lng":112.25},{"id":56367,"name":"Kabupaten Bojonegoro","lat":-7.25,"lng":111.8},{"id":56373,"name":"Kabupaten Bondowoso","lat":-7.9404,"lng":113.9834},{"id":56430,"name":"Kabupaten Jember","lat":-8.25,"lng":113.65},{"id":56434,"name":"Kabupaten Jombang","lat":-7.55,"lng":112.25},{"id":56446,"name":"Kabupaten Kediri","lat":-7.83333,"lng":112.16667},{"id":56483,"name":"Kabupaten Lamongan","lat":-7.13333,"lng":112.31667},{"id":56500,"name":"Kabupaten Lumajang","lat":-8.11667,"lng":113.15},{"id":56504,"name":"Kabupaten Madiun","lat":-7.61667,"lng":111.65},{"id":56511,"name":"Kabupaten Malang","lat":-8.16667,"lng":112.66667},{"id":56540,"name":"Kabupaten Mojokerto","lat":-7.55,"lng":112.5},{"id":56557,"name":"Kabupaten Nganjuk","lat":-7.6,"lng":111.93333},{"id":56573,"name":"Kabupaten Pamekasan","lat":-7.06667,"lng":113.5},{"id":56582,"name":"Kabupaten Pasuruan","lat":-7.73333,"lng":112.83333},{"id":56597,"name":"Kabupaten Ponorogo","lat":-7.93333,"lng":111.5},{"id":56600,"name":"Kabupaten Probolinggo","lat":-7.86667,"lng":113.31667},{"id":56616,"name":"Kabupaten Sampang","lat":-7.05,"lng":113.25},{"id":56629,"name":"Kabupaten Sidoarjo","lat":-7.45,"lng":112.7},{"id":56636,"name":"Kabupaten Situbondo","lat":-7.71667,"lng":114.05},{"id":56655,"name":"Kabupaten Sumenep","lat":-7.11667,"lng":114.33333},{"id":56685,"name":"Kabupaten Trenggalek","lat":-8.16667,"lng":111.61667},{"id":56686,"name":"Kabupaten Tuban","lat":-6.96667,"lng":111.9},{"id":56688,"name":"Kabupaten Tulungagung","lat":-8.11667,"lng":111.91667},{"id":56696,"name":"Kalianget","lat":-7.0537,"lng":113.94244},{"id":56697,"name":"Kamal","lat":-7.16778,"lng":112.71917},{"id":56705,"name":"Kebomas","lat":-7.16667,"lng":112.6333},{"id":56707,"name":"Kediri","lat":-7.81667,"lng":112.01667},{"id":56708,"name":"Kedungwaru","lat":-8.06667,"lng":111.91667},{"id":56711,"name":"Kencong","lat":-8.28333,"lng":113.36667},{"id":56713,"name":"Kepanjen","lat":-8.1303,"lng":112.5727},{"id":56714,"name":"Kertosono","lat":-7.58333,"lng":112.1},{"id":56818,"name":"Kraksaan","lat":-7.75845,"lng":113.39624},{"id":56820,"name":"Krian","lat":-7.4104,"lng":112.5792},{"id":56836,"name":"Lamongan","lat":-7.11667,"lng":112.41667},{"id":56839,"name":"Lawang","lat":-7.8353,"lng":112.6947},{"id":56848,"name":"Lumajang","lat":-8.1335,"lng":113.2248},{"id":56850,"name":"Madiun","lat":-7.6298,"lng":111.5239},{"id":56506,"name":"Magetan","lat":-7.64472,"lng":111.35917},{"id":56856,"name":"Malang","lat":-7.9797,"lng":112.6304},{"id":56874,"name":"Mojoagung","lat":-7.56667,"lng":112.35},{"id":56875,"name":"Mojokerto","lat":-7.4664,"lng":112.4338},{"id":56878,"name":"Muncar","lat":-8.43333,"lng":114.33333},{"id":56885,"name":"Nganjuk","lat":-7.6051,"lng":111.9035},{"id":56558,"name":"Ngawi","lat":-7.47444,"lng":111.33444},{"id":56888,"name":"Ngoro","lat":-7.68386,"lng":112.25804},{"id":56889,"name":"Ngunut","lat":-8.1058,"lng":112.01591},{"id":56891,"name":"Paciran","lat":-6.87666,"lng":112.37606},{"id":56568,"name":"Pacitan","lat":-8.13333,"lng":111.16667},{"id":56896,"name":"Pakisaji","lat":-8.0665,"lng":112.5981},{"id":56903,"name":"Pamekasan","lat":-7.1568,"lng":113.4746},{"id":56906,"name":"Panarukan","lat":-7.70181,"lng":113.91844},{"id":56907,"name":"Pandaan","lat":-7.65268,"lng":112.6875},{"id":56913,"name":"Panji","lat":-7.72528,"lng":114.09954},{"id":56915,"name":"Pare","lat":-7.7679,"lng":112.198},{"id":56921,"name":"Pasuruan","lat":-7.6453,"lng":112.9075},{"id":56936,"name":"Ponorogo","lat":-7.8685,"lng":111.462},{"id":56941,"name":"Prigen","lat":-7.68333,"lng":112.61667},{"id":56942,"name":"Probolinggo","lat":-7.7543,"lng":113.2159},{"id":56960,"name":"Sampang","lat":-7.1872,"lng":113.2394},{"id":56975,"name":"Sidoarjo","lat":-7.4478,"lng":112.7183},{"id":56983,"name":"Singojuruh","lat":-8.31667,"lng":114.23333},{"id":56984,"name":"Singosari","lat":-7.8924,"lng":112.6658},{"id":56986,"name":"Situbondo","lat":-7.70623,"lng":114.00976},{"id":56992,"name":"Soko","lat":-7.48315,"lng":112.42704},{"id":56999,"name":"Srono","lat":-8.40003,"lng":114.26661},{"id":57004,"name":"Sumberpucung","lat":-8.15856,"lng":112.48292},{"id":57007,"name":"Sumenep","lat":-7.01667,"lng":113.86667},{"id":57011,"name":"Surabaya","lat":-7.24917,"lng":112.75083},{"id":57015,"name":"Tanggul","lat":-8.1645,"lng":113.4525},{"id":57016,"name":"Tanggulangin","lat":-7.49958,"lng":112.69992},{"id":57039,"name":"Trenggalek","lat":-8.0764,"lng":111.70641},{"id":57042,"name":"Tuban","lat":-6.8976,"lng":112.0649},{"id":57044,"name":"Tulangan Utara","lat":-7.4737,"lng":112.6505},{"id":57045,"name":"Tulungagung","lat":-8.0657,"lng":111.9025},{"id":57058,"name":"Wongsorejo","lat":-7.9908,"lng":114.4009}]