[{"id":56318,"name":"Agam","lat":-0.25,"lng":100.16667},{"id":56234,"name":"Bukittinggi","lat":-0.30907,"lng":100.37055},{"id":56398,"name":"Dharmasraya","lat":-1.05,"lng":101.367},{"id":56631,"name":"Kabupaten Sijunjung","lat":-1.1827,"lng":101.6056},{"id":56638,"name":"Kabupaten Solok","lat":-0.96667,"lng":100.81667},{"id":56452,"name":"Kepulauan Mentawai","lat":1.98917,"lng":99.51889},{"id":56494,"name":"Lima Puluh Kota","lat":-0.0168,"lng":100.5872},{"id":56893,"name":"Padang","lat":-0.94924,"lng":100.35427},{"id":56571,"name":"Padang Pariaman","lat":-0.6,"lng":100.28333},{"id":56917,"name":"Pariaman","lat":-0.61898,"lng":100.11997},{"id":56579,"name":"Pasaman","lat":0.42503,"lng":99.94606},{"id":56580,"name":"Pasaman Barat","lat":0.28152,"lng":99.51965},{"id":56923,"name":"Payakumbuh","lat":-0.2159,"lng":100.6334},{"id":56592,"name":"Pesisir Selatan","lat":-1.58333,"lng":100.85},{"id":56977,"name":"Sijunjung","lat":-0.7005,"lng":100.9774},{"id":56993,"name":"Solok","lat":-0.8006,"lng":100.6571},{"id":56639,"name":"Solok Selatan","lat":-1.23333,"lng":101.417},{"id":56664,"name":"Tanah Datar","lat":-0.4555,"lng":100.5771}]