[{"id":97481,"name":"Aban","lat":56.6787,"lng":96.0658},{"id":97482,"name":"Abanskiy Rayon","lat":56.83333,"lng":96.0},{"id":97495,"name":"Achinsk","lat":56.2694,"lng":90.4993},{"id":97496,"name":"Achinskiy Rayon","lat":56.25,"lng":90.5},{"id":97517,"name":"Aginskoye","lat":55.2586,"lng":94.9079},{"id":97768,"name":"Balakhta","lat":55.38425,"lng":91.61872},{"id":97769,"name":"Balakhtinskiy Rayon","lat":55.5,"lng":91.5},{"id":97825,"name":"Baykit","lat":61.67694,"lng":96.37917},{"id":97904,"name":"Berëzovka","lat":56.03044,"lng":93.11164},{"id":97896,"name":"Berezovskiy rayon","lat":56.03446,"lng":93.13866},{"id":97934,"name":"Birilyusskiy Rayon","lat":57.25,"lng":90.75},{"id":97976,"name":"Bogotol","lat":56.20778,"lng":89.53417},{"id":97977,"name":"Bogotol’skiy Rayon","lat":56.25,"lng":89.75},{"id":97981,"name":"Boguchanskiy Rayon","lat":58.5,"lng":97.5},{"id":97982,"name":"Boguchany","lat":58.38139,"lng":97.45306},{"id":98004,"name":"Bol’shemurtinskiy Rayon","lat":57.0,"lng":93.0},{"id":98007,"name":"Bol’sheuluyskiy Rayon","lat":56.66667,"lng":90.75},{"id":98020,"name":"Bor","lat":61.60111,"lng":90.01806},{"id":98030,"name":"Borodino","lat":55.9061,"lng":94.9079},{"id":98222,"name":"Chunoyar","lat":57.4483,"lng":97.3286},{"id":98275,"name":"Dikson","lat":73.50819,"lng":80.52918},{"id":98279,"name":"Divnogorsk","lat":55.9581,"lng":92.3726},{"id":98334,"name":"Dubinino","lat":55.61917,"lng":89.09111},{"id":98347,"name":"Dudinka","lat":69.40583,"lng":86.17778},{"id":98370,"name":"Dzerzhinskoye","lat":56.83444,"lng":95.22833},{"id":98407,"name":"Evenkiyskiy","lat":65.0,"lng":98.0},{"id":98426,"name":"Filimonovo","lat":56.20111,"lng":95.46111},{"id":98628,"name":"Idrinskiy Rayon","lat":54.5,"lng":92.5},{"id":98629,"name":"Idrinskoye","lat":54.37083,"lng":92.13583},{"id":98631,"name":"Igarka","lat":67.4655,"lng":86.6027},{"id":98650,"name":"Il’ichevo","lat":53.27889,"lng":91.84028},{"id":98642,"name":"Ilanskiy","lat":56.2325,"lng":96.0652},{"id":98643,"name":"Ilanskiy Rayon","lat":56.0,"lng":96.08333},{"id":98687,"name":"Irbeyskiy Rayon","lat":55.41667,"lng":96.0},{"id":98688,"name":"Irbeyskoye","lat":55.6396,"lng":95.4515},{"id":98693,"name":"Irsha","lat":55.9273,"lng":94.7999},{"id":98844,"name":"Kansk","lat":56.20167,"lng":95.7175},{"id":98845,"name":"Kanskiy Rayon","lat":56.25,"lng":95.25},{"id":98871,"name":"Karatuzskoye","lat":53.60722,"lng":92.86667},{"id":98920,"name":"Kayyerkan","lat":69.37861,"lng":87.74389},{"id":98922,"name":"Kazachinskiy Rayon","lat":57.66667,"lng":93.41667},{"id":98923,"name":"Kazachinskoye","lat":57.7004,"lng":93.2809},{"id":98936,"name":"Kedrovyy","lat":56.28232,"lng":91.5376},{"id":98972,"name":"Khatanga","lat":71.98002,"lng":102.47111},{"id":99127,"name":"Kodinsk","lat":58.60629,"lng":99.17398},{"id":99230,"name":"Koshurnikovo","lat":54.16667,"lng":93.3},{"id":99321,"name":"Krasnokamensk","lat":54.33389,"lng":93.25944},{"id":99336,"name":"Krasnoturansk","lat":54.31861,"lng":91.56389},{"id":99343,"name":"Krasnoyarsk","lat":56.01839,"lng":92.86717},{"id":99452,"name":"Kuragino","lat":53.88785,"lng":92.68152},{"id":99604,"name":"Lesosibirsk","lat":58.23583,"lng":92.48278},{"id":99783,"name":"Manskiy Rayon","lat":55.41667,"lng":93.66667},{"id":99788,"name":"Manzya","lat":58.49222,"lng":96.26167},{"id":99918,"name":"Minusinsk","lat":53.71028,"lng":91.6875},{"id":99919,"name":"Minusinskiy Rayon","lat":53.75,"lng":92.0},{"id":99983,"name":"Motygino","lat":58.18401,"lng":94.69339},{"id":100075,"name":"Nazarovo","lat":56.0104,"lng":90.4011},{"id":100076,"name":"Nazarovskiy Rayon","lat":56.0,"lng":90.625},{"id":100153,"name":"Nizhneingashskiy Rayon","lat":56.25,"lng":97.0},{"id":100167,"name":"Nizhniy Ingash","lat":56.2003,"lng":96.5373},{"id":100185,"name":"Nizhnyaya Poyma","lat":56.1643,"lng":97.2065},{"id":100198,"name":"Norilsk","lat":69.3535,"lng":88.2027},{"id":100230,"name":"Novobirilyussy","lat":56.9526,"lng":90.6807},{"id":100236,"name":"Novochernorechenskiy","lat":56.26658,"lng":91.09234},{"id":100513,"name":"Ovsyanka","lat":55.9583,"lng":92.572},{"id":100556,"name":"Partizanskiy Rayon","lat":55.0,"lng":94.16667},{"id":100557,"name":"Partizanskoye","lat":55.4972,"lng":94.3922},{"id":100684,"name":"Pirovskoye","lat":57.63012,"lng":92.26373},{"id":100808,"name":"Predivinsk","lat":57.0631,"lng":93.4374},{"id":100945,"name":"Rassvet","lat":56.999,"lng":91.4724},{"id":100949,"name":"Razdolinsk","lat":58.42111,"lng":94.66583},{"id":101140,"name":"Sayansk","lat":54.15,"lng":91.885},{"id":101141,"name":"Sayanskiy Rayon","lat":54.75,"lng":95.0},{"id":101213,"name":"Severo-Yeniseyskiy","lat":60.37552,"lng":93.03017},{"id":101214,"name":"Severo-Yeniseyskiy Rayon","lat":60.0,"lng":93.25},{"id":101247,"name":"Shalinskoye","lat":55.7194,"lng":93.7589},{"id":101263,"name":"Sharypovo","lat":55.54028,"lng":89.20083},{"id":101264,"name":"Sharypovskiy Rayon","lat":55.5,"lng":89.25},{"id":101356,"name":"Shushenskiy Rayon","lat":53.41667,"lng":91.5},{"id":101357,"name":"Shushenskoye","lat":53.325,"lng":91.93556},{"id":101425,"name":"Snezhnogorsk","lat":68.09306,"lng":87.74},{"id":101457,"name":"Solnechnyy","lat":56.11583,"lng":92.92528},{"id":101494,"name":"Sosnovoborsk","lat":56.1217,"lng":93.3385},{"id":101627,"name":"Strelka","lat":58.07278,"lng":93.03444},{"id":101652,"name":"Sukhobuzimskoye","lat":56.5,"lng":93.27278},{"id":101702,"name":"Svetlogorsk","lat":66.93762,"lng":88.35265},{"id":101754,"name":"Talnakh","lat":69.4865,"lng":88.3972},{"id":101767,"name":"Tanzybey","lat":53.13265,"lng":92.94335},{"id":101784,"name":"Taseyevo","lat":57.21457,"lng":94.89393},{"id":101804,"name":"Taymyrsky Dolgano-Nenetsky","lat":72.0,"lng":95.0},{"id":101846,"name":"Teya","lat":60.37202,"lng":92.62956},{"id":101861,"name":"Tinskoy","lat":56.1513,"lng":96.9173},{"id":101972,"name":"Tura","lat":64.27769,"lng":100.21849},{"id":101982,"name":"Turukhansk","lat":65.79479,"lng":87.95006},{"id":102001,"name":"Tyukhtet","lat":56.53939,"lng":89.31221},{"id":102069,"name":"Ural","lat":55.9052,"lng":94.7537},{"id":102160,"name":"Uyar","lat":55.8118,"lng":94.3247},{"id":102161,"name":"Uyarskiy Rayon","lat":55.83333,"lng":94.25},{"id":102165,"name":"Uzhur","lat":55.31246,"lng":89.83301},{"id":102185,"name":"Vanavara","lat":60.34679,"lng":102.28434},{"id":102555,"name":"Yemel’yanovo","lat":56.16776,"lng":92.67539},{"id":102556,"name":"Yemel’yanovskiy Rayon","lat":56.41667,"lng":92.75},{"id":102560,"name":"Yeniseysk","lat":58.44937,"lng":92.17968},{"id":102561,"name":"Yeniseyskiy Rayon","lat":60.0,"lng":89.0},{"id":102564,"name":"Yermakovskoye","lat":53.27545,"lng":92.40021},{"id":102696,"name":"Zelenogorsk","lat":56.1124,"lng":94.5985},{"id":102703,"name":"Zelënyy Bor","lat":53.62178,"lng":91.61528},{"id":102721,"name":"Zheleznogorsk","lat":56.25111,"lng":93.53194},{"id":102786,"name":"Zykovo","lat":55.95503,"lng":93.16093}]