[{"id":97513,"name":"Agapovka","lat":53.2973,"lng":59.1348},{"id":97514,"name":"Agapovskiy Rayon","lat":53.33333,"lng":59.33333},{"id":97660,"name":"Argayash","lat":55.4888,"lng":60.8767},{"id":97696,"name":"Asha","lat":54.9973,"lng":57.2722},{"id":97698,"name":"Ashinskiy Rayon","lat":55.0,"lng":57.5},{"id":97756,"name":"Bakal","lat":54.9417,"lng":58.8083},{"id":97832,"name":"Bazhovo","lat":55.05955,"lng":61.60445},{"id":97889,"name":"Berdyaush","lat":55.1619,"lng":59.1464},{"id":97957,"name":"Bobrovka","lat":54.047,"lng":61.7455},{"id":98054,"name":"Bredy","lat":52.41528,"lng":60.34111},{"id":98057,"name":"Brodokalmak","lat":55.5748,"lng":62.082},{"id":98125,"name":"Chebarkul’","lat":54.9749,"lng":60.3633},{"id":98126,"name":"Chebarkul’skiy Rayon","lat":54.83333,"lng":60.5},{"id":98140,"name":"Chelyabinsk","lat":55.15402,"lng":61.42915},{"id":98151,"name":"Cheremshanka","lat":56.1192,"lng":60.26804},{"id":98192,"name":"Chesma","lat":53.81111,"lng":60.65333},{"id":98299,"name":"Dolgoderevenskoye","lat":55.34444,"lng":61.34444},{"id":98421,"name":"Fershampenuaz","lat":53.5202,"lng":59.8117},{"id":98536,"name":"Gornyak","lat":55.13446,"lng":61.68268},{"id":98549,"name":"Gorod Chelyabinsk","lat":55.16553,"lng":61.41673},{"id":98834,"name":"Kanashevo","lat":55.2169,"lng":62.0634},{"id":98853,"name":"Karabash","lat":55.4808,"lng":60.2157},{"id":98887,"name":"Kartalinskiy Rayon","lat":53.0,"lng":60.5},{"id":98888,"name":"Kartaly","lat":53.05285,"lng":60.64903},{"id":98899,"name":"Kasli","lat":55.8909,"lng":60.7616},{"id":98906,"name":"Katav-Ivanovsk","lat":54.75306,"lng":58.19556},{"id":98907,"name":"Katav-Ivanovskiy Rayon","lat":54.75,"lng":58.25},{"id":99092,"name":"Kizil’skiy Rayon","lat":52.75,"lng":59.41667},{"id":99199,"name":"Kopeysk","lat":55.11722,"lng":61.62823},{"id":99207,"name":"Korkino","lat":54.8913,"lng":61.3969},{"id":99257,"name":"Koyelga","lat":54.65224,"lng":60.9049},{"id":99306,"name":"Krasnogorskiy","lat":54.6025,"lng":61.231},{"id":99398,"name":"Kropachëvo","lat":55.0112,"lng":57.9896},{"id":99445,"name":"Kunashak","lat":55.7032,"lng":61.5498},{"id":99483,"name":"Kusa","lat":55.33833,"lng":59.44056},{"id":99521,"name":"Kyshtym","lat":55.714,"lng":60.5528},{"id":99568,"name":"Leninsk","lat":54.90306,"lng":59.8675},{"id":99652,"name":"Lokomotivnyy","lat":53.0118,"lng":60.5684},{"id":99738,"name":"Magnitka","lat":55.3475,"lng":59.69611},{"id":99739,"name":"Magnitogorsk","lat":53.41861,"lng":59.04722},{"id":99883,"name":"Mezhevoy","lat":55.17111,"lng":58.78139},{"id":99889,"name":"Miass","lat":55.045,"lng":60.10833},{"id":99890,"name":"Miasskoye","lat":55.2784,"lng":61.8905},{"id":100020,"name":"Muslyumovo","lat":55.6133,"lng":61.626},{"id":100045,"name":"Nagaybakskiy Rayon","lat":53.58333,"lng":59.75},{"id":100177,"name":"Nizhniy Ufaley","lat":55.91528,"lng":59.98417},{"id":100244,"name":"Novogornyy","lat":55.63,"lng":60.7919},{"id":100306,"name":"Novosineglazovskiy","lat":55.03928,"lng":61.3768},{"id":100376,"name":"Nyazepetrovsk","lat":56.05306,"lng":59.60278},{"id":100377,"name":"Nyazepetrovskiy Rayon","lat":56.0,"lng":59.58333},{"id":100413,"name":"Oktyabr’skiy Rayon","lat":54.41667,"lng":62.75},{"id":100519,"name":"Ozersk","lat":55.75556,"lng":60.70278},{"id":100550,"name":"Parizh","lat":53.2974,"lng":60.1005},{"id":100694,"name":"Plast","lat":54.36914,"lng":60.81361},{"id":100754,"name":"Poletayevo","lat":55.0336,"lng":61.1138},{"id":100789,"name":"Potanino","lat":55.1786,"lng":61.6222},{"id":100999,"name":"Roshchino","lat":55.31012,"lng":61.26363},{"id":101012,"name":"Roza","lat":54.9163,"lng":61.4586},{"id":101118,"name":"Sargazy","lat":55.02064,"lng":61.24985},{"id":101132,"name":"Satka","lat":55.0425,"lng":59.04},{"id":101133,"name":"Satkinskiy Rayon","lat":55.0,"lng":59.0},{"id":101154,"name":"Selezyan","lat":54.90583,"lng":61.82444},{"id":101370,"name":"Sim","lat":54.993,"lng":57.6982},{"id":101423,"name":"Snezhinsk","lat":56.085,"lng":60.73139},{"id":101496,"name":"Sosnovskiy Rayon","lat":55.25,"lng":61.16667},{"id":101581,"name":"Starokamyshinsk","lat":55.03912,"lng":61.58778},{"id":101729,"name":"Syrostan","lat":55.0634,"lng":59.9002},{"id":101803,"name":"Tayginka","lat":55.6244,"lng":60.5076},{"id":101859,"name":"Timiryazevskiy","lat":54.92917,"lng":60.7625},{"id":101935,"name":"Trëkhgornyy","lat":54.815,"lng":58.45917},{"id":101914,"name":"Troitsk","lat":54.0979,"lng":61.5773},{"id":101975,"name":"Turgoyak","lat":55.15,"lng":60.11833},{"id":101999,"name":"Tyubuk","lat":56.05521,"lng":60.9405},{"id":102114,"name":"Ust’-Bagaryak","lat":56.13278,"lng":61.84722},{"id":102129,"name":"Ust’-Katav","lat":54.9366,"lng":58.1757},{"id":102158,"name":"Uvel’skiy","lat":54.4446,"lng":61.3574},{"id":102159,"name":"Uvel’skiy Rayon","lat":54.5,"lng":61.5},{"id":102163,"name":"Uyskiy Rayon","lat":54.33333,"lng":60.08333},{"id":102164,"name":"Uyskoye","lat":54.3775,"lng":60.00472},{"id":102176,"name":"Vakhrushevo","lat":55.2317,"lng":61.7173},{"id":102192,"name":"Varna","lat":53.38194,"lng":60.97472},{"id":102195,"name":"Varnenskiy Rayon","lat":53.25,"lng":61.08333},{"id":102217,"name":"Velikopetrovka","lat":53.25042,"lng":60.48606},{"id":102242,"name":"Verkhneural’sk","lat":53.87694,"lng":59.21056},{"id":102258,"name":"Verkhniy Ufaley","lat":56.0556,"lng":60.2397},{"id":102318,"name":"Vishnëvogorsk","lat":55.9913,"lng":60.6579},{"id":102423,"name":"Vyazovaya","lat":54.905,"lng":58.35611},{"id":102553,"name":"Yemanzhelinka","lat":54.801,"lng":61.2989},{"id":102554,"name":"Yemanzhelinsk","lat":54.75472,"lng":61.32083},{"id":102578,"name":"Yetkul’","lat":54.8221,"lng":61.588},{"id":102601,"name":"Yuryuzan’","lat":54.86333,"lng":58.42194},{"id":102617,"name":"Yuzhnoural’sk","lat":54.4418,"lng":61.2536},{"id":102719,"name":"Zheleznodorozhnyy","lat":55.10183,"lng":61.54926},{"id":102750,"name":"Zlatoust","lat":55.17111,"lng":59.65083}]