[{"id":97540,"name":"Aksarka","lat":66.56056,"lng":67.7975},{"id":98604,"name":"Gubkinskiy","lat":64.434,"lng":76.50261},{"id":98968,"name":"Kharp","lat":66.80139,"lng":65.80806},{"id":99216,"name":"Korotchaevo","lat":65.91028,"lng":78.20917},{"id":99531,"name":"Labytnangi","lat":66.65722,"lng":66.41833},{"id":100007,"name":"Muravlenko","lat":63.78977,"lng":74.52301},{"id":100025,"name":"Muzhi","lat":65.4003,"lng":64.70278},{"id":100029,"name":"Mys-Kamennyy","lat":68.45972,"lng":73.59028},{"id":100043,"name":"Nadym","lat":65.53333,"lng":72.51667},{"id":100044,"name":"Nadymskiy Rayon","lat":66.0,"lng":73.0},{"id":100352,"name":"Novyy Urengoy","lat":66.08333,"lng":76.63333},{"id":100364,"name":"Noyabrsk","lat":63.19309,"lng":75.43728},{"id":100378,"name":"Nyda","lat":66.62472,"lng":72.92278},{"id":100534,"name":"Pangody","lat":65.85002,"lng":74.48593},{"id":100844,"name":"Priural’skiy Rayon","lat":66.66667,"lng":67.66667},{"id":100892,"name":"Purovskiy Rayon","lat":64.66667,"lng":78.0},{"id":100893,"name":"Purpe","lat":64.48028,"lng":76.68972},{"id":101079,"name":"Salekhard","lat":66.53,"lng":66.60194},{"id":101354,"name":"Shuryshkarskiy Rayon","lat":65.33333,"lng":64.0},{"id":101606,"name":"Staryy Nadym","lat":65.61182,"lng":72.68417},{"id":101776,"name":"Tarko-Sale","lat":64.91611,"lng":77.77457},{"id":101807,"name":"Tazovskiy","lat":67.4715,"lng":78.7162},{"id":102075,"name":"Urengoy","lat":65.9655,"lng":78.36929},{"id":102490,"name":"Yar-Sale","lat":66.8654,"lng":70.83784}]