[{"id":97492,"name":"Abzakovo","lat":53.82861,"lng":58.59333},{"id":97493,"name":"Abzelilovskiy Rayon","lat":53.41667,"lng":58.5},{"id":97516,"name":"Agidel’","lat":55.9077,"lng":53.9355},{"id":97552,"name":"Ak”yar","lat":51.85905,"lng":58.22136},{"id":97535,"name":"Akhunovo","lat":54.2079,"lng":59.6017},{"id":97538,"name":"Aksakovo","lat":54.03333,"lng":54.15},{"id":97610,"name":"Al’sheyevskiy Rayon","lat":54.0,"lng":55.0},{"id":97577,"name":"Alekseyevka","lat":54.85,"lng":55.23333},{"id":97616,"name":"Amzya","lat":56.2346,"lng":54.385},{"id":97692,"name":"Asanovo","lat":54.89418,"lng":55.49083},{"id":97702,"name":"Askino","lat":56.09013,"lng":56.57831},{"id":97703,"name":"Askinskiy Rayon","lat":56.08333,"lng":56.58333},{"id":97721,"name":"Avdon","lat":54.66667,"lng":55.71667},{"id":97757,"name":"Bakalinskiy Rayon","lat":55.16667,"lng":53.75},{"id":97758,"name":"Bakaly","lat":55.17889,"lng":53.80278},{"id":97826,"name":"Baymak","lat":52.59333,"lng":58.3225},{"id":97833,"name":"Bedeyeva Polyana","lat":55.32345,"lng":56.38882},{"id":97846,"name":"Belebey","lat":54.106495,"lng":54.107811},{"id":97864,"name":"Beloretsk","lat":53.96306,"lng":58.39806},{"id":97865,"name":"Beloretskiy Rayon","lat":54.0,"lng":58.0},{"id":97937,"name":"Birsk","lat":55.42111,"lng":55.54278},{"id":97943,"name":"Bizhbulyak","lat":53.6967,"lng":54.2642},{"id":97948,"name":"Blagoveshchensk","lat":55.035,"lng":55.97806},{"id":98075,"name":"Bulgakovo","lat":54.4968,"lng":55.8843},{"id":98077,"name":"Burayevo","lat":55.84069,"lng":55.40834},{"id":98081,"name":"Buribay","lat":51.96167,"lng":58.15917},{"id":98094,"name":"Buzdyak","lat":54.58333,"lng":54.55},{"id":98095,"name":"Buzdyakskiy Rayon","lat":54.58333,"lng":54.5},{"id":98137,"name":"Chekmagush","lat":55.13194,"lng":54.65556},{"id":98193,"name":"Chesnokovka","lat":54.61242,"lng":55.94575},{"id":98198,"name":"Chishmy","lat":54.57648,"lng":55.37642},{"id":98249,"name":"Davlekanovo","lat":54.22145,"lng":55.03434},{"id":98282,"name":"Dmitriyevka","lat":54.75,"lng":55.33333},{"id":98357,"name":"Duvan","lat":55.69497,"lng":57.90237},{"id":98366,"name":"Dyurtyuli","lat":55.49106,"lng":54.86883},{"id":98443,"name":"Fëdorovskiy Rayon","lat":53.08333,"lng":55.25},{"id":98632,"name":"Iglino","lat":54.83244,"lng":56.41264},{"id":98682,"name":"Inzer","lat":54.2167,"lng":57.5556},{"id":98705,"name":"Ishimbay","lat":53.45446,"lng":56.04149},{"id":98722,"name":"Isyangulovo","lat":52.18584,"lng":56.58043},{"id":98762,"name":"Kabakovo","lat":54.5369,"lng":56.1517},{"id":98800,"name":"Kaltasy","lat":55.96926,"lng":54.80321},{"id":98839,"name":"Kandry","lat":54.56667,"lng":54.11667},{"id":98864,"name":"Karaidel’","lat":55.83373,"lng":56.90692},{"id":98882,"name":"Karmaskaly","lat":54.3709,"lng":56.1837},{"id":98975,"name":"Khaybullinskiy Rayon","lat":52.0,"lng":58.25},{"id":99054,"name":"Kirgiz-Miyaki","lat":53.6324,"lng":54.7979},{"id":99280,"name":"Krasnaya Gorka","lat":55.19617,"lng":56.66727},{"id":99324,"name":"Krasnokholmskiy","lat":55.98729,"lng":55.04659},{"id":99364,"name":"Krasnyy Klyuch","lat":55.38625,"lng":56.65287},{"id":99420,"name":"Kudeyevskiy","lat":54.87583,"lng":56.75667},{"id":99440,"name":"Kumertau","lat":52.76667,"lng":55.78333},{"id":99487,"name":"Kushnarënkovo","lat":55.105,"lng":55.35083},{"id":99659,"name":"Lomovka","lat":53.91944,"lng":58.36722},{"id":99737,"name":"Maginsk","lat":55.76338,"lng":56.96583},{"id":99818,"name":"Mayachnyy","lat":52.6839,"lng":55.685},{"id":99839,"name":"Mechetlinskiy Rayon","lat":55.91667,"lng":58.25},{"id":99855,"name":"Meleuz","lat":52.96467,"lng":55.93277},{"id":99872,"name":"Mesyagutovo","lat":55.53028,"lng":58.25278},{"id":99877,"name":"Mezgor'e","lat":54.04976,"lng":57.81713},{"id":99897,"name":"Mikhaylovka","lat":54.805,"lng":55.89193},{"id":99916,"name":"Mindyak","lat":54.0231,"lng":58.7891},{"id":99928,"name":"Mishkino","lat":53.9997,"lng":59.1064},{"id":99930,"name":"Mishkinskiy Rayon","lat":55.58333,"lng":56.0},{"id":99933,"name":"Miyakinskiy Rayon","lat":53.58333,"lng":54.83333},{"id":99988,"name":"Mrakovo","lat":52.71611,"lng":56.62444},{"id":100017,"name":"Mursalimkino","lat":55.0379,"lng":58.5585},{"id":100086,"name":"Neftekamsk","lat":56.092,"lng":54.2661},{"id":100140,"name":"Nikolo-Berëzovka","lat":56.12422,"lng":54.15573},{"id":100159,"name":"Nizhnetroitskiy","lat":54.33852,"lng":53.68329},{"id":100227,"name":"Novobelokatay","lat":55.7062,"lng":58.9549},{"id":100369,"name":"Nurimanovskiy Rayon","lat":54.75,"lng":56.66667},{"id":100411,"name":"Oktyabr’skiy","lat":54.48147,"lng":53.47103},{"id":100567,"name":"Pavlovka","lat":55.42094,"lng":56.55426},{"id":100853,"name":"Priyutovo","lat":53.9,"lng":53.93333},{"id":100948,"name":"Rayevskiy","lat":54.0658,"lng":54.9468},{"id":101078,"name":"Salavat","lat":53.38365,"lng":55.90773},{"id":101164,"name":"Semiletka","lat":55.36028,"lng":54.61528},{"id":101173,"name":"Serafimovskiy","lat":54.42408,"lng":53.7964},{"id":101234,"name":"Shafranovo","lat":53.96667,"lng":54.76667},{"id":101258,"name":"Sharan","lat":54.81667,"lng":54.0},{"id":101366,"name":"Sibay","lat":52.71806,"lng":58.66583},{"id":101573,"name":"Starobaltachevo","lat":56.0017,"lng":55.928},{"id":101595,"name":"Starosubkhangulovo","lat":53.1031,"lng":57.4423},{"id":101618,"name":"Sterlibashevo","lat":53.43755,"lng":55.2578},{"id":101619,"name":"Sterlitamak","lat":53.62462,"lng":55.95015},{"id":101640,"name":"Subkhankulovo","lat":54.55741,"lng":53.81153},{"id":101822,"name":"Temyasovo","lat":52.99333,"lng":58.10139},{"id":101862,"name":"Tirlyanskiy","lat":54.2109,"lng":58.5806},{"id":101876,"name":"Tolbazy","lat":54.02408,"lng":55.88248},{"id":101959,"name":"Tubinskiy","lat":52.88917,"lng":58.2225},{"id":101964,"name":"Tukan","lat":53.8409,"lng":57.4552},{"id":101986,"name":"Tuymazy","lat":54.60666,"lng":53.7097},{"id":102013,"name":"Uchaly","lat":54.35806,"lng":59.43611},{"id":102025,"name":"Ufa","lat":54.74306,"lng":55.96779},{"id":102049,"name":"Ulu-Telyak","lat":54.9157,"lng":56.9827},{"id":102050,"name":"Ulukulevo","lat":54.4355,"lng":56.3221},{"id":102080,"name":"Urman","lat":54.88314,"lng":56.87417},{"id":102246,"name":"Verkhneyarkeyevo","lat":55.45046,"lng":54.31455},{"id":102249,"name":"Verkhniy Avzyan","lat":53.52889,"lng":57.53722},{"id":102261,"name":"Verkhniye Kigi","lat":55.40833,"lng":58.60444},{"id":102264,"name":"Verkhniye Tatyshly","lat":56.29117,"lng":55.8575},{"id":102394,"name":"Voskresenskoye","lat":53.12336,"lng":56.14664},{"id":102480,"name":"Yanaul","lat":56.2751,"lng":54.9338},{"id":102481,"name":"Yanaul’skiy Rayon","lat":56.25,"lng":54.91667},{"id":102520,"name":"Yazykovo","lat":55.21988,"lng":56.13532},{"id":102565,"name":"Yermekeyevo","lat":54.07614,"lng":53.67125},{"id":102567,"name":"Yermolayevo","lat":52.71667,"lng":55.8},{"id":102592,"name":"Yumaguzino","lat":52.90412,"lng":56.39329},{"id":102747,"name":"Zilair","lat":52.2332,"lng":57.4392},{"id":102749,"name":"Zirgan","lat":53.2222,"lng":55.9185}]