[{"id":97669,"name":"Arkhipovka","lat":56.66292,"lng":41.25434},{"id":97972,"name":"Bogorodskoye","lat":57.04695,"lng":41.01354},{"id":98352,"name":"Dulyapino","lat":57.25783,"lng":40.81471},{"id":98442,"name":"Furmanov","lat":57.25363,"lng":41.10849},{"id":98461,"name":"Gavrilov Posad","lat":56.5593,"lng":40.121},{"id":98658,"name":"Il’inskoye-Khovanskoye","lat":56.9718,"lng":39.7684},{"id":98731,"name":"Ivanovo","lat":56.99719,"lng":40.97139},{"id":98732,"name":"Ivanovskiy Rayon","lat":57.0,"lng":41.0},{"id":98812,"name":"Kamenka","lat":57.39214,"lng":41.79383},{"id":98826,"name":"Kaminskiy","lat":57.15159,"lng":41.47318},{"id":99048,"name":"Kineshemskiy Rayon","lat":57.33333,"lng":42.33333},{"id":99049,"name":"Kineshma","lat":57.43914,"lng":42.12894},{"id":99083,"name":"Kitovo","lat":56.86586,"lng":41.28246},{"id":99129,"name":"Kokhma","lat":56.93487,"lng":41.0915},{"id":99138,"name":"Kolobovo","lat":56.70199,"lng":41.34173},{"id":99172,"name":"Komsomol’sk","lat":57.02913,"lng":40.37266},{"id":99175,"name":"Komsomol’skiy Rayon","lat":57.08333,"lng":40.41667},{"id":99506,"name":"Kuznechikha","lat":57.21607,"lng":42.33477},{"id":99619,"name":"Lezhnevo","lat":56.77508,"lng":40.89174},{"id":99620,"name":"Lezhnevskiy Rayon","lat":56.75,"lng":40.91667},{"id":99683,"name":"Lukh","lat":57.01242,"lng":42.25838},{"id":99686,"name":"Lukhskiy Rayon","lat":57.0,"lng":42.41667},{"id":99800,"name":"Markovo","lat":57.0185,"lng":40.49465},{"id":100073,"name":"Navoloki","lat":57.46572,"lng":41.96344},{"id":100109,"name":"Nerl’","lat":56.66285,"lng":40.38931},{"id":100220,"name":"Novo-Talitsy","lat":57.00392,"lng":40.85936},{"id":100281,"name":"Novopistsovo","lat":57.32177,"lng":41.8531},{"id":100333,"name":"Novoye Leushino","lat":56.80732,"lng":40.51443},{"id":100359,"name":"Novyye Gorki","lat":56.72535,"lng":41.06014},{"id":100529,"name":"Palekh","lat":56.80256,"lng":41.85508},{"id":100530,"name":"Palekhskiy Rayon","lat":56.83333,"lng":42.0},{"id":100643,"name":"Pestyaki","lat":56.7086,"lng":42.66954},{"id":100644,"name":"Pestyakovskiy Rayon","lat":56.58333,"lng":42.66667},{"id":100663,"name":"Petrovskiy","lat":56.6421,"lng":40.32026},{"id":100685,"name":"Pistsovo","lat":57.17904,"lng":40.52983},{"id":100705,"name":"Plës","lat":57.45862,"lng":41.51579},{"id":100846,"name":"Privolzhsk","lat":57.38698,"lng":41.28666},{"id":100850,"name":"Privolzhskiy Rayon","lat":57.33333,"lng":41.33333},{"id":100885,"name":"Puchezh","lat":56.97878,"lng":43.16761},{"id":100886,"name":"Puchezhskiy Rayon","lat":57.0,"lng":43.0},{"id":100977,"name":"Rodniki","lat":57.10513,"lng":41.73048},{"id":100980,"name":"Rodnikovskiy Rayon","lat":57.08333,"lng":41.75},{"id":101135,"name":"Savino","lat":56.59285,"lng":41.21814},{"id":101137,"name":"Savinskiy Rayon","lat":56.58333,"lng":41.33333},{"id":101360,"name":"Shuya","lat":56.84865,"lng":41.38833},{"id":101362,"name":"Shuyskiy Rayon","lat":56.83333,"lng":41.5},{"id":101568,"name":"Staraya Vichuga","lat":57.26833,"lng":41.87873},{"id":101753,"name":"Talitsy","lat":56.52801,"lng":42.3323},{"id":101847,"name":"Teykovo","lat":56.85796,"lng":40.53692},{"id":101848,"name":"Teykovskiy Rayon","lat":56.75,"lng":40.5},{"id":102240,"name":"Verkhnelandekhovskiy Rayon","lat":56.83333,"lng":42.58333},{"id":102254,"name":"Verkhniy Landekh","lat":56.83971,"lng":42.5973},{"id":102300,"name":"Vichuga","lat":57.21276,"lng":41.93012},{"id":102301,"name":"Vichugskiy Rayon","lat":57.25,"lng":42.0},{"id":102605,"name":"Yur’yevets","lat":57.32007,"lng":43.1041},{"id":102606,"name":"Yur’yevetskiy Rayon","lat":57.25,"lng":42.83333},{"id":102612,"name":"Yuzha","lat":56.58306,"lng":42.01222},{"id":102622,"name":"Yuzhskiy Rayon","lat":56.58333,"lng":42.0},{"id":102652,"name":"Zarechnyy","lat":57.46931,"lng":42.28431},{"id":102678,"name":"Zavolzhsk","lat":57.4823,"lng":42.13779},{"id":102679,"name":"Zavolzhskiy Rayon","lat":57.5,"lng":42.08333}]