[{"id":97585,"name":"Aleutskiy Rayon","lat":55.21667,"lng":165.98333},{"id":97715,"name":"Atlasovo","lat":55.6065,"lng":159.64266},{"id":98100,"name":"Bystrinskiy Rayon","lat":56.0,"lng":158.5},{"id":98404,"name":"Esso","lat":55.92738,"lng":158.70708},{"id":98863,"name":"Karaginsky","lat":58.0,"lng":159.83333},{"id":99112,"name":"Klyuchi","lat":56.32035,"lng":160.84541},{"id":99270,"name":"Kozyrëvsk","lat":56.0486,"lng":159.8715},{"id":99914,"name":"Mil’kovo","lat":54.6961,"lng":158.62067},{"id":99915,"name":"Mil’kovskiy Rayon","lat":55.0,"lng":159.0},{"id":100430,"name":"Olyutorskiy Rayon","lat":61.0,"lng":169.0},{"id":100489,"name":"Ossora","lat":59.24781,"lng":163.07034},{"id":100518,"name":"Ozernovskiy","lat":51.49604,"lng":156.50102},{"id":100527,"name":"Palana","lat":59.08384,"lng":159.9563},{"id":100543,"name":"Paratunka","lat":52.96202,"lng":158.25723},{"id":100596,"name":"Penzhinskiy Rayon","lat":63.0,"lng":167.0},{"id":100652,"name":"Petropavlovsk-Kamchatsky","lat":53.04444,"lng":158.65076},{"id":101428,"name":"Sobolevskiy Rayon","lat":54.58333,"lng":156.5},{"id":101849,"name":"Tigil’","lat":57.75979,"lng":158.68161},{"id":101850,"name":"Tigil’skiy Rayon","lat":57.76046,"lng":158.68687},{"id":101856,"name":"Tilichiki","lat":60.42795,"lng":166.05764},{"id":102116,"name":"Ust’-Bol’sheretskiy Rayon","lat":52.66667,"lng":157.0},{"id":102125,"name":"Ust’-Kamchatsk Staryy","lat":56.22778,"lng":162.47778},{"id":102126,"name":"Ust’-Kamchatskiy Rayon","lat":56.0,"lng":161.0},{"id":102308,"name":"Vilyuchinsk","lat":52.9311,"lng":158.40469},{"id":102544,"name":"Yelizovo","lat":53.18909,"lng":158.38135},{"id":102545,"name":"Yelizovskiy Rayon","lat":53.66667,"lng":159.0}]