[{"id":97530,"name":"Akhtubinsk","lat":48.27955,"lng":46.17217},{"id":97531,"name":"Akhtubinskiy Rayon","lat":48.16667,"lng":46.25},{"id":97539,"name":"Aksarayskiy","lat":46.79244,"lng":48.01188},{"id":97706,"name":"Astrakhan","lat":46.34968,"lng":48.04076},{"id":98228,"name":"Chyorny Yar","lat":48.06242,"lng":46.10911},{"id":98640,"name":"Ikryanoye","lat":46.09323,"lng":47.73078},{"id":98831,"name":"Kamyzyak","lat":46.10995,"lng":48.07364},{"id":98849,"name":"Kapustin Yar","lat":48.58175,"lng":45.74481},{"id":98867,"name":"Karalat","lat":45.91555,"lng":48.30683},{"id":98963,"name":"Kharabali","lat":47.41958,"lng":47.25678},{"id":99067,"name":"Kirovskiy","lat":45.84639,"lng":48.12472},{"id":99347,"name":"Krasnoyarskiy Rayon","lat":46.83333,"lng":48.25},{"id":99377,"name":"Krasnyy Yar","lat":46.53314,"lng":48.34559},{"id":99382,"name":"Krasnyye Barrikady","lat":46.2045,"lng":47.8535},{"id":99628,"name":"Liman","lat":45.78457,"lng":47.22405},{"id":99629,"name":"Limanskiy Rayon","lat":45.83333,"lng":47.25},{"id":99792,"name":"Marfino","lat":46.40852,"lng":48.71398},{"id":100002,"name":"Mumra","lat":45.77251,"lng":47.65398},{"id":100038,"name":"Nachalovo","lat":46.338,"lng":48.20128},{"id":100058,"name":"Narimanov","lat":46.6927,"lng":47.8498},{"id":100163,"name":"Nizhniy Baskunchak","lat":48.21978,"lng":46.83105},{"id":100456,"name":"Oranzherei","lat":45.84756,"lng":47.56635},{"id":100752,"name":"Poldnëvoye","lat":45.85568,"lng":47.95241},{"id":100849,"name":"Privolzhskiy Rayon","lat":46.25,"lng":48.16667},{"id":101129,"name":"Sasykoli","lat":47.55153,"lng":46.99679},{"id":101386,"name":"Sizyy Bugor","lat":46.21343,"lng":48.50462},{"id":101471,"name":"Solyanka","lat":46.3889,"lng":48.01755},{"id":101583,"name":"Starokucherganovka","lat":46.32476,"lng":47.9555},{"id":101762,"name":"Tambovka","lat":47.31528,"lng":47.37773},{"id":101931,"name":"Trudfront","lat":45.9346,"lng":47.66929},{"id":101968,"name":"Tumak","lat":46.23436,"lng":48.50627},{"id":102156,"name":"Uvary","lat":46.04575,"lng":48.03558},{"id":102250,"name":"Verkhniy Baskunchak","lat":48.22564,"lng":46.72169},{"id":102343,"name":"Volgo-Kaspiyskiy","lat":46.20306,"lng":47.91869},{"id":102352,"name":"Volodarskiy","lat":46.40134,"lng":48.54093},{"id":102472,"name":"Yaksatovo","lat":46.24343,"lng":48.01514},{"id":102482,"name":"Yandyki","lat":45.76913,"lng":47.12577},{"id":102562,"name":"Yenotayevka","lat":47.24559,"lng":47.02814},{"id":102706,"name":"Zenzeli","lat":45.92407,"lng":47.04739},{"id":102759,"name":"Znamensk","lat":48.5842,"lng":45.7338}]