[{"id":97494,"name":"Achikulak","lat":44.55167,"lng":44.83778},{"id":97562,"name":"Aleksandriya","lat":45.09472,"lng":43.24556},{"id":97563,"name":"Aleksandriyskaya","lat":44.22722,"lng":43.34528},{"id":97574,"name":"Aleksandrovskoye","lat":44.71417,"lng":43.00083},{"id":97631,"name":"Andzhiyevskiy","lat":44.23889,"lng":43.08556},{"id":97690,"name":"Arzgir","lat":45.37278,"lng":44.22056},{"id":97767,"name":"Balakhonovskoye","lat":44.7767,"lng":41.7842},{"id":97799,"name":"Barsukovskaya","lat":44.7632,"lng":41.8191},{"id":97836,"name":"Bekeshevskaya","lat":44.11389,"lng":42.42694},{"id":97909,"name":"Beshpagir","lat":45.02167,"lng":42.38083},{"id":97923,"name":"Bezopasnoye","lat":45.64833,"lng":41.93603},{"id":97944,"name":"Blagodarnyy","lat":45.09778,"lng":43.43639},{"id":97945,"name":"Blagodatnoye","lat":45.39972,"lng":42.58667},{"id":98022,"name":"Borgustanskaya","lat":44.0547,"lng":42.5288},{"id":98065,"name":"Budënnovsk","lat":44.78389,"lng":44.16583},{"id":98083,"name":"Burlatskoye","lat":45.05639,"lng":43.635},{"id":98172,"name":"Chernolesskoye","lat":44.71556,"lng":43.71333},{"id":98281,"name":"Divnoye","lat":45.90889,"lng":43.35472},{"id":98284,"name":"Dmitriyevskoye","lat":45.80529,"lng":41.89667},{"id":98313,"name":"Donskoye","lat":45.45518,"lng":41.97411},{"id":98380,"name":"Edissiya","lat":44.05111,"lng":44.54083},{"id":98406,"name":"Etoka","lat":43.91944,"lng":43.04833},{"id":98453,"name":"Galyugayevskaya","lat":43.69694,"lng":44.93444},{"id":98476,"name":"Georgiyevsk","lat":44.15194,"lng":43.46972},{"id":98477,"name":"Georgiyevskaya","lat":44.11139,"lng":43.49222},{"id":98505,"name":"Gofitskoye","lat":45.07917,"lng":43.04639},{"id":98569,"name":"Goryachevodskiy","lat":44.02361,"lng":43.09222},{"id":98581,"name":"Grazhdanskoye","lat":44.23,"lng":42.7698},{"id":98584,"name":"Grecheskoye","lat":44.43053,"lng":43.0083},{"id":98589,"name":"Grigoropolisskaya","lat":45.29722,"lng":41.05667},{"id":98674,"name":"Inozemtsevo","lat":44.09264,"lng":43.09113},{"id":98685,"name":"Ipatovo","lat":45.71806,"lng":42.90361},{"id":98690,"name":"Irgakly","lat":44.36111,"lng":44.75556},{"id":98734,"name":"Ivanovskoye","lat":44.5795,"lng":41.8764},{"id":98757,"name":"Izobil’nyy","lat":45.37092,"lng":41.70839},{"id":98795,"name":"Kalinovskoye","lat":44.8635,"lng":42.9622},{"id":98843,"name":"Kangly","lat":44.25444,"lng":43.03083},{"id":98850,"name":"Kara-Tyube","lat":44.63361,"lng":45.43694},{"id":98917,"name":"Kayasula","lat":44.325,"lng":45.0},{"id":98946,"name":"Kevsala","lat":45.79833,"lng":42.69028},{"id":99081,"name":"Kislovodsk","lat":43.91333,"lng":42.72083},{"id":99125,"name":"Kochubeyevskoye","lat":44.64417,"lng":41.84528},{"id":99169,"name":"Komsomolets","lat":44.01972,"lng":43.56972},{"id":99190,"name":"Konstantinovskaya","lat":44.04556,"lng":43.15833},{"id":99194,"name":"Konstantinovskoye","lat":45.29917,"lng":42.63667},{"id":99316,"name":"Krasnogvardeyskoye","lat":45.84604,"lng":41.51885},{"id":99326,"name":"Krasnokumskoye","lat":44.17806,"lng":43.50194},{"id":99401,"name":"Kruglolesskoye","lat":44.65889,"lng":42.81417},{"id":99473,"name":"Kursavka","lat":44.4564,"lng":42.5093},{"id":99475,"name":"Kurskaya","lat":44.05,"lng":44.45},{"id":99532,"name":"Ladovskaya Balka","lat":45.62965,"lng":41.40231},{"id":99584,"name":"Lermontov","lat":44.10667,"lng":42.97333},{"id":99608,"name":"Letnyaya Stavka","lat":45.43056,"lng":43.44722},{"id":99617,"name":"Levokumka","lat":44.23167,"lng":43.15},{"id":99618,"name":"Levokumskoye","lat":44.82194,"lng":44.66056},{"id":99708,"name":"Lysogorskaya","lat":44.10639,"lng":43.27556},{"id":99899,"name":"Mikhaylovsk","lat":45.12833,"lng":42.02556},{"id":99917,"name":"Mineralnye Vody","lat":44.21028,"lng":43.13528},{"id":99979,"name":"Moskovskoye","lat":45.2842,"lng":41.9103},{"id":100039,"name":"Nadezhda","lat":44.1,"lng":44.6},{"id":100050,"name":"Nagutskoye","lat":44.4415,"lng":42.8762},{"id":100087,"name":"Neftekumsk","lat":44.75583,"lng":44.9925},{"id":100120,"name":"Nevinnomyssk","lat":44.6333,"lng":41.9444},{"id":100128,"name":"Nezhinskiy","lat":43.92833,"lng":42.68556},{"id":100129,"name":"Nezlobnaya","lat":44.11806,"lng":43.40278},{"id":100149,"name":"Niny","lat":44.48778,"lng":43.94889},{"id":100222,"name":"Novoaleksandrovsk","lat":45.4948,"lng":41.22075},{"id":100231,"name":"Novoblagodarnoye","lat":44.14333,"lng":42.875},{"id":100278,"name":"Novopavlovsk","lat":43.96222,"lng":43.63417},{"id":100294,"name":"Novoselitskoye","lat":44.75083,"lng":43.43694},{"id":100313,"name":"Novoterskiy","lat":44.14861,"lng":43.0925},{"id":100317,"name":"Novotroitskaya","lat":45.32667,"lng":41.52528},{"id":100334,"name":"Novozavedennoye","lat":44.26278,"lng":43.63806},{"id":100471,"name":"Orlovka","lat":44.69139,"lng":44.17444},{"id":100502,"name":"Otkaznoye","lat":44.32639,"lng":43.86083},{"id":100512,"name":"Ovoshchi","lat":45.36639,"lng":43.32333},{"id":100590,"name":"Pelagiada","lat":45.20639,"lng":42.02361},{"id":100715,"name":"Podgornaya","lat":44.20306,"lng":43.42972},{"id":100720,"name":"Podkumskiy","lat":44.07556,"lng":43.21028},{"id":100741,"name":"Pokoynoye","lat":44.80972,"lng":44.25167},{"id":100800,"name":"Praskoveya","lat":44.74444,"lng":44.20306},{"id":100806,"name":"Pravokumskoye","lat":44.76944,"lng":44.64722},{"id":100810,"name":"Pregradnoye","lat":45.82183,"lng":41.74692},{"id":100909,"name":"Pyatigorsk","lat":44.04861,"lng":43.05944},{"id":100910,"name":"Pyatigorskiy","lat":43.97417,"lng":43.25833},{"id":100941,"name":"Rasshevatskaya","lat":45.5748,"lng":41.03496},{"id":101056,"name":"Ryzdvyanyy","lat":45.2656,"lng":41.8389},{"id":101203,"name":"Severnoye","lat":44.83194,"lng":42.85833},{"id":101445,"name":"Soldato-Aleksandrovskoye","lat":44.26528,"lng":43.75611},{"id":101463,"name":"Solomenskoye","lat":44.21667,"lng":44.35278},{"id":101470,"name":"Soluno-Dmitriyevskoye","lat":44.4074,"lng":42.724},{"id":101501,"name":"Sotnikovskoye","lat":45.00389,"lng":43.77722},{"id":101505,"name":"Sovetskaya","lat":44.02667,"lng":44.05},{"id":101539,"name":"Spitsevka","lat":45.12306,"lng":42.5125},{"id":101579,"name":"Starodubskoye","lat":44.56306,"lng":44.01528},{"id":101589,"name":"Staropavlovskaya","lat":43.84889,"lng":43.63278},{"id":101613,"name":"Stavropol’","lat":45.0428,"lng":41.9734},{"id":101617,"name":"Stepnoye","lat":44.27083,"lng":44.585},{"id":101648,"name":"Sukhaya Buyvola","lat":45.15333,"lng":42.99556},{"id":101688,"name":"Suvorovskaya","lat":44.1901,"lng":42.6595},{"id":101703,"name":"Svetlograd","lat":45.33528,"lng":42.85472},{"id":101716,"name":"Svobody","lat":44.02556,"lng":43.05028},{"id":101791,"name":"Tatarka","lat":44.95889,"lng":41.95171},{"id":101817,"name":"Temizhbekskaya","lat":45.45078,"lng":41.03866},{"id":101863,"name":"Tishchenskoye","lat":45.46056,"lng":41.67382},{"id":101934,"name":"Trunovskoye","lat":45.48778,"lng":42.13583},{"id":102083,"name":"Urozhaynoye","lat":44.78833,"lng":44.92278},{"id":102315,"name":"Vinsady","lat":44.08083,"lng":42.96528},{"id":102396,"name":"Vostochny","lat":44.31494,"lng":44.19637},{"id":102452,"name":"Vysotskoye","lat":45.025,"lng":42.90639},{"id":102512,"name":"Yasnaya Polyana","lat":44.0225,"lng":42.7539},{"id":102543,"name":"Yelizavetinskoye","lat":45.00722,"lng":43.34944},{"id":102576,"name":"Yessentuki","lat":44.04444,"lng":42.86056},{"id":102577,"name":"Yessentukskaya","lat":44.0328,"lng":42.8813},{"id":102611,"name":"Yutsa","lat":43.95639,"lng":43.01278},{"id":102666,"name":"Zaterechnyy","lat":44.79306,"lng":45.20972},{"id":102669,"name":"Zavetnoye","lat":44.7492,"lng":41.5995},{"id":102701,"name":"Zelenokumsk","lat":44.40694,"lng":43.88056},{"id":102722,"name":"Zheleznovodsk","lat":44.13944,"lng":43.01972},{"id":102753,"name":"Zmeyka","lat":44.14278,"lng":43.12083}]