[{"id":97505,"name":"Adyge-Khabl’","lat":44.33434,"lng":41.93922},{"id":97588,"name":"Ali-Berdukovskiy","lat":43.98952,"lng":41.74212},{"id":97911,"name":"Besleney","lat":44.2405,"lng":41.7387},{"id":98160,"name":"Cherkessk","lat":44.22333,"lng":42.05778},{"id":98328,"name":"Druzhba","lat":44.1953,"lng":42.017},{"id":98638,"name":"Ikon-Khalk","lat":44.3051,"lng":41.9142},{"id":98714,"name":"Ispravnaya","lat":44.0682,"lng":41.6102},{"id":98857,"name":"Karachayevsk","lat":43.77399,"lng":41.91419},{"id":98858,"name":"Karachayevskiy Rayon","lat":43.5,"lng":42.0},{"id":98873,"name":"Kardonikskaya","lat":43.86577,"lng":41.71432},{"id":98914,"name":"Kavkazskiy","lat":44.2672,"lng":42.2347},{"id":98952,"name":"Khabez","lat":44.0434,"lng":41.772},{"id":99366,"name":"Krasnyy Kurgan","lat":43.94222,"lng":42.61083},{"id":99443,"name":"Kumysh","lat":43.88334,"lng":41.89323},{"id":99458,"name":"Kurdzhinovo","lat":43.98838,"lng":40.95519},{"id":99528,"name":"Kyzyl-Oktyabr’skiy","lat":43.8257,"lng":41.78605},{"id":99763,"name":"Malokarachayevskiy Rayon","lat":43.75,"lng":42.5},{"id":99841,"name":"Mednogorskiy","lat":43.9178,"lng":41.18255},{"id":100162,"name":"Nizhniy Arkhyz","lat":43.67817,"lng":41.45977},{"id":100344,"name":"Novyy Karachay","lat":43.82076,"lng":41.90322},{"id":100460,"name":"Ordzhonikidzevskiy","lat":43.84233,"lng":41.89636},{"id":100624,"name":"Pervomayskoye","lat":43.93847,"lng":42.476},{"id":100805,"name":"Pravokubanskiy","lat":43.91721,"lng":41.88413},{"id":100809,"name":"Pregradnaya","lat":43.95395,"lng":41.1891},{"id":100825,"name":"Prikubanskiy Rayon","lat":44.08333,"lng":42.0},{"id":100884,"name":"Psyzh","lat":44.23306,"lng":42.01833},{"id":101125,"name":"Sary-Tyuz","lat":43.90181,"lng":41.89523},{"id":101623,"name":"Storozhevaya","lat":43.87886,"lng":41.45143},{"id":101830,"name":"Tereze","lat":43.93608,"lng":42.4434},{"id":102014,"name":"Uchkeken","lat":43.93778,"lng":42.51167},{"id":102016,"name":"Uchkulan","lat":43.45705,"lng":42.09643},{"id":102019,"name":"Udarnyy","lat":44.34917,"lng":42.50528},{"id":102119,"name":"Ust’-Dzheguta","lat":44.0834,"lng":41.9763},{"id":102689,"name":"Zelenchukskaya","lat":43.85804,"lng":41.5894}]