[{"id":97614,"name":"Amursk","lat":50.23685,"lng":136.88136},{"id":97727,"name":"Ayan","lat":56.46314,"lng":138.17777},{"id":97908,"name":"Berëzovyy","lat":51.66897,"lng":135.66584},{"id":97926,"name":"Bikin","lat":46.81293,"lng":134.25012},{"id":97927,"name":"Bikinskiy Rayon","lat":47.0,"lng":134.25},{"id":97974,"name":"Bogorodskoye","lat":52.37397,"lng":140.43579},{"id":98131,"name":"Chegdomyn","lat":51.12853,"lng":133.00827},{"id":98221,"name":"Chumikan","lat":54.71857,"lng":135.3163},{"id":98253,"name":"De-Kastri","lat":51.47543,"lng":140.76986},{"id":98525,"name":"Gorin","lat":51.19861,"lng":136.66216},{"id":98542,"name":"Gornyy","lat":50.76344,"lng":136.44951},{"id":98665,"name":"Imeni Poliny Osipenko","lat":52.4227,"lng":136.48692},{"id":98948,"name":"Khabarovsk","lat":48.48271,"lng":135.08379},{"id":98949,"name":"Khabarovsk Vtoroy","lat":48.43776,"lng":135.13329},{"id":99004,"name":"Khor","lat":47.88696,"lng":134.9463},{"id":99021,"name":"Khurba","lat":50.40657,"lng":136.88276},{"id":99115,"name":"Knyaze-Volkonskoye","lat":48.46547,"lng":135.45582},{"id":99171,"name":"Komsomolsk-on-Amur","lat":50.55034,"lng":137.00995},{"id":99206,"name":"Korfovskiy","lat":48.22259,"lng":135.05966},{"id":99548,"name":"Lazarev","lat":52.22307,"lng":141.51265},{"id":99585,"name":"Lermontovka","lat":47.14795,"lng":134.33477},{"id":99641,"name":"Litovko","lat":49.23754,"lng":135.17401},{"id":99668,"name":"Lososina","lat":48.99652,"lng":140.31462},{"id":99740,"name":"Mago","lat":53.25851,"lng":140.18269},{"id":99833,"name":"Mayskiy","lat":48.99887,"lng":140.20976},{"id":99936,"name":"Mnogovershinnyy","lat":53.93345,"lng":139.9274},{"id":99996,"name":"Mukhen","lat":48.19672,"lng":136.12691},{"id":100092,"name":"Nekrasovka","lat":48.35208,"lng":135.23221},{"id":100136,"name":"Nikolayevsk-on-Amure","lat":53.14657,"lng":140.72287},{"id":100353,"name":"Novyy Urgal","lat":51.07089,"lng":132.60075},{"id":100403,"name":"Okhotsk","lat":59.362,"lng":143.21468},{"id":101155,"name":"Selikhino","lat":50.36832,"lng":137.50163},{"id":101459,"name":"Solnechnyy","lat":50.72367,"lng":136.63831},{"id":101508,"name":"Sovetskaya Gavan’","lat":48.97215,"lng":140.28919},{"id":101895,"name":"Topolëvo","lat":48.50264,"lng":135.17611},{"id":101996,"name":"Tyrma","lat":50.0477,"lng":132.15011},{"id":102186,"name":"Vanino","lat":49.09848,"lng":140.25313},{"id":102421,"name":"Vyazemskiy","lat":47.53757,"lng":134.75556},{"id":102447,"name":"Vysokogornyy","lat":50.09885,"lng":139.12284},{"id":102671,"name":"Zavety Il’icha","lat":49.03737,"lng":140.26989}]