[{"id":97569,"name":"Aleksandrovsk-Sakhalinskiy","lat":50.89926,"lng":142.16215},{"id":97632,"name":"Aniva","lat":46.71492,"lng":142.52866},{"id":98047,"name":"Boshnyakovo","lat":49.64572,"lng":142.17047},{"id":98097,"name":"Bykov","lat":47.32099,"lng":142.56226},{"id":98136,"name":"Chekhov","lat":47.44984,"lng":141.99064},{"id":98303,"name":"Dolinsk","lat":47.32946,"lng":142.79291},{"id":98459,"name":"Gastello","lat":49.10056,"lng":142.95917},{"id":98535,"name":"Gornozavodsk","lat":46.55984,"lng":141.84358},{"id":98996,"name":"Kholmsk","lat":47.04737,"lng":142.05048},{"id":99218,"name":"Korsakov","lat":46.6342,"lng":142.77722},{"id":99304,"name":"Krasnogorsk","lat":48.41728,"lng":142.08686},{"id":99463,"name":"Kuril’sk","lat":45.22686,"lng":147.87767},{"id":99462,"name":"Kurilsky","lat":46.0,"lng":150.0},{"id":99581,"name":"Leonidovo","lat":49.28619,"lng":142.86975},{"id":99741,"name":"Makarov","lat":48.62698,"lng":142.77999},{"id":99886,"name":"Mgachi","lat":51.04834,"lng":142.26821},{"id":100116,"name":"Nevel’sk","lat":46.67902,"lng":141.85629},{"id":100195,"name":"Nogliki","lat":51.79917,"lng":143.13871},{"id":100401,"name":"Okha","lat":53.58991,"lng":142.95313},{"id":100503,"name":"Otrada","lat":44.06832,"lng":145.86454},{"id":100779,"name":"Poronaysk","lat":49.22188,"lng":143.09694},{"id":100801,"name":"Pravda","lat":46.93972,"lng":142.00426},{"id":101212,"name":"Severo-Kuril’sk","lat":50.67531,"lng":156.12695},{"id":101240,"name":"Shakhtersk","lat":49.17175,"lng":142.1364},{"id":101286,"name":"Shebunino","lat":46.4301,"lng":141.85699},{"id":101312,"name":"Shikotan","lat":43.79916,"lng":146.72164},{"id":101373,"name":"Sinegorsk","lat":47.17278,"lng":142.51577},{"id":101413,"name":"Smirnykh","lat":49.74596,"lng":142.83716},{"id":101436,"name":"Sokol","lat":47.24464,"lng":142.75167},{"id":101882,"name":"Tomari","lat":47.76482,"lng":142.07106},{"id":101925,"name":"Troitskoye","lat":46.92493,"lng":142.64532},{"id":101970,"name":"Tungor","lat":53.39121,"lng":142.95755},{"id":101992,"name":"Tymovskoye","lat":50.84925,"lng":142.6652},{"id":102027,"name":"Uglegorsk","lat":49.08047,"lng":142.06449},{"id":102029,"name":"Uglegorskiy Rayon","lat":49.08333,"lng":142.08333},{"id":102033,"name":"Uglezavodsk","lat":47.32332,"lng":142.63317},{"id":102175,"name":"Vakhrushev","lat":48.99035,"lng":142.95303},{"id":102401,"name":"Vostok","lat":48.97715,"lng":142.91556},{"id":102457,"name":"Yablochnyy","lat":47.152,"lng":142.05678},{"id":102613,"name":"Yuzhno-Kurilsk","lat":44.02734,"lng":145.86146},{"id":102614,"name":"Yuzhno-Kurilsky","lat":44.59242,"lng":146.77048},{"id":102615,"name":"Yuzhno-Sakhalinsk","lat":46.95407,"lng":142.73603}]