[{"id":97548,"name":"Aktash","lat":50.3,"lng":87.73333},{"id":97684,"name":"Artybash","lat":51.79278,"lng":87.27611},{"id":97876,"name":"Belyashi","lat":49.709,"lng":87.423},{"id":98141,"name":"Chemal","lat":51.41111,"lng":86.005},{"id":98158,"name":"Cherga","lat":51.56889,"lng":85.5625},{"id":98212,"name":"Choya","lat":52.0108,"lng":86.5467},{"id":98384,"name":"Elekmonar","lat":51.45889,"lng":85.98778},{"id":98529,"name":"Gorno-Altaysk","lat":51.96056,"lng":85.91892},{"id":98679,"name":"Inya","lat":50.45611,"lng":86.62667},{"id":98684,"name":"Iogach","lat":51.78167,"lng":87.26306},{"id":99226,"name":"Kosh-Agach","lat":49.99273,"lng":88.67598},{"id":99787,"name":"Manzherok","lat":51.83028,"lng":85.775},{"id":99824,"name":"Mayma","lat":52.01577,"lng":85.90963},{"id":99825,"name":"Mayminskiy Rayon","lat":51.83333,"lng":86.0},{"id":100448,"name":"Onguday","lat":50.75,"lng":86.15},{"id":100449,"name":"Ongudayskiy Rayon","lat":50.66667,"lng":86.5},{"id":101282,"name":"Shebalino","lat":51.29167,"lng":85.67722},{"id":101283,"name":"Shebalinskiy Rayon","lat":51.33333,"lng":85.5},{"id":101502,"name":"Souzga","lat":51.88722,"lng":85.84944},{"id":101785,"name":"Tashanta","lat":49.71573,"lng":89.19425},{"id":101980,"name":"Turochak","lat":52.2576,"lng":87.1224},{"id":102127,"name":"Ust’-Kan","lat":50.9276,"lng":84.761},{"id":102131,"name":"Ust’-Koksa","lat":50.2696,"lng":85.6108},{"id":102132,"name":"Ust’-Koksinskiy Rayon","lat":50.16667,"lng":85.58333},{"id":102141,"name":"Ust’-Ulagan","lat":50.63258,"lng":87.96046}]