[{"id":97984,"name":"Bokino","lat":52.63744,"lng":41.45968},{"id":98018,"name":"Bondarskiy Rayon","lat":53.0,"lng":42.0},{"id":98314,"name":"Donskoye","lat":52.77495,"lng":41.47759},{"id":98464,"name":"Gavrilovka Vtoraya","lat":52.87697,"lng":42.76633},{"id":98524,"name":"Goreloye","lat":52.93697,"lng":41.50435},{"id":98683,"name":"Inzhavino","lat":52.31847,"lng":42.49369},{"id":99074,"name":"Kirsanov","lat":52.65494,"lng":42.72236},{"id":99075,"name":"Kirsanovskiy Rayon","lat":52.61667,"lng":42.55},{"id":99170,"name":"Komsomolets","lat":52.7686,"lng":41.28683},{"id":99250,"name":"Kotovsk","lat":52.58666,"lng":41.5021},{"id":99892,"name":"Michurinsk","lat":52.8978,"lng":40.4907},{"id":99961,"name":"Mordovo","lat":52.0834,"lng":40.77},{"id":99967,"name":"Morshansk","lat":53.44354,"lng":41.81065},{"id":99993,"name":"Muchkapskiy","lat":51.85133,"lng":42.47175},{"id":100205,"name":"Novaya Lyada","lat":52.71309,"lng":41.63872},{"id":100284,"name":"Novopokrovka","lat":52.1331,"lng":40.8783},{"id":100618,"name":"Pervomayskiy","lat":53.2485,"lng":40.2871},{"id":100670,"name":"Pichayevo","lat":53.23627,"lng":42.20323},{"id":100698,"name":"Platonovka","lat":52.71058,"lng":41.95199},{"id":100744,"name":"Pokrovo-Prigorodnoye","lat":52.68405,"lng":41.41752},{"id":100942,"name":"Rasskazovo","lat":52.65599,"lng":41.88461},{"id":100943,"name":"Rasskazovskiy Rayon","lat":52.58333,"lng":41.91667},{"id":101057,"name":"Rzhaksa","lat":52.13384,"lng":42.0264},{"id":101092,"name":"Sampurskiy Rayon","lat":52.25,"lng":41.66667},{"id":101130,"name":"Satinka","lat":52.37923,"lng":41.68192},{"id":101153,"name":"Selezni","lat":52.80415,"lng":41.23961},{"id":101488,"name":"Sosnovka","lat":53.23593,"lng":41.36859},{"id":101602,"name":"Staroyur’yevo","lat":53.31611,"lng":40.70806},{"id":101761,"name":"Tambov","lat":52.73169,"lng":41.44326},{"id":101873,"name":"Tokarevskiy Rayon","lat":52.0,"lng":41.25},{"id":102155,"name":"Uvarovo","lat":51.98486,"lng":42.26147},{"id":102681,"name":"Zavoronezhskoye","lat":52.8801,"lng":40.5526},{"id":102725,"name":"Zherdevka","lat":51.84861,"lng":41.46056},{"id":102756,"name":"Znamenka","lat":52.4167,"lng":41.43108},{"id":102760,"name":"Znamenskiy Rayon","lat":52.33333,"lng":41.33333}]