[{"id":97485,"name":"Abdulino","lat":53.7,"lng":53.66667},{"id":97501,"name":"Adamovka","lat":51.5223,"lng":59.9396},{"id":97557,"name":"Alandskoye","lat":52.22611,"lng":59.79389},{"id":97695,"name":"Asekeyevo","lat":53.57425,"lng":52.79724},{"id":97877,"name":"Belyayevka","lat":51.39742,"lng":56.41667},{"id":98069,"name":"Buguruslan","lat":53.6554,"lng":52.442},{"id":98096,"name":"Buzuluk","lat":52.7807,"lng":52.2635},{"id":98305,"name":"Dombarovskiy","lat":50.7587,"lng":59.5386},{"id":98396,"name":"Energetik","lat":51.7445,"lng":58.7934},{"id":98465,"name":"Gay","lat":51.4666,"lng":58.4552},{"id":98645,"name":"Ilek","lat":51.52709,"lng":53.38306},{"id":98872,"name":"Kardailovo","lat":51.53861,"lng":53.90417},{"id":99149,"name":"Koltubanovskiy","lat":52.9407,"lng":52.0269},{"id":99312,"name":"Krasnogvardeyets","lat":52.6804,"lng":52.3635},{"id":99323,"name":"Krasnokholm","lat":51.59787,"lng":54.1567},{"id":99345,"name":"Krasnoyarskiy","lat":51.965,"lng":59.89667},{"id":99365,"name":"Krasnyy Kommunar","lat":51.96436,"lng":55.3668},{"id":99467,"name":"Kurmanayevka","lat":52.5093,"lng":52.0675},{"id":99490,"name":"Kuvandyk","lat":51.4781,"lng":57.3552},{"id":99513,"name":"Kvarkeno","lat":52.08333,"lng":59.725},{"id":99514,"name":"Kvarkenskiy Rayon","lat":52.16667,"lng":59.5},{"id":99816,"name":"Matveyevka","lat":52.15,"lng":56.18333},{"id":99840,"name":"Mednogorsk","lat":51.4128,"lng":57.595},{"id":100127,"name":"Nezhinka","lat":51.7676,"lng":55.3694},{"id":100157,"name":"Nizhnepavlovka","lat":51.71324,"lng":54.80146},{"id":100274,"name":"Novoorsk","lat":51.381,"lng":58.9813},{"id":100275,"name":"Novoorskiy Rayon","lat":51.5,"lng":59.0},{"id":100290,"name":"Novorudnyy","lat":51.5026,"lng":58.1873},{"id":100296,"name":"Novosergiyevka","lat":52.0934,"lng":53.6528},{"id":100316,"name":"Novotroitsk","lat":51.20301,"lng":58.32665},{"id":100465,"name":"Orenburg","lat":51.7727,"lng":55.0988},{"id":100480,"name":"Orsk","lat":51.20487,"lng":58.56685},{"id":100608,"name":"Perevolotskiy","lat":51.87633,"lng":54.19378},{"id":100702,"name":"Pleshanovo","lat":52.83333,"lng":53.48333},{"id":100718,"name":"Podgorodnyaya Pokrovka","lat":51.82808,"lng":54.9874},{"id":100821,"name":"Prigorodnyy","lat":51.76608,"lng":55.26648},{"id":101076,"name":"Sakmara","lat":51.98438,"lng":55.3338},{"id":101106,"name":"Saraktash","lat":51.78771,"lng":56.36091},{"id":101107,"name":"Saraktashskiy Rayon","lat":51.83333,"lng":56.41667},{"id":101204,"name":"Severnoye","lat":54.09347,"lng":52.54393},{"id":101262,"name":"Sharlyk","lat":52.91667,"lng":54.75},{"id":101317,"name":"Shil’da","lat":51.8143,"lng":59.7744},{"id":101472,"name":"Sol’-Iletsk","lat":51.1631,"lng":54.99176},{"id":101477,"name":"Sorochinsk","lat":52.4338,"lng":53.1583},{"id":101557,"name":"Staraya Akkermanovka","lat":51.24669,"lng":58.23908},{"id":101708,"name":"Svetlyy","lat":50.81833,"lng":60.85194},{"id":101787,"name":"Tashla","lat":51.77157,"lng":52.7427},{"id":101793,"name":"Tatarskaya Kargala","lat":51.94952,"lng":55.17314},{"id":101906,"name":"Totskoye","lat":52.52478,"lng":52.76228},{"id":102004,"name":"Tyul’gan","lat":52.34049,"lng":56.16604},{"id":102515,"name":"Yasnyy","lat":51.0333,"lng":59.8742},{"id":102540,"name":"Yelizavetinka","lat":51.76732,"lng":59.74245}]