[{"id":98010,"name":"Bol’shoy Khomutets","lat":52.78285,"lng":39.87214},{"id":98023,"name":"Borinskoye","lat":52.4569,"lng":39.3713},{"id":98116,"name":"Chaplygin","lat":53.24319,"lng":39.96288},{"id":98117,"name":"Chaplyginskiy Rayon","lat":53.25,"lng":40.0},{"id":98244,"name":"Dankov","lat":53.25155,"lng":39.15553},{"id":98245,"name":"Dankovskiy Rayon","lat":53.25,"lng":39.16667},{"id":98291,"name":"Dobrinka","lat":52.16528,"lng":40.47306},{"id":98292,"name":"Dobrinskiy Rayon","lat":52.16667,"lng":40.5},{"id":98293,"name":"Dobrovskiy Rayon","lat":52.83333,"lng":39.83333},{"id":98294,"name":"Dobroye","lat":52.8678,"lng":39.8109},{"id":98301,"name":"Dolgorukovo","lat":52.31945,"lng":38.34527},{"id":98302,"name":"Dolgorukovskiy Rayon","lat":52.33333,"lng":38.33333},{"id":98315,"name":"Donskoye","lat":52.6174,"lng":38.9738},{"id":98596,"name":"Gryazi","lat":52.49657,"lng":39.93593},{"id":98597,"name":"Gryazinskiy Rayon","lat":52.5,"lng":39.91667},{"id":98751,"name":"Izmalkovo","lat":52.6887,"lng":37.96398},{"id":98752,"name":"Izmalkovskiy Rayon","lat":52.66667,"lng":38.0},{"id":98784,"name":"Kalikino","lat":52.9493,"lng":39.8269},{"id":98925,"name":"Kazaki","lat":52.62484,"lng":38.26488},{"id":98932,"name":"Kazinka","lat":52.53817,"lng":39.82164},{"id":98986,"name":"Khlevenskiy Rayon","lat":52.16667,"lng":39.08333},{"id":98987,"name":"Khlevnoye","lat":52.19512,"lng":39.09316},{"id":99289,"name":"Krasninskiy Rayon","lat":52.83333,"lng":38.75},{"id":99349,"name":"Krasnoye","lat":52.86449,"lng":38.79353},{"id":99512,"name":"Kuz’minskiye Otverzhki","lat":52.69574,"lng":39.47036},{"id":99554,"name":"Lebedyan’","lat":53.01942,"lng":39.16639},{"id":99553,"name":"Lebedyanskiy Rayon","lat":53.0,"lng":39.16667},{"id":99609,"name":"Lev Tolstoy","lat":53.21344,"lng":39.44604},{"id":99610,"name":"Lev-Tolstovskiy Rayon","lat":53.25,"lng":39.5},{"id":99632,"name":"Lipetsk","lat":52.60311,"lng":39.57076},{"id":99633,"name":"Lipetskiy Rayon","lat":52.58333,"lng":39.58333},{"id":100664,"name":"Petrovskiy","lat":52.24159,"lng":40.64976},{"id":100700,"name":"Plekhanovo","lat":52.63822,"lng":39.84729},{"id":100819,"name":"Prigorodka","lat":52.04472,"lng":39.71238},{"id":101552,"name":"Stanovlyanskiy Rayon","lat":52.83333,"lng":38.33333},{"id":101553,"name":"Stanovoye","lat":52.76384,"lng":38.35818},{"id":101730,"name":"Syrskoye","lat":52.57437,"lng":39.4966},{"id":101825,"name":"Terbunskiy Rayon","lat":52.16667,"lng":38.25},{"id":101826,"name":"Terbuny","lat":52.1493,"lng":38.2834},{"id":102099,"name":"Usman’","lat":52.04662,"lng":39.7288},{"id":102098,"name":"Usmanskiy Rayon","lat":52.0,"lng":39.75},{"id":102365,"name":"Volovo","lat":52.02659,"lng":37.8854},{"id":102367,"name":"Volovskiy Rayon","lat":52.0,"lng":37.91667},{"id":102538,"name":"Yelets","lat":52.62366,"lng":38.50169},{"id":102539,"name":"Yeletskiy Rayon","lat":52.58333,"lng":38.5},{"id":102626,"name":"Zadonsk","lat":52.3904,"lng":38.9261},{"id":102627,"name":"Zadonskiy Rayon","lat":52.41667,"lng":38.91667}]