[{"id":97571,"name":"Aleksandrovskaya","lat":43.48333,"lng":43.65},{"id":97604,"name":"Altud","lat":43.72194,"lng":43.86583},{"id":97661,"name":"Argudan","lat":43.42139,"lng":43.91583},{"id":97720,"name":"Aushiger","lat":43.39611,"lng":43.73167},{"id":97743,"name":"Babugent","lat":43.27942,"lng":43.5502},{"id":97762,"name":"Baksan","lat":43.68806,"lng":43.53694},{"id":97763,"name":"Baksanenok","lat":43.68972,"lng":43.65472},{"id":97764,"name":"Baksanskiy Rayon","lat":43.75,"lng":43.5},{"id":97844,"name":"Belaya Rechka","lat":43.43806,"lng":43.535},{"id":98099,"name":"Bylym","lat":43.465,"lng":43.03889},{"id":98132,"name":"Chegem","lat":43.28333,"lng":43.13333},{"id":98133,"name":"Chegem Vtoroy","lat":43.59583,"lng":43.59944},{"id":98146,"name":"Cherekskiy Rayon","lat":43.25,"lng":43.5},{"id":98272,"name":"Deyskoye","lat":43.47546,"lng":44.16182},{"id":98348,"name":"Dugulubgey","lat":43.6625,"lng":43.53694},{"id":98390,"name":"El’brus","lat":43.25771,"lng":42.64435},{"id":98391,"name":"El’brusskiy Rayon","lat":43.41667,"lng":42.83333},{"id":98483,"name":"Germenchik","lat":43.59389,"lng":43.76611},{"id":98611,"name":"Gundelen","lat":43.5975,"lng":43.17194},{"id":98713,"name":"Islamey","lat":43.67556,"lng":43.455},{"id":98777,"name":"Kakhun","lat":43.54306,"lng":43.87639},{"id":98811,"name":"Kamenka","lat":43.53333,"lng":43.51667},{"id":98817,"name":"Kamennomostskoye","lat":43.73722,"lng":43.05139},{"id":98860,"name":"Karagach","lat":43.80528,"lng":43.775},{"id":98896,"name":"Kashkhatau","lat":43.31848,"lng":43.60804},{"id":98940,"name":"Kenzhe","lat":43.50167,"lng":43.55722},{"id":99080,"name":"Kishpek","lat":43.655,"lng":43.64083},{"id":99249,"name":"Kotlyarevskaya","lat":43.57344,"lng":44.06134},{"id":99413,"name":"Kuba-Taba","lat":43.77611,"lng":43.44278},{"id":99524,"name":"Kyzburun Pervyy","lat":43.65167,"lng":43.395},{"id":99559,"name":"Lechinkay","lat":43.56472,"lng":43.43278},{"id":99590,"name":"Leskenskiy rayon","lat":43.35556,"lng":43.94139},{"id":99759,"name":"Malka","lat":43.80389,"lng":43.32417},{"id":99834,"name":"Mayskiy Rayon","lat":43.66667,"lng":44.08333},{"id":100054,"name":"Nal’chik","lat":43.49806,"lng":43.61889},{"id":100061,"name":"Nartan","lat":43.51083,"lng":43.69944},{"id":100062,"name":"Nartkala","lat":43.5575,"lng":43.85083},{"id":100165,"name":"Nizhniy Cherek","lat":43.51306,"lng":43.91389},{"id":100170,"name":"Nizhniy Kurkuzhin","lat":43.74833,"lng":43.34972},{"id":100693,"name":"Planovskoye","lat":43.39846,"lng":44.1949},{"id":100828,"name":"Primalkinskoye","lat":43.74667,"lng":44.00833},{"id":100855,"name":"Prokhladnenskiy Rayon","lat":43.83333,"lng":44.0},{"id":100856,"name":"Prokhladnyy","lat":43.75741,"lng":44.0297},{"id":100883,"name":"Psygansu","lat":43.41944,"lng":43.79361},{"id":101119,"name":"Sarmakovo","lat":43.74556,"lng":43.20028},{"id":101248,"name":"Shalushka","lat":43.5325,"lng":43.56611},{"id":101446,"name":"Soldatskaya","lat":43.81806,"lng":43.81583},{"id":101604,"name":"Staryy Cherek","lat":43.47139,"lng":43.84694},{"id":101609,"name":"Staryy Urukh","lat":43.34041,"lng":44.01868},{"id":101827,"name":"Terek","lat":43.48333,"lng":44.13611},{"id":101838,"name":"Terskiy Rayon","lat":43.58333,"lng":44.25},{"id":101840,"name":"Terskol","lat":43.2568,"lng":42.51481},{"id":101997,"name":"Tyrnyauz","lat":43.38278,"lng":42.91833},{"id":102086,"name":"Urukh","lat":43.29335,"lng":44.02647},{"id":102092,"name":"Urvan’","lat":43.49222,"lng":43.76056},{"id":102091,"name":"Urvanskiy Rayon","lat":43.41667,"lng":43.91667},{"id":102253,"name":"Verkhniy Kurkuzhin","lat":43.69556,"lng":43.27472},{"id":102265,"name":"Verkhnyaya Balkariya","lat":43.12545,"lng":43.45687},{"id":102373,"name":"Vol’nyy Aul","lat":43.47861,"lng":43.6275},{"id":102639,"name":"Zalukokoazhe","lat":43.90389,"lng":43.21556},{"id":102687,"name":"Zayukovo","lat":43.61611,"lng":43.33389},{"id":102711,"name":"Zhankhoteko","lat":43.56417,"lng":43.21056},{"id":102724,"name":"Zhemtala","lat":43.28408,"lng":43.65586},{"id":102768,"name":"Zol’skiy Rayon","lat":43.75,"lng":42.91667}]