[{"id":97729,"name":"Aykino","lat":62.22481,"lng":49.99222},{"id":97952,"name":"Blagoyevo","lat":63.4231,"lng":47.9646},{"id":98037,"name":"Borovoy","lat":63.23005,"lng":52.89031},{"id":98410,"name":"Ezhva","lat":61.81281,"lng":50.72834},{"id":98678,"name":"Inta","lat":66.03169,"lng":60.16594},{"id":98748,"name":"Izhma","lat":65.00833,"lng":53.91128},{"id":99116,"name":"Knyazhpogostskiy Rayon","lat":62.58333,"lng":50.91667},{"id":99220,"name":"Kortkeros","lat":61.81056,"lng":51.58056},{"id":99234,"name":"Koslan","lat":63.45641,"lng":48.89891},{"id":99258,"name":"Koygorodok","lat":60.44498,"lng":50.9968},{"id":99259,"name":"Koygorodskiy Rayon","lat":60.41667,"lng":51.0},{"id":99265,"name":"Kozhva","lat":65.10727,"lng":57.0459},{"id":99606,"name":"Letka","lat":59.60111,"lng":49.42321},{"id":99878,"name":"Mezhdurechensk","lat":63.24556,"lng":48.55333},{"id":99909,"name":"Mikun’","lat":62.35472,"lng":50.07714},{"id":99960,"name":"Mordino","lat":61.35327,"lng":51.89574},{"id":100174,"name":"Nizhniy Odes","lat":63.64451,"lng":54.85598},{"id":100552,"name":"Parma","lat":66.0,"lng":57.7},{"id":100587,"name":"Pechora","lat":65.14717,"lng":57.22439},{"id":100827,"name":"Priluzskiy Rayon","lat":60.33333,"lng":49.33333},{"id":100868,"name":"Promyshlennyy","lat":67.58333,"lng":63.91667},{"id":100904,"name":"Puteyets","lat":65.17157,"lng":57.09101},{"id":101148,"name":"Sedkyrkeshch","lat":61.75,"lng":50.91667},{"id":101343,"name":"Shudayag","lat":63.52665,"lng":53.60582},{"id":101371,"name":"Sindor","lat":62.86286,"lng":51.89051},{"id":101484,"name":"Sosnogorsk","lat":63.60229,"lng":53.88175},{"id":101512,"name":"Sovetskiy","lat":67.48333,"lng":64.41667},{"id":101724,"name":"Syktyvkar","lat":61.664,"lng":50.815},{"id":101728,"name":"Synya","lat":65.37185,"lng":58.03874},{"id":101919,"name":"Troitsko-Pechorsk","lat":62.70836,"lng":56.19643},{"id":101920,"name":"Troitsko-Pechorskiy Rayon","lat":62.66667,"lng":56.25},{"id":101941,"name":"Tsementnozavodskiy","lat":67.62834,"lng":64.08965},{"id":102043,"name":"Ukhta","lat":63.56705,"lng":53.68348},{"id":102096,"name":"Usinsk","lat":65.99389,"lng":57.52806},{"id":102100,"name":"Usogorsk","lat":63.41064,"lng":48.68722},{"id":102110,"name":"Ust-Tsilma","lat":65.44104,"lng":52.14978},{"id":102134,"name":"Ust’-Kulom","lat":61.68636,"lng":53.6902},{"id":102140,"name":"Ust’-Tsilemskiy Rayon","lat":65.41667,"lng":52.16667},{"id":102266,"name":"Verkhnyaya Inta","lat":65.98115,"lng":60.30945},{"id":102268,"name":"Verkhnyaya Maksakovka","lat":61.63504,"lng":50.9674},{"id":102323,"name":"Vizinga","lat":61.07493,"lng":50.10311},{"id":102334,"name":"Vodnyy","lat":63.50464,"lng":53.40947},{"id":102376,"name":"Vorgashor","lat":67.58355,"lng":63.79399},{"id":102377,"name":"Vorkuta","lat":67.49884,"lng":64.05253},{"id":102405,"name":"Voyvozh","lat":62.89198,"lng":54.96346},{"id":102415,"name":"Vuktyl","lat":63.85667,"lng":57.30944},{"id":102493,"name":"Yarega","lat":63.43543,"lng":53.5765},{"id":102559,"name":"Yemva","lat":62.58999,"lng":50.85939},{"id":102648,"name":"Zapolyarnyy","lat":67.49552,"lng":63.73275},{"id":102690,"name":"Zelenets","lat":61.88485,"lng":50.74892},{"id":102726,"name":"Zheshart","lat":62.07314,"lng":49.57335}]