[{"id":97755,"name":"Bagrationovsk","lat":54.38714,"lng":20.64372},{"id":97784,"name":"Baltiysk","lat":54.65455,"lng":19.90929},{"id":97989,"name":"Bol'shoe Isakovo","lat":54.71774,"lng":20.60284},{"id":98177,"name":"Chernyakhovsk","lat":54.63345,"lng":21.81557},{"id":98316,"name":"Donskoye","lat":54.93842,"lng":19.96821},{"id":98616,"name":"Gur’yevsk","lat":54.77323,"lng":20.60521},{"id":98618,"name":"Gusev","lat":54.59222,"lng":22.19972},{"id":98624,"name":"Gvardeysk","lat":54.64772,"lng":21.06513},{"id":98787,"name":"Kaliningrad","lat":54.70649,"lng":20.51095},{"id":99013,"name":"Khrabrovo","lat":54.89709,"lng":20.58035},{"id":99356,"name":"Krasnoznamensk","lat":54.94222,"lng":22.48972},{"id":99534,"name":"Ladushkin","lat":54.57025,"lng":20.17099},{"id":99769,"name":"Maloye Isakovo","lat":54.73269,"lng":20.58413},{"id":99777,"name":"Mamonovo","lat":54.46427,"lng":19.93801},{"id":100100,"name":"Neman","lat":55.03111,"lng":22.02639},{"id":100101,"name":"Nemanskiy Rayon","lat":54.91667,"lng":22.0},{"id":100111,"name":"Nesterov","lat":54.63056,"lng":22.57139},{"id":100113,"name":"Nesterovskiy Rayon","lat":54.58333,"lng":22.58333},{"id":100507,"name":"Otradnoye","lat":54.94114,"lng":20.11397},{"id":100524,"name":"Ozërsk","lat":54.41056,"lng":22.01167},{"id":100520,"name":"Ozerskiy Rayon","lat":54.41667,"lng":22.0},{"id":100680,"name":"Pionerskiy","lat":54.95083,"lng":20.22748},{"id":100753,"name":"Polessk","lat":54.86205,"lng":21.10279},{"id":100802,"name":"Pravdinsk","lat":54.44289,"lng":21.01785},{"id":100830,"name":"Primorsk","lat":54.73905,"lng":20.00553},{"id":101402,"name":"Slavsk","lat":55.0425,"lng":21.67704},{"id":101403,"name":"Slavskiy Rayon","lat":55.0,"lng":21.66667},{"id":101504,"name":"Sovetsk","lat":55.08392,"lng":21.87851},{"id":101701,"name":"Svetlogorsk","lat":54.93987,"lng":20.15479},{"id":101705,"name":"Svetlyy","lat":54.67501,"lng":20.13473},{"id":102350,"name":"Volochayevskoye","lat":54.70034,"lng":20.21966},{"id":102456,"name":"Vzmorye","lat":54.69606,"lng":20.23613},{"id":102486,"name":"Yantarnyy","lat":54.87102,"lng":19.94016},{"id":102619,"name":"Yuzhnyy","lat":54.54837,"lng":20.59843},{"id":102699,"name":"Zelenogradsk","lat":54.95893,"lng":20.47668},{"id":102718,"name":"Zheleznodorozhnyy","lat":54.36013,"lng":21.30597},{"id":102758,"name":"Znamensk","lat":54.61403,"lng":21.22722}]