[{"id":97579,"name":"Alekseyevka","lat":50.6309,"lng":38.6903},{"id":97837,"name":"Bekhteyevka","lat":50.80758,"lng":37.21789},{"id":97848,"name":"Belgorod","lat":50.61074,"lng":36.58015},{"id":97849,"name":"Belgorodskiy Rayon","lat":50.5,"lng":36.5},{"id":97914,"name":"Bessonovka","lat":50.52644,"lng":36.30107},{"id":98028,"name":"Borisovka","lat":50.60155,"lng":36.01549},{"id":98029,"name":"Borisovskiy Rayon","lat":50.58333,"lng":36.0},{"id":98178,"name":"Chernyanka","lat":50.94095,"lng":37.80693},{"id":98179,"name":"Chernyanskiy Rayon","lat":51.0,"lng":37.91667},{"id":98507,"name":"Golovchino","lat":50.5341,"lng":35.797},{"id":98577,"name":"Grayvoron","lat":50.4767,"lng":35.6773},{"id":98578,"name":"Grayvoronskiy Rayon","lat":50.5,"lng":35.66667},{"id":98603,"name":"Gubkin","lat":51.28167,"lng":37.54583},{"id":98647,"name":"Ilovka","lat":50.7053,"lng":38.637},{"id":98739,"name":"Ivnya","lat":51.06294,"lng":36.13426},{"id":98740,"name":"Ivnyanskiy Rayon","lat":51.0,"lng":36.25},{"id":99212,"name":"Korocha","lat":50.8132,"lng":37.18598},{"id":99213,"name":"Korochanskiy Rayon","lat":50.83333,"lng":37.25},{"id":99286,"name":"Krasnaya Yaruga","lat":50.80083,"lng":35.65833},{"id":99288,"name":"Krasnenskiy Rayon","lat":50.91667,"lng":38.58333},{"id":99314,"name":"Krasnogvardeyskiy Rayon","lat":50.66667,"lng":38.33333},{"id":99318,"name":"Krasnogvardeyskoye","lat":50.6492,"lng":38.4036},{"id":99348,"name":"Krasnoyaruzhskiy Rayon","lat":50.83333,"lng":35.5},{"id":99350,"name":"Krasnoye","lat":50.9297,"lng":38.6817},{"id":99643,"name":"Livenka","lat":50.4491,"lng":38.2959},{"id":99810,"name":"Maslova Pristan’","lat":50.45758,"lng":36.72038},{"id":99831,"name":"Mayskiy","lat":50.51988,"lng":36.45878},{"id":100210,"name":"Novaya Tavolzhanka","lat":50.35123,"lng":36.8298},{"id":100276,"name":"Novooskol’skiy Rayon","lat":50.75,"lng":37.83333},{"id":100348,"name":"Novyy Oskol","lat":50.7633,"lng":37.86402},{"id":100857,"name":"Prokhorovka","lat":51.03741,"lng":36.73252},{"id":100858,"name":"Prokhorovskiy Rayon","lat":51.00447,"lng":36.74875},{"id":100864,"name":"Proletarskiy","lat":50.79139,"lng":35.77306},{"id":100911,"name":"Pyatnitskoye","lat":50.4233,"lng":37.8273},{"id":100932,"name":"Rakitnoye","lat":50.8389,"lng":35.8515},{"id":100933,"name":"Rakityanskiy Rayon","lat":50.83333,"lng":35.91667},{"id":100952,"name":"Razumnoye","lat":50.53439,"lng":36.68462},{"id":100984,"name":"Rogovatoye","lat":51.23,"lng":38.3818},{"id":101010,"name":"Roven’skiy Rayon","lat":50.0,"lng":39.0},{"id":101208,"name":"Severnyy","lat":50.67704,"lng":36.55324},{"id":101284,"name":"Shebekino","lat":50.40967,"lng":36.9136},{"id":101285,"name":"Shebekinskiy Rayon","lat":50.5,"lng":37.0},{"id":101390,"name":"Skorodnoye","lat":51.07101,"lng":37.22756},{"id":101607,"name":"Staryy Oskol","lat":51.29667,"lng":37.84167},{"id":101631,"name":"Stroitel’","lat":50.78543,"lng":36.4831},{"id":101883,"name":"Tomarovka","lat":50.68338,"lng":36.23309},{"id":101917,"name":"Troitskiy","lat":51.3588,"lng":37.5253},{"id":102073,"name":"Urazovo","lat":50.0836,"lng":38.0395},{"id":102183,"name":"Valuyki","lat":50.2035,"lng":38.1067},{"id":102184,"name":"Valuyskiy Rayon","lat":50.16667,"lng":38.0},{"id":102299,"name":"Veydelevka","lat":50.1521,"lng":38.4492},{"id":102358,"name":"Volokonovka","lat":50.4827,"lng":37.8563},{"id":102359,"name":"Volokonovskiy Rayon","lat":50.5,"lng":37.83333},{"id":102467,"name":"Yakovlevo","lat":50.86033,"lng":36.44784},{"id":102469,"name":"Yakovlevskiy Rayon","lat":50.83333,"lng":36.41667},{"id":102665,"name":"Zasosna","lat":50.6307,"lng":38.3965}]