[{"id":97518,"name":"Aginskoye","lat":51.1,"lng":114.53},{"id":97543,"name":"Aksha","lat":50.28139,"lng":113.28667},{"id":97544,"name":"Akshinskiy Rayon","lat":50.25,"lng":113.25},{"id":97567,"name":"Aleksandrovo-Zavodskiy Rayon","lat":50.91667,"lng":117.95},{"id":97573,"name":"Aleksandrovskiy Zavod","lat":50.92525,"lng":117.93773},{"id":97611,"name":"Amazar","lat":53.86033,"lng":120.87925},{"id":97707,"name":"Atamanovka","lat":51.93333,"lng":113.63333},{"id":97750,"name":"Bada","lat":51.391,"lng":109.86145},{"id":97776,"name":"Baley","lat":51.58166,"lng":116.63395},{"id":97777,"name":"Baleyskiy Rayon","lat":51.5,"lng":117.0},{"id":97785,"name":"Balyaga","lat":51.15293,"lng":108.92767},{"id":98001,"name":"Bol’shaya Tura","lat":51.61642,"lng":114.11242},{"id":98044,"name":"Borzinskiy Rayon","lat":50.16667,"lng":117.33333},{"id":98046,"name":"Borzya","lat":50.38333,"lng":116.51667},{"id":98073,"name":"Bukachacha","lat":52.98333,"lng":116.91667},{"id":98118,"name":"Chara","lat":56.90639,"lng":118.26306},{"id":98180,"name":"Chernyshevsk","lat":52.52209,"lng":117.01712},{"id":98204,"name":"Chita","lat":52.03171,"lng":113.50087},{"id":98205,"name":"Chitinskiy Rayon","lat":52.0,"lng":113.50024},{"id":98246,"name":"Darasun","lat":51.6594,"lng":113.97515},{"id":98248,"name":"Dauriya","lat":49.93333,"lng":116.86667},{"id":98306,"name":"Domna","lat":51.89712,"lng":113.1573},{"id":98326,"name":"Drovyanaya","lat":51.5762,"lng":113.04078},{"id":98353,"name":"Dul’durga","lat":50.67611,"lng":113.59306},{"id":98468,"name":"Gazimuro-Zavodskiy Rayon","lat":51.55,"lng":118.36667},{"id":98469,"name":"Gazimurskiy Zavod","lat":51.55352,"lng":118.3446},{"id":98767,"name":"Kadaya","lat":50.93254,"lng":119.29468},{"id":98780,"name":"Kalanguy","lat":51.01667,"lng":116.51667},{"id":98783,"name":"Kalga","lat":50.92538,"lng":118.89958},{"id":98889,"name":"Karymskoye","lat":51.61667,"lng":114.35},{"id":98979,"name":"Khilok","lat":51.36777,"lng":110.46804},{"id":98991,"name":"Kholbon","lat":51.88333,"lng":116.25},{"id":99100,"name":"Klichka","lat":50.4457,"lng":117.996},{"id":99110,"name":"Klyuchevskiy","lat":53.5336,"lng":119.45269},{"id":99135,"name":"Kokuy","lat":52.20634,"lng":117.55412},{"id":99320,"name":"Krasnokamensk","lat":50.0979,"lng":118.0369},{"id":99361,"name":"Krasnyy Chikoy","lat":50.36321,"lng":108.75445},{"id":99412,"name":"Kuanda","lat":56.31611,"lng":116.08056},{"id":99468,"name":"Kurort-Darasun","lat":51.19905,"lng":113.71599},{"id":99518,"name":"Kyra","lat":49.57903,"lng":111.97638},{"id":99745,"name":"Makkaveyevo","lat":51.75325,"lng":113.9454},{"id":99939,"name":"Mogocha","lat":53.73417,"lng":119.76515},{"id":99940,"name":"Mogoytuy","lat":51.28333,"lng":114.91667},{"id":99941,"name":"Mogzon","lat":51.7406,"lng":111.96555},{"id":100104,"name":"Nerchinsk","lat":51.98333,"lng":116.58333},{"id":100105,"name":"Nerchinskiy Zavod","lat":51.30829,"lng":119.61597},{"id":100106,"name":"Nerchinsko-Zavodskiy Rayon","lat":51.31667,"lng":119.6},{"id":100176,"name":"Nizhniy Tsasuchey","lat":50.51667,"lng":115.13333},{"id":100201,"name":"Novaya Chara","lat":56.81639,"lng":118.29861},{"id":100253,"name":"Novokruchininskiy","lat":51.7836,"lng":113.77591},{"id":100273,"name":"Novoorlovsk","lat":51.07549,"lng":114.7261},{"id":100277,"name":"Novopavlovka","lat":51.21724,"lng":109.21305},{"id":100425,"name":"Olovyannaya","lat":50.95,"lng":115.56667},{"id":100426,"name":"Olovyanninskiy Rayon","lat":51.0,"lng":116.16667},{"id":100474,"name":"Orlovskiy","lat":51.03333,"lng":114.83333},{"id":100621,"name":"Pervomayskiy","lat":51.67013,"lng":115.62543},{"id":100660,"name":"Petrovsk-Zabaykal’skiy","lat":51.2753,"lng":108.84301},{"id":100814,"name":"Priargunsk","lat":50.3691,"lng":119.1012},{"id":100815,"name":"Priargunskiy Rayon","lat":50.75,"lng":118.5},{"id":100823,"name":"Priiskovyy","lat":51.93333,"lng":116.63333},{"id":101293,"name":"Shelopugino","lat":51.65286,"lng":117.56303},{"id":101313,"name":"Shilka","lat":51.85,"lng":116.03333},{"id":101314,"name":"Shilkinskiy Rayon","lat":52.0,"lng":115.66667},{"id":101414,"name":"Smolenka","lat":52.13523,"lng":113.4974},{"id":101548,"name":"Sretensk","lat":52.2478,"lng":117.70835},{"id":101549,"name":"Sretenskiy Rayon","lat":52.33333,"lng":117.83333},{"id":101771,"name":"Tarbagatay","lat":51.17559,"lng":109.09484},{"id":102045,"name":"Uletovskiy Rayon","lat":51.0,"lng":112.0},{"id":102046,"name":"Ulety","lat":51.35589,"lng":112.4843},{"id":102128,"name":"Ust’-Karsk","lat":52.70206,"lng":118.80163},{"id":102235,"name":"Verkh-Usugli","lat":52.7,"lng":115.16667},{"id":102285,"name":"Vershino-Darasunskiy","lat":52.36604,"lng":115.52661},{"id":102286,"name":"Vershino-Shakhtaminskiy","lat":51.30024,"lng":117.88762},{"id":102624,"name":"Zabaykal’sk","lat":49.6513,"lng":117.32557},{"id":102733,"name":"Zhireken","lat":52.82657,"lng":117.30725}]