[{"id":97489,"name":"Abramovka","lat":51.1886,"lng":41.0202},{"id":97633,"name":"Anna","lat":51.4842,"lng":40.4299},{"id":97637,"name":"Anninskiy Rayon","lat":51.41667,"lng":40.25},{"id":97855,"name":"Belogor’ye","lat":50.4904,"lng":40.0095},{"id":97955,"name":"Bobrov","lat":51.09611,"lng":40.03333},{"id":97959,"name":"Bobrovskiy Rayon","lat":51.25,"lng":40.0},{"id":97983,"name":"Boguchar","lat":49.93577,"lng":40.545},{"id":98024,"name":"Borisoglebsk","lat":51.36713,"lng":42.08494},{"id":98088,"name":"Buturlinovka","lat":50.82389,"lng":40.60917},{"id":98089,"name":"Buturlinovskiy Rayon","lat":50.83333,"lng":40.66667},{"id":98251,"name":"Davydovka","lat":51.15781,"lng":39.42915},{"id":98271,"name":"Devitsa","lat":51.6352,"lng":38.945},{"id":98324,"name":"Drakino","lat":51.13898,"lng":39.40215},{"id":98401,"name":"Ertil’","lat":51.84056,"lng":40.80556},{"id":98402,"name":"Ertil’skiy Rayon","lat":51.75,"lng":40.75},{"id":98587,"name":"Gribanovskiy","lat":51.45792,"lng":41.97637},{"id":98588,"name":"Gribanovskiy Rayon","lat":51.5,"lng":42.0},{"id":98664,"name":"Imeni Pervogo Maya","lat":50.88997,"lng":39.5919},{"id":98778,"name":"Kalach","lat":50.4258,"lng":41.0261},{"id":98810,"name":"Kamenka","lat":51.3223,"lng":42.7678},{"id":98822,"name":"Kamenskiy Rayon","lat":51.31667,"lng":42.76667},{"id":98846,"name":"Kantemirovka","lat":49.70887,"lng":39.85922},{"id":98894,"name":"Kashirskiy Rayon","lat":51.41667,"lng":39.61667},{"id":98895,"name":"Kashirskoye","lat":51.41945,"lng":39.61248},{"id":99014,"name":"Khrenovoye","lat":51.12,"lng":40.28889},{"id":99139,"name":"Kolodeznyy","lat":51.33333,"lng":39.18333},{"id":99217,"name":"Korotoyak","lat":50.98665,"lng":39.17677},{"id":99267,"name":"Kozlovka","lat":50.86222,"lng":40.45556},{"id":99327,"name":"Krasnolesnyy","lat":51.88072,"lng":39.58772},{"id":99546,"name":"Latnaya","lat":51.6586,"lng":38.9011},{"id":99637,"name":"Liski","lat":50.98405,"lng":39.51545},{"id":99638,"name":"Liskinskiy Rayon","lat":50.91667,"lng":39.5},{"id":99665,"name":"Losevo","lat":50.67667,"lng":40.045},{"id":99811,"name":"Maslovka","lat":51.55346,"lng":39.23573},{"id":99932,"name":"Mitrofanovka","lat":49.97083,"lng":39.69389},{"id":100151,"name":"Nizhnedevitsk","lat":51.5419,"lng":38.3657},{"id":100152,"name":"Nizhnedevitskiy Rayon","lat":51.5,"lng":38.41667},{"id":100168,"name":"Nizhniy Kislyay","lat":50.8497,"lng":40.1719},{"id":100172,"name":"Nizhniy Mamon","lat":50.1937,"lng":40.5083},{"id":100202,"name":"Novaya Chigla","lat":51.22333,"lng":40.47806},{"id":100211,"name":"Novaya Usman’","lat":51.64177,"lng":39.40863},{"id":100249,"name":"Novokhopërsk","lat":51.0969,"lng":41.6252},{"id":100248,"name":"Novokhoperskiy Rayon","lat":51.08333,"lng":41.58333},{"id":100323,"name":"Novousmanskiy Rayon","lat":51.58333,"lng":39.41667},{"id":100329,"name":"Novovoronezh","lat":51.30719,"lng":39.21732},{"id":100336,"name":"Novozhivotinnoye","lat":51.8877,"lng":39.16894},{"id":100437,"name":"Ol’khovatka","lat":50.28308,"lng":39.28715},{"id":100438,"name":"Ol’khovatskiy Rayon","lat":50.25,"lng":39.25},{"id":100472,"name":"Orlovo","lat":51.75397,"lng":39.58731},{"id":100495,"name":"Ostrogozhsk","lat":50.8664,"lng":39.07561},{"id":100535,"name":"Panino","lat":51.6467,"lng":40.1346},{"id":100536,"name":"Paninskiy Rayon","lat":51.66667,"lng":40.16667},{"id":100572,"name":"Pavlovsk","lat":50.45778,"lng":40.10806},{"id":100580,"name":"Pavlovskiy Rayon","lat":50.41667,"lng":40.16667},{"id":100598,"name":"Pereleshino","lat":51.7376,"lng":40.1388},{"id":100599,"name":"Pereleshinskiy","lat":51.7148,"lng":40.1953},{"id":100713,"name":"Podgorenskiy","lat":50.40498,"lng":39.64295},{"id":100714,"name":"Podgorenskiy Rayon","lat":50.5,"lng":39.58333},{"id":100716,"name":"Podgornoye","lat":51.73504,"lng":39.14961},{"id":100719,"name":"Podkletnoye","lat":51.58993,"lng":39.4623},{"id":100794,"name":"Povorino","lat":51.1945,"lng":42.2457},{"id":100795,"name":"Povorinskiy Rayon","lat":51.18333,"lng":42.2},{"id":100818,"name":"Pridonskoy","lat":51.68406,"lng":39.0727},{"id":100940,"name":"Ramon’","lat":51.91569,"lng":39.33609},{"id":100939,"name":"Ramonskiy Rayon","lat":51.91667,"lng":39.33333},{"id":100963,"name":"Rep’yevskiy Rayon","lat":51.16667,"lng":38.66667},{"id":101004,"name":"Rossosh’","lat":51.1209,"lng":38.5116},{"id":101003,"name":"Rossoshanskiy Rayon","lat":50.16667,"lng":39.58333},{"id":101064,"name":"Sadovoye","lat":51.53111,"lng":40.50194},{"id":101165,"name":"Semiluki","lat":51.68525,"lng":39.02787},{"id":101166,"name":"Semilukskiy Rayon","lat":51.66667,"lng":39.0},{"id":101316,"name":"Shilovo","lat":51.54583,"lng":39.08917},{"id":101407,"name":"Sloboda","lat":51.1421,"lng":40.3021},{"id":101475,"name":"Somovo","lat":51.74098,"lng":39.36655},{"id":101546,"name":"Sredniy Ikorets","lat":51.06749,"lng":39.75838},{"id":101625,"name":"Strelitsa","lat":51.6083,"lng":38.9102},{"id":101755,"name":"Talovaya","lat":51.11444,"lng":40.73},{"id":101834,"name":"Ternovka","lat":51.67803,"lng":41.6375},{"id":101835,"name":"Ternovskiy Rayon","lat":51.66667,"lng":41.25},{"id":102039,"name":"Uglyanets","lat":51.81908,"lng":39.59606},{"id":102093,"name":"Uryv-Pokrovka","lat":51.1159,"lng":39.16394},{"id":102256,"name":"Verkhniy Mamon","lat":50.1635,"lng":40.3832},{"id":102267,"name":"Verkhnyaya Khava","lat":51.84045,"lng":39.94134},{"id":102273,"name":"Verkhnyaya Tishanka","lat":51.32389,"lng":40.53278},{"id":102368,"name":"Volya","lat":51.7651,"lng":39.5404},{"id":102378,"name":"Vorob’yevskiy Rayon","lat":50.65,"lng":40.93333},{"id":102380,"name":"Voronezh","lat":51.67204,"lng":39.1843},{"id":102381,"name":"Vorontsovka","lat":50.6132,"lng":40.3549},{"id":102535,"name":"Yelan’-Koleno","lat":51.1523,"lng":41.2306},{"id":102536,"name":"Yelan’-Kolenovskiy","lat":51.1632,"lng":41.151},{"id":102625,"name":"Zabolotovka","lat":50.27799,"lng":39.31439},{"id":102705,"name":"Zemlyansk","lat":51.9041,"lng":38.7334}]