[{"id":97642,"name":"Antropovo","lat":58.39876,"lng":43.00659},{"id":97643,"name":"Antropovskiy Rayon","lat":58.16667,"lng":43.0},{"id":97978,"name":"Bogovarovo","lat":58.97849,"lng":47.02462},{"id":98090,"name":"Buy","lat":58.48067,"lng":41.53699},{"id":98093,"name":"Buyskiy Rayon","lat":58.5,"lng":41.5},{"id":98203,"name":"Chistyye Bory","lat":58.36472,"lng":41.62778},{"id":98218,"name":"Chukhloma","lat":58.75375,"lng":42.68318},{"id":98450,"name":"Galich","lat":58.37884,"lng":42.34633},{"id":98451,"name":"Galichskiy Rayon","lat":58.33333,"lng":42.25},{"id":98478,"name":"Georgiyevskoye","lat":58.73101,"lng":45.02404},{"id":98773,"name":"Kadyy","lat":57.78704,"lng":43.19029},{"id":98774,"name":"Kadyyskiy Rayon","lat":57.75,"lng":43.25},{"id":99140,"name":"Kologriv","lat":58.82748,"lng":44.31777},{"id":99235,"name":"Kosmynino","lat":57.58183,"lng":40.76434},{"id":99241,"name":"Kostroma","lat":57.76647,"lng":40.92686},{"id":99242,"name":"Kostromskoy Rayon","lat":57.83333,"lng":41.0},{"id":99332,"name":"Krasnosel’skiy Rayon","lat":57.58333,"lng":41.33333},{"id":99354,"name":"Krasnoye-na-Volge","lat":57.51483,"lng":41.239},{"id":99742,"name":"Makar’yev","lat":57.88501,"lng":43.8049},{"id":99785,"name":"Manturovo","lat":58.32889,"lng":44.76406},{"id":99786,"name":"Manturovskiy Rayon","lat":58.25,"lng":44.75},{"id":100107,"name":"Nerekhta","lat":57.45881,"lng":40.57471},{"id":100108,"name":"Nerekhtskiy Rayon","lat":57.41667,"lng":40.75},{"id":100122,"name":"Neya","lat":58.29719,"lng":43.86808},{"id":100123,"name":"Neyskiy Rayon","lat":58.3,"lng":43.9},{"id":100499,"name":"Ostrovskiy Rayon","lat":57.66667,"lng":42.25},{"id":100500,"name":"Ostrovskoye","lat":57.80574,"lng":42.24332},{"id":100545,"name":"Parfen’yevo","lat":58.48396,"lng":43.40876},{"id":100546,"name":"Parfen’yevskiy Rayon","lat":58.66667,"lng":43.5},{"id":100564,"name":"Pavino","lat":59.1139,"lng":46.14142},{"id":100766,"name":"Ponazyrevo","lat":58.35784,"lng":46.31421},{"id":100767,"name":"Ponazyrevskiy Rayon","lat":58.7,"lng":46.31667},{"id":100915,"name":"Pyshchug","lat":58.88726,"lng":45.71341},{"id":101265,"name":"Shar’inskiy Rayon","lat":58.5,"lng":45.58333},{"id":101266,"name":"Shar’ya","lat":58.36909,"lng":45.51558},{"id":101449,"name":"Soligalich","lat":59.0796,"lng":42.28526},{"id":101450,"name":"Soligalichskiy Rayon","lat":59.0,"lng":42.25},{"id":101642,"name":"Sudislavl’","lat":57.88175,"lng":41.70829},{"id":101643,"name":"Sudislavskiy Rayon","lat":57.83333,"lng":41.66667},{"id":101682,"name":"Susanino","lat":58.14881,"lng":41.59483},{"id":102296,"name":"Vetluzhskiy","lat":58.39016,"lng":45.46543},{"id":102335,"name":"Vokhma","lat":58.9303,"lng":46.75859},{"id":102336,"name":"Vokhomskiy Rayon","lat":58.91667,"lng":46.58333},{"id":102345,"name":"Volgorechensk","lat":57.43931,"lng":41.15553}]