[{"id":97586,"name":"Aleysk","lat":52.4926,"lng":82.7822},{"id":97587,"name":"Aleyskiy Rayon","lat":52.41667,"lng":82.75},{"id":97603,"name":"Altayskoye","lat":51.95333,"lng":85.3325},{"id":97641,"name":"Anton’yevka","lat":51.9961,"lng":83.974},{"id":97726,"name":"Aya","lat":51.94532,"lng":85.80168},{"id":97795,"name":"Barnaul","lat":53.36056,"lng":83.76361},{"id":97796,"name":"Barnaul Urban Okrug","lat":53.33087,"lng":83.64441},{"id":97808,"name":"Bastan","lat":51.85889,"lng":79.47444},{"id":97823,"name":"Bayevo","lat":53.27065,"lng":80.77921},{"id":97827,"name":"Bayunovskiye Klyuchi","lat":53.32806,"lng":84.18222},{"id":97856,"name":"Belokurikha","lat":51.9959,"lng":84.9896},{"id":97868,"name":"Beloyarsk","lat":53.4461,"lng":83.9048},{"id":97905,"name":"Berëzovka","lat":52.35111,"lng":85.82722},{"id":97942,"name":"Biysk","lat":52.53639,"lng":85.20722},{"id":97947,"name":"Blagoveshchenka","lat":52.83333,"lng":79.86667},{"id":97956,"name":"Bobrovka","lat":53.18361,"lng":83.87639},{"id":98036,"name":"Borovikha","lat":53.5072,"lng":83.8379},{"id":98082,"name":"Burla","lat":53.3362,"lng":78.3301},{"id":98102,"name":"Bystryanka","lat":52.28611,"lng":85.82833},{"id":98103,"name":"Bystryy Istok","lat":52.371,"lng":84.3873},{"id":98120,"name":"Charyshskoye","lat":51.3978,"lng":83.5598},{"id":98149,"name":"Cheremnoye","lat":53.16972,"lng":83.21333},{"id":98454,"name":"Gal’bshtadt","lat":53.2264,"lng":78.9845},{"id":98515,"name":"Gon’ba","lat":53.4172,"lng":83.5747},{"id":98537,"name":"Gornyak","lat":50.99417,"lng":81.46611},{"id":98590,"name":"Grishkovka","lat":53.1487,"lng":78.751},{"id":98680,"name":"Inya","lat":53.5044,"lng":82.6712},{"id":98796,"name":"Kalmanka","lat":52.89917,"lng":83.54333},{"id":98797,"name":"Kalmanskiy Rayon","lat":53.0,"lng":83.5},{"id":98824,"name":"Kamen’-na-Obi","lat":53.7884,"lng":81.3423},{"id":98950,"name":"Khabarskiy Rayon","lat":53.58333,"lng":79.5},{"id":98951,"name":"Khabary","lat":53.62588,"lng":79.5345},{"id":99111,"name":"Klyuchi","lat":52.25303,"lng":79.16868},{"id":99231,"name":"Kosikha","lat":53.36167,"lng":84.58222},{"id":99232,"name":"Kosikhinskiy Rayon","lat":53.41667,"lng":84.58333},{"id":99311,"name":"Krasnogorskoye","lat":52.2953,"lng":86.1979},{"id":99333,"name":"Krasnoshchekovo","lat":51.67083,"lng":82.72889},{"id":99379,"name":"Krasnyy Yar","lat":52.3575,"lng":85.33806},{"id":99403,"name":"Krutikha","lat":53.9599,"lng":81.2093},{"id":99437,"name":"Kulunda","lat":52.566,"lng":78.9385},{"id":99438,"name":"Kulundinskiy Rayon","lat":52.58333,"lng":79.0},{"id":99481,"name":"Kur’inskiy Rayon","lat":51.41667,"lng":82.41667},{"id":99484,"name":"Kusak","lat":53.2238,"lng":78.9337},{"id":99523,"name":"Kytmanovo","lat":53.4593,"lng":85.4479},{"id":99556,"name":"Lebyazh’ye","lat":53.24361,"lng":83.65333},{"id":99600,"name":"Lesnoye","lat":52.46926,"lng":85.25547},{"id":99650,"name":"Logovskoye","lat":53.4943,"lng":84.2016},{"id":99655,"name":"Loktevskiy Rayon","lat":51.0,"lng":81.58333},{"id":99757,"name":"Malinovoye Ozero","lat":51.67528,"lng":79.7825},{"id":99765,"name":"Malougrenevo","lat":52.5568,"lng":85.33908},{"id":99779,"name":"Mamontovo","lat":52.7055,"lng":81.6244},{"id":99780,"name":"Mamontovskiy Rayon","lat":52.66667,"lng":81.75},{"id":99805,"name":"Martynovo","lat":53.26667,"lng":85.88333},{"id":99902,"name":"Mikhaylovskiy Rayon","lat":51.75,"lng":79.66667},{"id":99906,"name":"Mikhaylovskoye","lat":51.82389,"lng":79.71722},{"id":100047,"name":"Nagornyy","lat":52.7959,"lng":83.5498},{"id":100053,"name":"Nalobikha","lat":53.2009,"lng":84.6},{"id":100064,"name":"Natsional’nyy Rayon Nemetskiy","lat":53.25,"lng":79.0},{"id":100066,"name":"Nauchnyy Gorodok","lat":53.4203,"lng":83.521},{"id":100135,"name":"Nikolayevka","lat":51.92556,"lng":79.41583},{"id":100214,"name":"Novichikha","lat":52.204,"lng":81.3877},{"id":100215,"name":"Novichikhinskiy Rayon","lat":52.16667,"lng":81.41667},{"id":100216,"name":"Novikovo","lat":52.62231,"lng":85.96392},{"id":100224,"name":"Novoaltaysk","lat":53.3917,"lng":83.9363},{"id":100304,"name":"Novosilikatnyy","lat":53.30972,"lng":83.62389},{"id":100318,"name":"Novotyryshkino","lat":52.0833,"lng":84.9089},{"id":100363,"name":"Novyye Zori","lat":53.24778,"lng":83.425},{"id":100538,"name":"Pankrushikha","lat":53.83194,"lng":80.34056},{"id":100539,"name":"Pankrushikhinskiy Rayon","lat":53.83333,"lng":80.33333},{"id":100573,"name":"Pavlovsk","lat":53.31861,"lng":82.98222},{"id":100582,"name":"Pavlovskiy Rayon","lat":53.25,"lng":83.0},{"id":100620,"name":"Pervomayskiy","lat":52.9173,"lng":81.6624},{"id":100623,"name":"Pervomayskiy Rayon","lat":53.41667,"lng":84.08333},{"id":100628,"name":"Pervomayskoye","lat":52.59888,"lng":85.25769},{"id":100655,"name":"Petropavlovskiy Rayon","lat":52.16667,"lng":84.25},{"id":100656,"name":"Petropavlovskoye","lat":52.0712,"lng":84.107},{"id":100732,"name":"Podsosnovo","lat":53.3721,"lng":78.9184},{"id":100786,"name":"Pospelikha","lat":51.95,"lng":81.76667},{"id":100787,"name":"Pospelikhinskiy Rayon","lat":51.83333,"lng":81.66667},{"id":100954,"name":"Rebrikha","lat":53.07333,"lng":82.34083},{"id":100955,"name":"Rebrikhinskiy Rayon","lat":53.0,"lng":82.25},{"id":100973,"name":"Rodino","lat":52.49783,"lng":80.20294},{"id":100974,"name":"Rodinskiy Rayon","lat":52.5,"lng":80.33333},{"id":100989,"name":"Romanovo","lat":52.6182,"lng":81.2271},{"id":100991,"name":"Romanovskiy Rayon","lat":52.58333,"lng":81.16667},{"id":101019,"name":"Rubtsovsk","lat":51.51473,"lng":81.20613},{"id":101020,"name":"Rubtsovskiy Rayon","lat":51.5,"lng":81.33333},{"id":101101,"name":"Sannikovo","lat":53.3448,"lng":83.9749},{"id":101201,"name":"Severka","lat":52.13333,"lng":79.28333},{"id":101236,"name":"Shakhi","lat":53.3361,"lng":83.3624},{"id":101290,"name":"Shelabolikha","lat":53.4131,"lng":82.6167},{"id":101291,"name":"Shelabolikhinskiy Rayon","lat":53.41667,"lng":82.25},{"id":101324,"name":"Shipunovo","lat":52.1582,"lng":82.2173},{"id":101325,"name":"Shipunovskiy Rayon","lat":52.33333,"lng":82.08333},{"id":101342,"name":"Shubenka","lat":52.6551,"lng":85.09858},{"id":101345,"name":"Shul’gin Log","lat":52.16985,"lng":85.85573},{"id":101367,"name":"Sibirskiy","lat":53.5777,"lng":83.7577},{"id":101399,"name":"Slavgorod","lat":52.9978,"lng":78.6449},{"id":101400,"name":"Slavgorodskoye","lat":53.0214,"lng":78.6435},{"id":101417,"name":"Smolenskiy Rayon","lat":52.16667,"lng":84.91667},{"id":101418,"name":"Smolenskoye","lat":52.30447,"lng":85.0785},{"id":101437,"name":"Sokolovo","lat":52.5318,"lng":84.7896},{"id":101464,"name":"Soloneshenskiy Rayon","lat":51.66667,"lng":84.5},{"id":101465,"name":"Soloneshnoye","lat":51.6544,"lng":84.3197},{"id":101468,"name":"Solton","lat":52.8429,"lng":86.4787},{"id":101469,"name":"Soltonskiy Rayon","lat":52.83333,"lng":86.5},{"id":101478,"name":"Sorokino","lat":53.75,"lng":84.91667},{"id":101518,"name":"Sovetskoye","lat":52.28556,"lng":85.41424},{"id":101550,"name":"Srostki","lat":52.4209,"lng":85.69923},{"id":101551,"name":"Stan-Bekhtemir","lat":52.60665,"lng":85.62619},{"id":101571,"name":"Staroaleyskoye","lat":51.00611,"lng":82.0},{"id":101574,"name":"Starobelokurikha","lat":52.05206,"lng":85.08765},{"id":101608,"name":"Staryy Togul","lat":53.4291,"lng":85.9006},{"id":101636,"name":"Stukovo","lat":53.21278,"lng":83.33778},{"id":101722,"name":"Sychëvka","lat":52.0512,"lng":84.7788},{"id":101739,"name":"Tabuny","lat":52.7773,"lng":78.7896},{"id":101757,"name":"Tal’menka","lat":53.8183,"lng":83.5677},{"id":101758,"name":"Tal’menskiy Rayon","lat":53.75,"lng":83.41667},{"id":101870,"name":"Togul","lat":53.467,"lng":85.9128},{"id":101871,"name":"Togul’skiy Rayon","lat":53.66667,"lng":86.08333},{"id":101893,"name":"Topchikha","lat":52.8192,"lng":83.1185},{"id":101896,"name":"Topol’noye","lat":51.5105,"lng":84.4813},{"id":101924,"name":"Troitskoye","lat":52.9822,"lng":84.68},{"id":101940,"name":"Tselinnoye","lat":53.07822,"lng":85.65363},{"id":102006,"name":"Tyumentsevo","lat":53.3224,"lng":81.498},{"id":102007,"name":"Tyumentsevskiy Rayon","lat":53.25,"lng":81.5},{"id":102038,"name":"Uglovskoye","lat":51.3557,"lng":80.1942},{"id":102117,"name":"Ust’-Charyshskaya Pristan’","lat":52.3934,"lng":83.6635},{"id":102120,"name":"Ust’-Isha","lat":52.18201,"lng":85.96757},{"id":102124,"name":"Ust’-Kalmanka","lat":52.1207,"lng":83.305},{"id":102143,"name":"Ust’yanka","lat":53.4527,"lng":78.7425},{"id":102148,"name":"Usyatskoye","lat":52.56806,"lng":85.76085},{"id":102231,"name":"Verkh-Katunskoye","lat":52.45,"lng":85.43162},{"id":102233,"name":"Verkh-Suetka","lat":53.30401,"lng":80.04675},{"id":102251,"name":"Verkhniy Bekhtemir","lat":52.76582,"lng":85.91011},{"id":102287,"name":"Veseloyarsk","lat":51.28737,"lng":81.10703},{"id":102331,"name":"Vlasikha","lat":53.29722,"lng":83.57417},{"id":102340,"name":"Volchikha","lat":52.01356,"lng":80.35715},{"id":102341,"name":"Volchikhinskiy Rayon","lat":52.08333,"lng":80.5},{"id":102504,"name":"Yarovoye","lat":52.9273,"lng":78.58},{"id":102526,"name":"Yegor’yevskiy Rayon","lat":51.75,"lng":81.0},{"id":102552,"name":"Yel’tsovskiy Rayon","lat":53.25,"lng":86.41667},{"id":102618,"name":"Yuzhnyy","lat":53.25417,"lng":83.69361},{"id":102638,"name":"Zalesovo","lat":53.99389,"lng":84.74306},{"id":102658,"name":"Zarinsk","lat":53.7074,"lng":84.9493},{"id":102659,"name":"Zarinskiy Rayon","lat":53.91667,"lng":85.33333},{"id":102662,"name":"Zarya","lat":52.59696,"lng":85.1757},{"id":102667,"name":"Zaton","lat":53.29361,"lng":83.80722},{"id":102682,"name":"Zav’yalovo","lat":52.83805,"lng":80.9197},{"id":102684,"name":"Zav’yalovskiy Rayon","lat":52.91667,"lng":81.0},{"id":102752,"name":"Zmeinogorsk","lat":51.15776,"lng":82.19534},{"id":102769,"name":"Zonal’noye","lat":52.6665,"lng":84.9331},{"id":102776,"name":"Zudilovo","lat":53.4927,"lng":83.8937}]