[{"id":97600,"name":"Alnashi","lat":56.18738,"lng":52.47919},{"id":97778,"name":"Balezino","lat":57.9787,"lng":53.0138},{"id":98254,"name":"Debesy","lat":57.6515,"lng":53.8089},{"id":98411,"name":"Fakel","lat":57.631,"lng":53.0251},{"id":98495,"name":"Glazov","lat":58.1393,"lng":52.658},{"id":98575,"name":"Grakhovo","lat":56.05017,"lng":51.96758},{"id":98634,"name":"Igra","lat":57.5549,"lng":53.0544},{"id":98746,"name":"Izhevsk","lat":56.84976,"lng":53.20448},{"id":98805,"name":"Kama","lat":56.30512,"lng":54.09361},{"id":98806,"name":"Kambarka","lat":56.2666,"lng":54.2056},{"id":98865,"name":"Karakulino","lat":56.012,"lng":53.70669},{"id":98866,"name":"Karakulinskiy Rayon","lat":56.08333,"lng":53.66667},{"id":98947,"name":"Kez","lat":57.8957,"lng":53.7132},{"id":98990,"name":"Khokhryaki","lat":56.91561,"lng":53.3221},{"id":99084,"name":"Kiyasovo","lat":56.34907,"lng":53.12439},{"id":99085,"name":"Kiyasovskiy Rayon","lat":56.33333,"lng":53.16667},{"id":99096,"name":"Kizner","lat":56.27489,"lng":51.508},{"id":99310,"name":"Krasnogorskoye","lat":57.7047,"lng":52.4999},{"id":99751,"name":"Malaya Purga","lat":56.55666,"lng":53.00434},{"id":99764,"name":"Malopurginskiy Rayon","lat":56.55766,"lng":53.03476},{"id":99987,"name":"Mozhga","lat":56.44469,"lng":52.22763},{"id":100682,"name":"Pirogovo","lat":56.77959,"lng":53.14954},{"id":100887,"name":"Pudem","lat":58.3047,"lng":52.1673},{"id":100913,"name":"Pychas","lat":56.50332,"lng":52.44088},{"id":101112,"name":"Sarapul","lat":56.47633,"lng":53.79782},{"id":101113,"name":"Sarapul’skiy Rayon","lat":56.5,"lng":53.75},{"id":101159,"name":"Selty","lat":57.3132,"lng":52.1345},{"id":101261,"name":"Sharkan","lat":57.29885,"lng":53.87122},{"id":101368,"name":"Sigayevo","lat":56.42163,"lng":53.77566},{"id":101734,"name":"Syumsi","lat":57.11108,"lng":51.61494},{"id":102153,"name":"Uva","lat":56.99081,"lng":52.18517},{"id":102206,"name":"Vavozh","lat":56.77513,"lng":51.93098},{"id":102403,"name":"Votkinsk","lat":57.04865,"lng":53.98717},{"id":102489,"name":"Yar","lat":58.2458,"lng":52.1054},{"id":102589,"name":"Yukamenskoye","lat":57.8878,"lng":52.245},{"id":102683,"name":"Zav’yalovskiy Rayon","lat":56.83333,"lng":53.08333}]