[{"id":97875,"name":"Belozërskoye","lat":55.82139,"lng":65.58417},{"id":98236,"name":"Dalmatovo","lat":56.26,"lng":62.9362},{"id":98504,"name":"Glyadyanskoye","lat":54.9075,"lng":65.08833},{"id":98639,"name":"Ikovka","lat":55.60889,"lng":64.9375},{"id":98908,"name":"Kataysk","lat":56.289,"lng":62.5841},{"id":98945,"name":"Ketovo","lat":55.355,"lng":65.32583},{"id":99371,"name":"Krasnyy Oktyabr’","lat":55.65667,"lng":64.81333},{"id":99459,"name":"Kurgan","lat":55.45,"lng":65.33333},{"id":99477,"name":"Kurtamysh","lat":54.91028,"lng":64.43194},{"id":99557,"name":"Lebyazh’ye","lat":55.26889,"lng":66.49472},{"id":99558,"name":"Lebyazh’yevskiy Rayon","lat":55.33333,"lng":66.5},{"id":99592,"name":"Lesnikovo","lat":55.28222,"lng":65.3175},{"id":99748,"name":"Makushino","lat":55.21028,"lng":67.24417},{"id":99929,"name":"Mishkino","lat":55.33889,"lng":63.9175},{"id":99944,"name":"Mokrousovo","lat":55.81028,"lng":66.76528},{"id":99945,"name":"Mokrousovskiy Rayon","lat":55.75,"lng":67.0},{"id":100666,"name":"Petukhovo","lat":55.06917,"lng":67.90194},{"id":100758,"name":"Polovinnoye","lat":54.79139,"lng":65.98639},{"id":100870,"name":"Prosvet","lat":55.57028,"lng":65.0825},{"id":101067,"name":"Safakulevo","lat":54.9901,"lng":62.5442},{"id":101068,"name":"Safakulevskiy Rayon","lat":54.91667,"lng":62.5},{"id":101233,"name":"Shadrinsk","lat":56.0852,"lng":63.6335},{"id":101270,"name":"Shatrovo","lat":56.5197,"lng":64.632},{"id":101349,"name":"Shumikha","lat":55.22611,"lng":63.29611},{"id":101351,"name":"Shumikhinskiy Rayon","lat":55.25,"lng":63.25},{"id":101939,"name":"Tselinnoye","lat":54.50111,"lng":63.67361},{"id":102189,"name":"Vargashi","lat":55.35556,"lng":65.84667},{"id":102190,"name":"Vargashinskiy Rayon","lat":55.33333,"lng":65.91667},{"id":102418,"name":"Vvedenskoye","lat":55.47426,"lng":65.08449},{"id":102594,"name":"Yurgamysh","lat":55.37454,"lng":64.46222},{"id":102782,"name":"Zverinogolovskoye","lat":54.45397,"lng":64.85242}]