[{"id":76417,"name":"Bandar Labuan","lat":5.28883,"lng":115.26924},{"id":76425,"name":"Beaufort","lat":5.3473,"lng":115.7455},{"id":76446,"name":"Donggongon","lat":5.90702,"lng":116.10146},{"id":76481,"name":"Keningau","lat":5.3378,"lng":116.1602},{"id":76484,"name":"Kinarut","lat":5.8231,"lng":116.0466},{"id":76488,"name":"Kota Belud","lat":6.351,"lng":116.4305},{"id":76490,"name":"Kota Kinabalu","lat":5.9749,"lng":116.0724},{"id":76507,"name":"Kudat","lat":6.88732,"lng":116.82364},{"id":76513,"name":"Lahad Datu","lat":5.02298,"lng":118.32897},{"id":76533,"name":"Papar","lat":5.73333,"lng":115.93333},{"id":76547,"name":"Putatan","lat":5.9258,"lng":116.06094},{"id":76550,"name":"Ranau","lat":5.9538,"lng":116.6641},{"id":76553,"name":"Sandakan","lat":5.8402,"lng":118.1179},{"id":76558,"name":"Semporna","lat":4.48178,"lng":118.61119},{"id":76572,"name":"Taman Rajawali","lat":5.89477,"lng":118.04576},{"id":76581,"name":"Tawau","lat":4.24482,"lng":117.89115}]