[{"id":76430,"name":"Bintulu","lat":3.16667,"lng":113.03333},{"id":76445,"name":"Data Kakus","lat":2.65465,"lng":113.62249},{"id":76479,"name":"Kapit","lat":1.99546,"lng":112.93254},{"id":76506,"name":"Kuching","lat":1.55,"lng":110.33333},{"id":76515,"name":"Lawas","lat":4.8604,"lng":115.409},{"id":76516,"name":"Lidung Jelo","lat":2.64848,"lng":114.78653},{"id":76517,"name":"Limbang","lat":4.75,"lng":115.0},{"id":76518,"name":"Long Ampan Aing or Abanang","lat":2.65671,"lng":114.73675},{"id":76522,"name":"Marudi","lat":4.18333,"lng":114.31667},{"id":76525,"name":"Miri","lat":4.39928,"lng":113.99163},{"id":76527,"name":"Mukah","lat":2.89435,"lng":112.09145},{"id":76554,"name":"Sarikei","lat":2.11667,"lng":111.51667},{"id":76562,"name":"Sibu","lat":2.3,"lng":111.81667},{"id":76563,"name":"Simanggang","lat":1.24722,"lng":111.45278}]