[{"id":76410,"name":"Alor Setar","lat":6.12104,"lng":100.36014},{"id":76412,"name":"Ayer Hangat","lat":6.42062,"lng":99.82199},{"id":76426,"name":"Bedong","lat":5.72743,"lng":100.50876},{"id":76449,"name":"Gurun","lat":5.81717,"lng":100.47381},{"id":76454,"name":"Jitra","lat":6.26812,"lng":100.42167},{"id":76470,"name":"Kampung Kilim","lat":6.4055,"lng":99.8502},{"id":76471,"name":"Kampung Kok","lat":6.36759,"lng":99.68252},{"id":76492,"name":"Kuah","lat":6.32649,"lng":99.8432},{"id":76495,"name":"Kuala Kedah","lat":6.1,"lng":100.3},{"id":76503,"name":"Kuala Teriang","lat":6.36377,"lng":99.71532},{"id":76509,"name":"Kulim","lat":5.36499,"lng":100.56177},{"id":76514,"name":"Langkawi","lat":6.35608,"lng":99.78375},{"id":76529,"name":"Padang Mat Sirat","lat":6.35423,"lng":99.73404},{"id":76569,"name":"Sungai Petani","lat":5.647,"lng":100.48772}]