[{"id":76415,"name":"Bahau","lat":2.8079,"lng":102.4049},{"id":76465,"name":"Kampung Baharu Nilai","lat":2.8033,"lng":101.7972},{"id":76499,"name":"Kuala Pilah","lat":2.7389,"lng":102.2487},{"id":76545,"name":"Port Dickson","lat":2.53718,"lng":101.80571},{"id":76559,"name":"Seremban","lat":2.7297,"lng":101.9381},{"id":76574,"name":"Tampin","lat":2.4701,"lng":102.2302}]