[{"id":131402,"name":"Beitbridge","lat":-22.21667,"lng":30.0},{"id":131403,"name":"Beitbridge District","lat":-21.89829,"lng":30.07409},{"id":131432,"name":"Esigodini","lat":-20.28979,"lng":28.92261},{"id":131433,"name":"Filabusi","lat":-20.53333,"lng":29.28502},{"id":131439,"name":"Gwanda","lat":-20.93622,"lng":29.00698},{"id":131440,"name":"Gwanda District","lat":-21.20929,"lng":29.17557},{"id":131448,"name":"Insiza","lat":-19.78333,"lng":29.2},{"id":131449,"name":"Insiza District","lat":-20.26431,"lng":29.47392},{"id":131465,"name":"Mangwe","lat":-20.95545,"lng":27.98292},{"id":131471,"name":"Matobo","lat":-20.95545,"lng":28.49463},{"id":131494,"name":"Plumtree","lat":-20.48333,"lng":27.81667},{"id":131505,"name":"Umzingwane","lat":-20.34704,"lng":28.94994}]