[{"id":131347,"name":"Kalabo","lat":-14.99307,"lng":22.67926},{"id":131351,"name":"Kaoma","lat":-14.78333,"lng":24.8},{"id":131359,"name":"Limulunga","lat":-15.09691,"lng":23.13757},{"id":131363,"name":"Lukulu","lat":-14.37067,"lng":23.24196},{"id":131372,"name":"Mongu","lat":-15.24835,"lng":23.12741},{"id":131392,"name":"Senanga","lat":-16.11667,"lng":23.26667},{"id":131394,"name":"Sesheke","lat":-17.47593,"lng":24.29684}]