[{"id":131331,"name":"Chambishi","lat":-12.63247,"lng":28.05367},{"id":131334,"name":"Chililabombwe","lat":-12.36475,"lng":27.82286},{"id":131335,"name":"Chingola","lat":-12.52897,"lng":27.88382},{"id":131336,"name":"Chingola District","lat":-12.48478,"lng":27.66313},{"id":131349,"name":"Kalulushi","lat":-12.84151,"lng":28.09479},{"id":131356,"name":"Kataba","lat":-11.88333,"lng":29.78333},{"id":131358,"name":"Kitwe","lat":-12.80243,"lng":28.21323},{"id":131362,"name":"Luanshya","lat":-13.13667,"lng":28.41661},{"id":131375,"name":"Mpongwe","lat":-13.50914,"lng":28.15504},{"id":131378,"name":"Mufulira","lat":-12.54982,"lng":28.24071},{"id":131388,"name":"Ndola","lat":-12.95867,"lng":28.63659}]