[{"id":131332,"name":"Chibombo","lat":-14.65685,"lng":28.07057},{"id":131333,"name":"Chibombo District","lat":-14.65808,"lng":28.07376},{"id":131345,"name":"Kabwe","lat":-14.4469,"lng":28.44644},{"id":131352,"name":"Kapiri Mposhi","lat":-13.97147,"lng":28.66985},{"id":131371,"name":"Mkushi","lat":-13.62015,"lng":29.3939},{"id":131380,"name":"Mumbwa","lat":-14.98293,"lng":27.0619},{"id":131393,"name":"Serenje","lat":-13.23251,"lng":30.23522}]