[{"id":131357,"name":"Kawambwa","lat":-9.7915,"lng":29.07913},{"id":131368,"name":"Mansa","lat":-11.19976,"lng":28.89431},{"id":131382,"name":"Mwense","lat":-10.38447,"lng":28.698},{"id":131387,"name":"Nchelenge","lat":-9.34506,"lng":28.73396},{"id":131391,"name":"Samfya","lat":-11.36491,"lng":29.55652}]