[{"id":131339,"name":"Choma","lat":-16.80889,"lng":26.9875},{"id":131341,"name":"Gwembe","lat":-16.49755,"lng":27.60691},{"id":131343,"name":"Itezhi-Tezhi","lat":-15.74092,"lng":26.04146},{"id":131360,"name":"Livingstone","lat":-17.84194,"lng":25.85425},{"id":131367,"name":"Maamba","lat":-17.36667,"lng":27.15},{"id":131369,"name":"Mazabuka","lat":-15.85601,"lng":27.748},{"id":131373,"name":"Monze","lat":-16.28333,"lng":27.48333},{"id":131384,"name":"Nakambala","lat":-15.83244,"lng":27.77994},{"id":131386,"name":"Namwala","lat":-15.75042,"lng":26.43839},{"id":131395,"name":"Siavonga","lat":-16.53818,"lng":28.70876},{"id":131396,"name":"Siavonga District","lat":-16.26742,"lng":28.55036},{"id":131397,"name":"Sinazongwe","lat":-17.2614,"lng":27.46179}]