[{"id":131329,"name":"Chadiza","lat":-14.06779,"lng":32.43917},{"id":131338,"name":"Chipata","lat":-13.63333,"lng":32.65},{"id":131364,"name":"Lundazi","lat":-12.29292,"lng":33.1782},{"id":131389,"name":"Nyimba","lat":-14.55656,"lng":30.8149},{"id":131390,"name":"Petauke","lat":-14.24117,"lng":31.31975}]