[{"id":10066,"name":"Abreu e Lima","lat":-7.86865,"lng":-35.08171},{"id":10085,"name":"Afogados da Ingazeira","lat":-7.72298,"lng":-37.61781},{"id":10089,"name":"Afrânio","lat":-8.62589,"lng":-41.05768},{"id":10091,"name":"Agrestina","lat":-8.45191,"lng":-35.93238},{"id":15663,"name":"Água Preta","lat":-8.7075,"lng":-35.53056},{"id":15665,"name":"Águas Belas","lat":-9.11139,"lng":-37.12306},{"id":10111,"name":"Alagoinha","lat":-8.53497,"lng":-36.75607},{"id":10137,"name":"Aliança","lat":-7.59698,"lng":-35.16536},{"id":10158,"name":"Altinho","lat":-8.45151,"lng":-36.08155},{"id":10206,"name":"Amaraji","lat":-8.37192,"lng":-35.48991},{"id":10250,"name":"Angelim","lat":-8.89154,"lng":-36.27674},{"id":10370,"name":"Araçoiaba","lat":-7.79387,"lng":-35.07645},{"id":10355,"name":"Araripina","lat":-7.57611,"lng":-40.49833},{"id":10379,"name":"Arcoverde","lat":-8.41889,"lng":-37.05389},{"id":10524,"name":"Barra de Guabiraba","lat":-8.3945,"lng":-35.62054},{"id":10556,"name":"Barreiros","lat":-8.81833,"lng":-35.18639},{"id":10617,"name":"Belém de Maria","lat":-8.57849,"lng":-35.82495},{"id":10618,"name":"Belém de São Francisco","lat":-8.75389,"lng":-38.96583},{"id":10621,"name":"Belém do São Francisco","lat":-8.53386,"lng":-38.98166},{"id":10608,"name":"Belo Jardim","lat":-8.33556,"lng":-36.42417},{"id":10643,"name":"Betânia","lat":-8.28789,"lng":-37.97622},{"id":10645,"name":"Bezerros","lat":-8.23333,"lng":-35.79694},{"id":10685,"name":"Bodocó","lat":-7.78881,"lng":-39.95255},{"id":10690,"name":"Bom Conselho","lat":-9.16972,"lng":-36.67972},{"id":10692,"name":"Bom Jardim","lat":-7.79583,"lng":-35.58722},{"id":10736,"name":"Bonito","lat":-8.47028,"lng":-35.72861},{"id":10799,"name":"Brejão","lat":-9.036,"lng":-36.56056},{"id":10786,"name":"Brejinho","lat":-7.34462,"lng":-37.33463},{"id":10793,"name":"Brejo da Madre de Deus","lat":-8.14583,"lng":-36.37111},{"id":10815,"name":"Buenos Aires","lat":-7.72,"lng":-35.32},{"id":10839,"name":"Buíque","lat":-8.62306,"lng":-37.15583},{"id":10852,"name":"Cabo","lat":-8.28333,"lng":-35.03333},{"id":10855,"name":"Cabo de Santo Agostinho","lat":-8.27727,"lng":-35.0909},{"id":10857,"name":"Cabrobó","lat":-8.51417,"lng":-39.31},{"id":10876,"name":"Cachoeirinha","lat":-8.48639,"lng":-36.23306},{"id":10892,"name":"Caetés","lat":-8.77306,"lng":-36.6225},{"id":10932,"name":"Calçado","lat":-8.7358,"lng":-36.33149},{"id":10931,"name":"Calumbi","lat":-8.0191,"lng":-38.09799},{"id":10941,"name":"Camaragibe","lat":-7.9878,"lng":-34.99136},{"id":10954,"name":"Camocim de São Félix","lat":-8.35861,"lng":-35.76194},{"id":11020,"name":"Camutanga","lat":-7.43515,"lng":-35.30172},{"id":11045,"name":"Canhotinho","lat":-8.88222,"lng":-36.19111},{"id":11092,"name":"Capoeiras","lat":-8.73472,"lng":-36.62667},{"id":11157,"name":"Carnaíba","lat":-8.7,"lng":-37.66667},{"id":11156,"name":"Carnaubeira da Penha","lat":-8.42648,"lng":-38.76523},{"id":11162,"name":"Carpina","lat":-7.85083,"lng":-35.25472},{"id":11166,"name":"Caruaru","lat":-8.17924,"lng":-36.02794},{"id":11181,"name":"Casinhas","lat":-7.75811,"lng":-35.69922},{"id":11201,"name":"Catende","lat":-8.66667,"lng":-35.71667},{"id":11231,"name":"Cedro","lat":-7.71879,"lng":-39.23334},{"id":11288,"name":"Chã de Alegria","lat":-7.99013,"lng":-35.18974},{"id":11286,"name":"Chã Grande","lat":-8.23833,"lng":-35.46167},{"id":11335,"name":"Colônia Leopoldina","lat":-8.90889,"lng":-35.725},{"id":11369,"name":"Condado","lat":-7.58583,"lng":-35.10583},{"id":11435,"name":"Correntes","lat":-9.13378,"lng":-36.32033},{"id":11437,"name":"Cortês","lat":-8.44254,"lng":-35.53378},{"id":11513,"name":"Cumaru","lat":-8.00611,"lng":-35.69722},{"id":11520,"name":"Cupira","lat":-8.61667,"lng":-35.95},{"id":11540,"name":"Custódia","lat":-8.12882,"lng":-37.66208},{"id":11649,"name":"Dormentes","lat":-8.4302,"lng":-40.59717},{"id":11724,"name":"Escada","lat":-8.35917,"lng":-35.22361},{"id":11769,"name":"Exu","lat":-7.51194,"lng":-39.72417},{"id":11790,"name":"Feira Nova","lat":-7.93474,"lng":-35.39248},{"id":11807,"name":"Fernando de Noronha","lat":-3.85071,"lng":-32.41997},{"id":11808,"name":"Fernando de Noronha (Distrito Estadual)","lat":-3.84028,"lng":-32.41083},{"id":11813,"name":"Ferreiros","lat":-7.48644,"lng":-35.19997},{"id":11830,"name":"Flores","lat":-7.86806,"lng":-37.97472},{"id":11834,"name":"Floresta","lat":-8.60111,"lng":-38.56861},{"id":11895,"name":"Frei Miguelinho","lat":-7.94208,"lng":-35.89073},{"id":11915,"name":"Gameleira","lat":-8.58444,"lng":-35.38667},{"id":11919,"name":"Garanhuns","lat":-8.88202,"lng":-36.50216},{"id":11953,"name":"Glória do Goitá","lat":-8.03865,"lng":-35.34006},{"id":11957,"name":"Goiana","lat":-7.56056,"lng":-35.0025},{"id":11997,"name":"Granito","lat":-7.7438,"lng":-39.64021},{"id":12002,"name":"Gravatá","lat":-8.20111,"lng":-35.56472},{"id":12011,"name":"Guabiraba","lat":-8.41667,"lng":-35.66667},{"id":12118,"name":"Iati","lat":-9.19129,"lng":-36.94946},{"id":12139,"name":"Ibimirim","lat":-8.54056,"lng":-37.69028},{"id":12147,"name":"Ibirajuba","lat":-8.6129,"lng":-36.15399},{"id":12188,"name":"Igarassu","lat":-7.83417,"lng":-34.90639},{"id":12197,"name":"Iguaraci","lat":-7.84183,"lng":-37.40822},{"id":12211,"name":"Ilha de Itamaracá","lat":-7.74665,"lng":-34.84728},{"id":12228,"name":"Inajá","lat":-8.78778,"lng":-37.78853},{"id":12243,"name":"Ingazeira","lat":-7.71728,"lng":-37.42461},{"id":12283,"name":"Ipojuca","lat":-8.39889,"lng":-35.06389},{"id":12290,"name":"Ipubi","lat":-7.65194,"lng":-40.14889},{"id":12344,"name":"Itacuruba","lat":-8.76952,"lng":-38.71917},{"id":12467,"name":"Itaíba","lat":-8.9475,"lng":-37.42278},{"id":12375,"name":"Itamaracá","lat":-7.74778,"lng":-34.82556},{"id":12385,"name":"Itambé","lat":-7.44733,"lng":-35.17356},{"id":12412,"name":"Itapetim","lat":-7.39642,"lng":-37.13113},{"id":12426,"name":"Itapissuma","lat":-7.77639,"lng":-34.89222},{"id":12446,"name":"Itaquitinga","lat":-7.66778,"lng":-35.10167},{"id":12508,"name":"Jaboatão","lat":-8.18028,"lng":-35.00139},{"id":12509,"name":"Jaboatão dos Guararapes","lat":-8.14568,"lng":-34.97381},{"id":12577,"name":"Jaqueira","lat":-8.7388,"lng":-35.7985},{"id":12599,"name":"Jataúba","lat":-8.05299,"lng":-36.57103},{"id":12602,"name":"Jatobá","lat":-9.18306,"lng":-38.26889},{"id":12657,"name":"João Alfredo","lat":-7.85583,"lng":-35.58833},{"id":12638,"name":"Joaquim Nabuco","lat":-8.62444,"lng":-35.53333},{"id":12676,"name":"Jucati","lat":-8.75067,"lng":-36.4775},{"id":12690,"name":"Jupi","lat":-8.71547,"lng":-36.39397},{"id":12697,"name":"Jurema","lat":-8.78579,"lng":-36.13364},{"id":12753,"name":"Lagoa de Itaenga","lat":-7.90293,"lng":-35.29323},{"id":12758,"name":"Lagoa do Carro","lat":-7.85419,"lng":-35.33637},{"id":12759,"name":"Lagoa do Itaenga","lat":-7.93611,"lng":-35.29028},{"id":12761,"name":"Lagoa do Ouro","lat":-9.16636,"lng":-36.48221},{"id":12765,"name":"Lagoa dos Gatos","lat":-8.67965,"lng":-35.88979},{"id":12738,"name":"Lagoa Grande","lat":-8.78698,"lng":-40.25356},{"id":12781,"name":"Lajedo","lat":-8.66361,"lng":-36.32},{"id":12831,"name":"Limoeiro","lat":-7.85092,"lng":-35.44512},{"id":12886,"name":"Macaparana","lat":-7.52866,"lng":-35.4443},{"id":12901,"name":"Machados","lat":-7.71477,"lng":-35.51882},{"id":12938,"name":"Manari","lat":-8.88175,"lng":-37.5876},{"id":12975,"name":"Maraial","lat":-8.7825,"lng":-35.80889},{"id":13140,"name":"Mirandiba","lat":-8.13454,"lng":-38.74089},{"id":13230,"name":"Moreilândia","lat":-7.63092,"lng":-39.52167},{"id":13232,"name":"Moreno","lat":-8.11861,"lng":-35.09222},{"id":13313,"name":"Nazaré da Mata","lat":-7.74167,"lng":-35.22778},{"id":13502,"name":"Olinda","lat":-8.00889,"lng":-34.85528},{"id":13523,"name":"Orobó","lat":-7.745,"lng":-35.60222},{"id":13524,"name":"Orocó","lat":-8.49405,"lng":-39.5779},{"id":13532,"name":"Ouricuri","lat":-7.8825,"lng":-40.08167},{"id":13583,"name":"Palmares","lat":-8.68333,"lng":-35.59167},{"id":13600,"name":"Palmeirina","lat":-9.02961,"lng":-36.24198},{"id":13615,"name":"Panelas","lat":-8.66651,"lng":-36.04783},{"id":13642,"name":"Paranatama","lat":-8.89811,"lng":-36.68199},{"id":13679,"name":"Parnamirim","lat":-8.09056,"lng":-39.57833},{"id":13695,"name":"Passira","lat":-7.995,"lng":-35.58056},{"id":13719,"name":"Paudalho","lat":-7.94302,"lng":-35.13559},{"id":13725,"name":"Paulista","lat":-7.94083,"lng":-34.87306},{"id":13745,"name":"Pedra","lat":-8.49694,"lng":-36.94083},{"id":13816,"name":"Pesqueira","lat":-8.35778,"lng":-36.69639},{"id":13819,"name":"Petrolândia","lat":-8.84265,"lng":-38.30348},{"id":13817,"name":"Petrolina","lat":-9.39861,"lng":-40.50083},{"id":14054,"name":"Poção","lat":-8.21385,"lng":-36.72266},{"id":13952,"name":"Pombos","lat":-8.22536,"lng":-35.41692},{"id":14101,"name":"Primavera","lat":-8.33678,"lng":-35.37539},{"id":14153,"name":"Quipapá","lat":-8.82778,"lng":-36.01167},{"id":14159,"name":"Quixaba","lat":-7.72105,"lng":-37.87276},{"id":14179,"name":"Recife","lat":-8.05389,"lng":-34.88111},{"id":14212,"name":"Riacho das Almas","lat":-8.05397,"lng":-35.82633},{"id":14236,"name":"Ribeirão","lat":-8.50755,"lng":-35.39342},{"id":14274,"name":"Rio Formoso","lat":-8.66877,"lng":-35.16277},{"id":14375,"name":"Sairé","lat":-8.30128,"lng":-35.68372},{"id":14381,"name":"Salgadinho","lat":-7.92406,"lng":-35.59677},{"id":14386,"name":"Salgueiro","lat":-8.07417,"lng":-39.11917},{"id":14392,"name":"Saloá","lat":-9.06487,"lng":-36.76158},{"id":14415,"name":"Sanharó","lat":-8.29191,"lng":-36.52169},{"id":14439,"name":"Santa Cruz","lat":-8.30615,"lng":-40.3189},{"id":14442,"name":"Santa Cruz da Baixa Verde","lat":-7.84821,"lng":-38.15341},{"id":14452,"name":"Santa Cruz do Capibaribe","lat":-7.9575,"lng":-36.20472},{"id":14462,"name":"Santa Filomena","lat":-8.28797,"lng":-40.59304},{"id":14505,"name":"Santa Maria da Boa Vista","lat":-8.80778,"lng":-39.82556},{"id":14511,"name":"Santa Maria do Cambucá","lat":-7.81441,"lng":-35.88175},{"id":14558,"name":"Santa Terezinha","lat":-7.42664,"lng":-37.44422},{"id":14833,"name":"São Benedito do Sul","lat":-8.77212,"lng":-35.90168},{"id":14843,"name":"São Bento do Una","lat":-8.53733,"lng":-36.48122},{"id":14854,"name":"São Caitano","lat":-8.33931,"lng":-36.16156},{"id":14999,"name":"São João","lat":-8.86322,"lng":-36.39102},{"id":14933,"name":"São Joaquim do Monte","lat":-8.4325,"lng":-35.80444},{"id":14942,"name":"São José da Coroa Grande","lat":-8.89778,"lng":-35.14778},{"id":14961,"name":"São José do Belmonte","lat":-7.86139,"lng":-38.75972},{"id":14970,"name":"São José do Egito","lat":-7.47889,"lng":-37.27444},{"id":15053,"name":"São Lourenço da Mata","lat":-8.00222,"lng":-35.01833},{"id":15171,"name":"São Vicente Férrer","lat":-7.60222,"lng":-35.50216},{"id":14734,"name":"Serra Talhada","lat":-7.99194,"lng":-38.29833},{"id":14754,"name":"Serrita","lat":-7.84008,"lng":-39.40812},{"id":14759,"name":"Sertânia","lat":-8.07361,"lng":-37.26444},{"id":14793,"name":"Sirinhaém","lat":-8.59083,"lng":-35.11611},{"id":14805,"name":"Solidão","lat":-7.59117,"lng":-37.65945},{"id":14826,"name":"Surubim","lat":-7.83306,"lng":-35.75472},{"id":15187,"name":"Tabira","lat":-7.59075,"lng":-37.49202},{"id":15193,"name":"Tacaimbó","lat":-8.32284,"lng":-36.24711},{"id":15194,"name":"Tacaratu","lat":-8.9568,"lng":-38.07649},{"id":15208,"name":"Tamandaré","lat":-8.74874,"lng":-35.13941},{"id":15247,"name":"Taquaritinga do Norte","lat":-7.84571,"lng":-36.12633},{"id":15287,"name":"Terezinha","lat":-9.08773,"lng":-36.6121},{"id":15291,"name":"Terra Nova","lat":-8.16981,"lng":-39.39098},{"id":15311,"name":"Timbaúba","lat":-7.53194,"lng":-35.35625},{"id":15337,"name":"Toritama","lat":-7.99823,"lng":-36.06332},{"id":15346,"name":"Tracunhaém","lat":-7.7246,"lng":-35.1548},{"id":15360,"name":"Trindade","lat":-7.78327,"lng":-40.33408},{"id":15363,"name":"Triunfo","lat":-7.84766,"lng":-38.05176},{"id":15399,"name":"Tupanatinga","lat":-8.67328,"lng":-37.34532},{"id":15404,"name":"Tuparetama","lat":-7.71335,"lng":-37.24523},{"id":15529,"name":"Venturosa","lat":-8.6033,"lng":-36.79818},{"id":15539,"name":"Verdejante","lat":-7.9847,"lng":-38.99816},{"id":15544,"name":"Vertente do Lério","lat":-7.78986,"lng":-35.80318},{"id":15545,"name":"Vertentes","lat":-7.90936,"lng":-35.97775},{"id":15559,"name":"Vicência","lat":-7.65645,"lng":-35.39117},{"id":15601,"name":"Vitória de Santo Antão","lat":-8.11806,"lng":-35.29139},{"id":15640,"name":"Xexéu","lat":-8.86469,"lng":-35.64275}]