[{"id":15652,"name":"Água Branca","lat":-9.26988,"lng":-37.91917},{"id":10227,"name":"Anadia","lat":-9.67495,"lng":-36.3379},{"id":10337,"name":"Arapiraca","lat":-9.7438,"lng":-36.59315},{"id":10434,"name":"Atalaia","lat":-9.50194,"lng":-36.02278},{"id":10527,"name":"Barra de Santo Antônio","lat":-9.40472,"lng":-35.50722},{"id":10529,"name":"Barra de São Miguel","lat":-9.8123,"lng":-35.96087},{"id":10581,"name":"Batalha","lat":-9.73256,"lng":-37.08877},{"id":10616,"name":"Belém","lat":-9.54424,"lng":-36.50196},{"id":10609,"name":"Belo Monte","lat":-9.80521,"lng":-37.19157},{"id":10677,"name":"Boca da Mata","lat":-9.64651,"lng":-36.14134},{"id":10767,"name":"Branquinha","lat":-9.21168,"lng":-36.08956},{"id":10883,"name":"Cacimbinhas","lat":-9.40028,"lng":-36.99028},{"id":10919,"name":"Cajueiro","lat":-9.71667,"lng":-36.45},{"id":10957,"name":"Campestre","lat":-8.89393,"lng":-35.53237},{"id":10976,"name":"Campo Alegre","lat":-9.78194,"lng":-36.35083},{"id":10990,"name":"Campo Grande","lat":-9.94997,"lng":-36.75593},{"id":11024,"name":"Canapi","lat":-9.17327,"lng":-37.51985},{"id":11066,"name":"Capela","lat":-9.39342,"lng":-36.1239},{"id":11160,"name":"Carneiros","lat":-9.46467,"lng":-37.35559},{"id":11287,"name":"Chã Preta","lat":-9.22921,"lng":-36.33049},{"id":11317,"name":"Coité do Nóia","lat":-9.62616,"lng":-36.60044},{"id":11336,"name":"Colônia Leopoldina","lat":-8.94183,"lng":-35.76005},{"id":11394,"name":"Coqueiro Seco","lat":-9.64656,"lng":-35.80938},{"id":11445,"name":"Coruripe","lat":-10.12556,"lng":-36.17556},{"id":11464,"name":"Craíbas","lat":-9.60115,"lng":-36.80273},{"id":11569,"name":"Delmiro Gouveia","lat":-9.38861,"lng":-37.99917},{"id":11619,"name":"Dois Riachos","lat":-9.3925,"lng":-37.10056},{"id":11752,"name":"Estrela de Alagoas","lat":-9.39858,"lng":-36.76219},{"id":11789,"name":"Feira Grande","lat":-9.9247,"lng":-36.66953},{"id":11799,"name":"Feliz Deserto","lat":-10.2908,"lng":-36.35367},{"id":11824,"name":"Flexeiras","lat":-9.20061,"lng":-35.78},{"id":11945,"name":"Girau do Ponciano","lat":-9.88417,"lng":-36.82889},{"id":12123,"name":"Ibateguara","lat":-8.9725,"lng":-35.93944},{"id":12177,"name":"Igaci","lat":-9.53694,"lng":-36.63361},{"id":12193,"name":"Igreja Nova","lat":-10.1666,"lng":-36.61724},{"id":12249,"name":"Inhapi","lat":-9.22139,"lng":-37.74861},{"id":12522,"name":"Jacaré dos Homens","lat":-9.67278,"lng":-37.22275},{"id":12535,"name":"Jacuípe","lat":-8.87722,"lng":-35.45885},{"id":12566,"name":"Japaratinga","lat":-9.099,"lng":-35.29631},{"id":12582,"name":"Jaramataia","lat":-9.65053,"lng":-36.96036},{"id":12618,"name":"Jequiá da Praia","lat":-9.91151,"lng":-36.09896},{"id":12637,"name":"Joaquim Gomes","lat":-9.10352,"lng":-35.73739},{"id":12686,"name":"Jundiá","lat":-8.93472,"lng":-35.57361},{"id":12688,"name":"Junqueiro","lat":-9.88524,"lng":-36.4564},{"id":12749,"name":"Lagoa da Canoa","lat":-9.82972,"lng":-36.73778},{"id":12832,"name":"Limoeiro de Anadia","lat":-9.72685,"lng":-36.45407},{"id":12896,"name":"Maceió","lat":-9.66583,"lng":-35.73528},{"id":12921,"name":"Major Isidoro","lat":-9.53222,"lng":-36.985},{"id":12961,"name":"Mar Vermelho","lat":-9.49247,"lng":-36.35042},{"id":12973,"name":"Maragogi","lat":-9.01222,"lng":-35.2225},{"id":12985,"name":"Maravilha","lat":-9.22305,"lng":-37.37936},{"id":12999,"name":"Marechal Deodoro","lat":-9.71028,"lng":-35.895},{"id":13011,"name":"Maribondo","lat":-9.57722,"lng":-36.30528},{"id":13046,"name":"Mata Grande","lat":-8.98543,"lng":-37.7615},{"id":13073,"name":"Matriz de Camaragibe","lat":-9.15167,"lng":-35.53333},{"id":13106,"name":"Messias","lat":-9.38333,"lng":-35.84167},{"id":13121,"name":"Minador do Negrão","lat":-9.30528,"lng":-36.86472},{"id":13217,"name":"Monteirópolis","lat":-9.62019,"lng":-37.2935},{"id":13280,"name":"Murici","lat":-9.29835,"lng":-35.89999},{"id":13468,"name":"Novo Lino","lat":-8.88091,"lng":-35.61948},{"id":13497,"name":"Olho d'Água das Flores","lat":-9.54034,"lng":-37.25214},{"id":13498,"name":"Olho d'Água do Casado","lat":-9.45648,"lng":-37.83496},{"id":13495,"name":"Olho d'Água Grande","lat":-10.05622,"lng":-36.79522},{"id":13510,"name":"Olivença","lat":-9.51861,"lng":-37.19056},{"id":13539,"name":"Ouro Branco","lat":-9.12895,"lng":-37.37367},{"id":13575,"name":"Palestina","lat":-9.67504,"lng":-37.331},{"id":13594,"name":"Palmeira dos Índios","lat":-9.40902,"lng":-36.60651},{"id":14119,"name":"Pão de Açúcar","lat":-9.68353,"lng":-37.45431},{"id":13671,"name":"Pariconha","lat":-9.22039,"lng":-38.0167},{"id":13674,"name":"Paripueira","lat":-9.4294,"lng":-35.58979},{"id":13697,"name":"Passo de Camaragibe","lat":-9.29865,"lng":-35.42788},{"id":13734,"name":"Paulo Jacinto","lat":-9.36843,"lng":-36.39294},{"id":13795,"name":"Penedo","lat":-10.24448,"lng":-36.46992},{"id":13827,"name":"Piaçabuçu","lat":-10.40556,"lng":-36.43444},{"id":13837,"name":"Pilar","lat":-9.61752,"lng":-36.06323},{"id":13852,"name":"Pindoba","lat":-9.47492,"lng":-36.30343},{"id":13897,"name":"Piranhas","lat":-9.54806,"lng":-37.74529},{"id":14051,"name":"Poço das Trincheiras","lat":-9.3125,"lng":-37.28556},{"id":14001,"name":"Porto Calvo","lat":-9.045,"lng":-35.39833},{"id":14026,"name":"Porto de Pedras","lat":-9.11562,"lng":-35.39158},{"id":14014,"name":"Porto Real do Colégio","lat":-10.10538,"lng":-36.72695},{"id":14136,"name":"Quebrangulo","lat":-9.31889,"lng":-36.47111},{"id":14279,"name":"Rio Largo","lat":-9.47833,"lng":-35.85333},{"id":14356,"name":"Roteiro","lat":-9.85906,"lng":-35.98311},{"id":14495,"name":"Santa Luzia do Norte","lat":-9.61082,"lng":-35.82917},{"id":14582,"name":"Santana do Ipanema","lat":-9.37833,"lng":-37.24528},{"id":14589,"name":"Santana do Mundaú","lat":-9.16806,"lng":-36.22222},{"id":14850,"name":"São Brás","lat":-10.12409,"lng":-36.85043},{"id":14944,"name":"São José da Laje","lat":-9.00972,"lng":-36.05833},{"id":14947,"name":"São José da Tapera","lat":-9.55833,"lng":-37.38111},{"id":15067,"name":"São Luís do Quitunde","lat":-9.31833,"lng":-35.56111},{"id":15097,"name":"São Miguel dos Campos","lat":-9.78111,"lng":-36.09361},{"id":15098,"name":"São Miguel dos Milagres","lat":-9.25423,"lng":-35.38419},{"id":15136,"name":"São Sebastião","lat":-9.96698,"lng":-36.5528},{"id":14673,"name":"Satuba","lat":-9.56333,"lng":-35.82444},{"id":14706,"name":"Senador Rui Palmeira","lat":-9.33827,"lng":-37.55968},{"id":15221,"name":"Tanque d'Arca","lat":-9.56069,"lng":-36.40824},{"id":15243,"name":"Taquarana","lat":-9.64342,"lng":-36.49419},{"id":15282,"name":"Teotônio Vilela","lat":-9.99012,"lng":-36.43273},{"id":15347,"name":"Traipu","lat":-9.8924,"lng":-36.97849},{"id":15463,"name":"União dos Palmares","lat":-9.13251,"lng":-36.08182},{"id":15606,"name":"Viçosa","lat":-9.36022,"lng":-36.32095}]