[{"id":10074,"name":"Acauã","lat":-8.31552,"lng":-40.91283},{"id":10092,"name":"Agricolândia","lat":-5.74819,"lng":-42.67458},{"id":15651,"name":"Água Branca","lat":-5.89222,"lng":-42.63611},{"id":10112,"name":"Alagoinha do Piauí","lat":-6.98016,"lng":-40.91814},{"id":10125,"name":"Alegrete do Piauí","lat":-7.16226,"lng":-40.82488},{"id":10173,"name":"Alto Longá","lat":-5.40788,"lng":-42.06612},{"id":10186,"name":"Altos","lat":-5.03806,"lng":-42.46},{"id":10198,"name":"Alvorada do Gurguéia","lat":-8.38553,"lng":-43.83237},{"id":10209,"name":"Amarante","lat":-6.3702,"lng":-42.78806},{"id":10254,"name":"Angical do Piauí","lat":-6.09884,"lng":-42.72022},{"id":10283,"name":"Anísio de Abreu","lat":-9.24779,"lng":-43.05238},{"id":10271,"name":"Antônio Almeida","lat":-7.12211,"lng":-44.25307},{"id":10404,"name":"Aroazes","lat":-6.20348,"lng":-41.86926},{"id":10406,"name":"Aroeiras do Itaim","lat":-7.27,"lng":-41.56},{"id":10407,"name":"Arraial","lat":-6.62721,"lng":-42.49393},{"id":10431,"name":"Assunção do Piauí","lat":-5.85575,"lng":-40.94796},{"id":10459,"name":"Avelino Lopes","lat":-10.11463,"lng":-43.89286},{"id":10477,"name":"Baixa Grande do Ribeiro","lat":-8.69171,"lng":-45.12583},{"id":10522,"name":"Barra d'Alcântara","lat":-6.54095,"lng":-42.11504},{"id":10549,"name":"Barras","lat":-4.24444,"lng":-42.29444},{"id":10552,"name":"Barreiras do Piauí","lat":-9.99042,"lng":-45.69329},{"id":10562,"name":"Barro Duro","lat":-5.85063,"lng":-42.45878},{"id":10582,"name":"Batalha","lat":-3.99736,"lng":-42.10645},{"id":10600,"name":"Bela Vista do Piauí","lat":-7.91606,"lng":-41.90091},{"id":10620,"name":"Belém do Piauí","lat":-7.40657,"lng":-40.98873},{"id":10622,"name":"Beneditinos","lat":-5.45,"lng":-42.36667},{"id":10639,"name":"Bertolínia","lat":-7.75477,"lng":-43.79588},{"id":10644,"name":"Betânia do Piauí","lat":-8.0643,"lng":-40.85924},{"id":10662,"name":"Boa Hora","lat":-4.35576,"lng":-42.14109},{"id":10679,"name":"Bocaina","lat":-6.89508,"lng":-41.32746},{"id":10698,"name":"Bom Jesus","lat":-9.07444,"lng":-44.35861},{"id":10720,"name":"Bom Princípio do Piauí","lat":-3.23751,"lng":-41.64572},{"id":10732,"name":"Bonfim do Piauí","lat":-9.16462,"lng":-42.88253},{"id":10745,"name":"Boqueirão do Piauí","lat":-4.5665,"lng":-42.13601},{"id":10769,"name":"Brasileira","lat":-4.13325,"lng":-41.58774},{"id":10796,"name":"Brejo do Piauí","lat":-8.26858,"lng":-42.78801},{"id":10828,"name":"Buriti dos Lopes","lat":-3.175,"lng":-41.86694},{"id":10829,"name":"Buriti dos Montes","lat":-5.20888,"lng":-41.25078},{"id":10849,"name":"Cabeceiras do Piauí","lat":-4.43347,"lng":-42.2306},{"id":10916,"name":"Cajazeiras do Piauí","lat":-6.78182,"lng":-42.39243},{"id":10920,"name":"Cajueiro da Praia","lat":-2.98747,"lng":-41.35439},{"id":10928,"name":"Caldeirão Grande do Piauí","lat":-7.34361,"lng":-40.58774},{"id":10971,"name":"Campinas do Piauí","lat":-7.67905,"lng":-41.87938},{"id":10980,"name":"Campo Alegre do Fidalgo","lat":-8.31452,"lng":-41.79184},{"id":10991,"name":"Campo Grande do Piauí","lat":-7.2207,"lng":-41.04511},{"id":10993,"name":"Campo Largo do Piauí","lat":-3.85518,"lng":-42.60317},{"id":10997,"name":"Campo Maior","lat":-4.82778,"lng":-42.16861},{"id":11028,"name":"Canavieira","lat":-7.50756,"lng":-43.6863},{"id":11056,"name":"Canto do Buriti","lat":-8.11,"lng":-42.94444},{"id":11086,"name":"Capitão de Campos","lat":-4.47203,"lng":-41.88512},{"id":11083,"name":"Capitão Gervásio Oliveira","lat":-8.52938,"lng":-41.90126},{"id":11101,"name":"Caracol","lat":-9.34943,"lng":-43.27078},{"id":11119,"name":"Caraúbas do Piauí","lat":-3.53699,"lng":-41.84588},{"id":11130,"name":"Caridade do Piauí","lat":-7.70139,"lng":-40.89597},{"id":11188,"name":"Castelo do Piauí","lat":-5.2158,"lng":-41.55735},{"id":11220,"name":"Caxingó","lat":-3.40863,"lng":-41.88771},{"id":11306,"name":"Cocal","lat":-3.43751,"lng":-41.54594},{"id":11307,"name":"Cocal de Telha","lat":-4.64857,"lng":-41.99568},{"id":11309,"name":"Cocal dos Alves","lat":-3.57383,"lng":-41.45183},{"id":11318,"name":"Coivaras","lat":-5.11661,"lng":-42.26583},{"id":11337,"name":"Colônia do Gurguéia","lat":-8.14465,"lng":-43.77459},{"id":11338,"name":"Colônia do Piauí","lat":-7.22638,"lng":-42.21262},{"id":11355,"name":"Conceição do Canindé","lat":-7.98695,"lng":-41.57544},{"id":11421,"name":"Coronel José Dias","lat":-9.07216,"lng":-42.27241},{"id":11434,"name":"Corrente","lat":-10.47219,"lng":-45.04691},{"id":11473,"name":"Cristalândia do Piauí","lat":-10.82007,"lng":-45.11052},{"id":11477,"name":"Cristino Castro","lat":-8.69043,"lng":-44.04806},{"id":11522,"name":"Curimatá","lat":-9.86209,"lng":-44.38994},{"id":11527,"name":"Currais","lat":-8.73985,"lng":-44.86466},{"id":11529,"name":"Curral Novo do Piauí","lat":-7.88978,"lng":-40.76427},{"id":11534,"name":"Curralinhos","lat":-5.58488,"lng":-42.86082},{"id":11571,"name":"Demerval Lobão","lat":-5.35833,"lng":-42.67639},{"id":11598,"name":"Dirceu Arcoverde","lat":-9.3323,"lng":-42.43422},{"id":11627,"name":"Dom Expedito Lopes","lat":-6.95806,"lng":-41.71629},{"id":11629,"name":"Dom Inocêncio","lat":-8.8848,"lng":-41.72},{"id":11638,"name":"Domingos Mourão","lat":-4.19141,"lng":-41.34833},{"id":11681,"name":"Elesbão Veloso","lat":-6.19359,"lng":-42.16607},{"id":11683,"name":"Eliseu Martins","lat":-7.90155,"lng":-43.77769},{"id":11729,"name":"Esperantina","lat":-3.84898,"lng":-42.17102},{"id":11780,"name":"Fartura do Piauí","lat":-9.52033,"lng":-42.78927},{"id":11833,"name":"Flores do Piauí","lat":-7.64121,"lng":-42.84551},{"id":11838,"name":"Floresta do Piauí","lat":-7.47628,"lng":-41.84428},{"id":11841,"name":"Floriano","lat":-6.76694,"lng":-43.0225},{"id":11875,"name":"Francinópolis","lat":-6.41032,"lng":-42.24638},{"id":11877,"name":"Francisco Ayres","lat":-6.6913,"lng":-42.69202},{"id":11882,"name":"Francisco Macedo","lat":-7.35845,"lng":-40.77056},{"id":11884,"name":"Francisco Santos","lat":-7.10293,"lng":-41.145},{"id":11900,"name":"Fronteiras","lat":-7.0125,"lng":-40.56213},{"id":11933,"name":"Geminiano","lat":-7.16595,"lng":-41.38802},{"id":11944,"name":"Gilbués","lat":-9.72737,"lng":-45.52017},{"id":12013,"name":"Guadalupe","lat":-6.82297,"lng":-43.77762},{"id":12066,"name":"Guaribas","lat":-9.2887,"lng":-43.58188},{"id":12108,"name":"Hugo Napoleão","lat":-6.03293,"lng":-42.46773},{"id":12208,"name":"Ilha Grande","lat":-2.84022,"lng":-41.82881},{"id":12252,"name":"Inhuma","lat":-6.66187,"lng":-41.68135},{"id":12278,"name":"Ipiranga do Piauí","lat":-6.84634,"lng":-41.74687},{"id":12292,"name":"Ipueiras","lat":-7.03333,"lng":-40.45},{"id":12322,"name":"Isaías Coelho","lat":-7.54521,"lng":-41.64289},{"id":12358,"name":"Itainópolis","lat":-7.45524,"lng":-41.54165},{"id":12463,"name":"Itaueira","lat":-7.60333,"lng":-43.02556},{"id":12528,"name":"Jacobina do Piauí","lat":-7.96488,"lng":-41.17396},{"id":12551,"name":"Jaicós","lat":-7.45645,"lng":-41.22016},{"id":12590,"name":"Jardim do Mulato","lat":-6.15734,"lng":-42.47763},{"id":12604,"name":"Jatobá do Piauí","lat":-4.80296,"lng":-41.89545},{"id":12623,"name":"Jerumenha","lat":-7.09885,"lng":-43.54675},{"id":12658,"name":"João Costa","lat":-8.54315,"lng":-42.41513},{"id":12639,"name":"Joaquim Pires","lat":-3.53692,"lng":-42.0775},{"id":12644,"name":"Joca Marques","lat":-3.54211,"lng":-42.43579},{"id":12655,"name":"José de Freitas","lat":-4.72992,"lng":-42.61373},{"id":12675,"name":"Juazeiro do Piauí","lat":-5.02486,"lng":-41.52841},{"id":12717,"name":"Júlio Borges","lat":-10.5158,"lng":-44.19178},{"id":12696,"name":"Jurema","lat":-9.29862,"lng":-43.15301},{"id":12734,"name":"Lagoa Alegre","lat":-4.4951,"lng":-42.56555},{"id":12755,"name":"Lagoa de São Francisco","lat":-4.35468,"lng":-41.59168},{"id":12757,"name":"Lagoa do Barro do Piauí","lat":-8.73535,"lng":-41.54813},{"id":12762,"name":"Lagoa do Piauí","lat":-5.47513,"lng":-42.54814},{"id":12763,"name":"Lagoa do Sítio","lat":-6.51918,"lng":-41.42058},{"id":12769,"name":"Lagoinha do Piauí","lat":-5.80702,"lng":-42.62796},{"id":12791,"name":"Landri Sales","lat":-7.23268,"lng":-43.86456},{"id":12879,"name":"Luís Correia","lat":-3.03117,"lng":-41.51665},{"id":12875,"name":"Luzilândia","lat":-3.60743,"lng":-42.36456},{"id":12906,"name":"Madeiro","lat":-3.54658,"lng":-42.51114},{"id":12952,"name":"Manoel Emídio","lat":-8.16469,"lng":-43.8336},{"id":12996,"name":"Marcolândia","lat":-7.40891,"lng":-40.74945},{"id":12997,"name":"Marcos Parente","lat":-7.05412,"lng":-43.91664},{"id":13042,"name":"Massapê do Piauí","lat":-7.53879,"lng":-41.01755},{"id":13058,"name":"Matias Olímpio","lat":-3.68774,"lng":-42.60695},{"id":13109,"name":"Miguel Alves","lat":-4.1579,"lng":-42.77263},{"id":13111,"name":"Miguel Leão","lat":-5.72867,"lng":-42.68942},{"id":13118,"name":"Milton Brandão","lat":-4.74021,"lng":-41.59457},{"id":13177,"name":"Monsenhor Gil","lat":-5.64162,"lng":-42.54879},{"id":13178,"name":"Monsenhor Hipólito","lat":-6.94982,"lng":-41.03155},{"id":13191,"name":"Monte Alegre do Piauí","lat":-9.74213,"lng":-44.98266},{"id":13241,"name":"Morro Cabeça no Tempo","lat":-9.87713,"lng":-43.90657},{"id":13249,"name":"Morro do Chapéu do Piauí","lat":-3.68694,"lng":-42.22185},{"id":13281,"name":"Murici dos Portelas","lat":-3.36504,"lng":-42.00218},{"id":13314,"name":"Nazaré do Piauí","lat":-7.03279,"lng":-42.73216},{"id":13315,"name":"Nazária","lat":-5.44546,"lng":-42.8684},{"id":13341,"name":"Nossa Senhora de Nazaré","lat":-4.63841,"lng":-42.19017},{"id":13344,"name":"Nossa Senhora dos Remédios","lat":-4.05765,"lng":-42.60651},{"id":13433,"name":"Nova Santa Rita","lat":-8.11204,"lng":-42.01361},{"id":13473,"name":"Novo Oriente do Piauí","lat":-6.55034,"lng":-41.98555},{"id":13477,"name":"Novo Santo Antônio","lat":-5.32848,"lng":-41.96256},{"id":13490,"name":"Oeiras","lat":-6.90686,"lng":-42.17529},{"id":13499,"name":"Olho d'Água do Piauí","lat":-5.84854,"lng":-42.53937},{"id":13563,"name":"Padre Marcos","lat":-7.36533,"lng":-40.93416},{"id":13565,"name":"Paes Landim","lat":-7.77461,"lng":-42.35087},{"id":13574,"name":"Pajeú do Piauí","lat":-8.05364,"lng":-42.86625},{"id":13593,"name":"Palmeira do Piauí","lat":-8.51549,"lng":-44.43642},{"id":13595,"name":"Palmeirais","lat":-5.78548,"lng":-43.02434},{"id":13622,"name":"Paquetá","lat":-7.10746,"lng":-41.64719},{"id":13678,"name":"Parnaguá","lat":-10.12155,"lng":-44.56012},{"id":13682,"name":"Parnaíba","lat":-2.92278,"lng":-41.73536},{"id":13694,"name":"Passagem Franca do Piauí","lat":-5.82734,"lng":-42.40584},{"id":13708,"name":"Patos do Piauí","lat":-7.60918,"lng":-41.29464},{"id":13715,"name":"Pau D'arco do Piauí","lat":-5.24511,"lng":-42.45473},{"id":13728,"name":"Paulistana","lat":-8.22526,"lng":-41.22746},{"id":13740,"name":"Pavussu","lat":-7.88646,"lng":-43.19694},{"id":13777,"name":"Pedro II","lat":-4.49028,"lng":-41.39962},{"id":13778,"name":"Pedro Laurentino","lat":-8.11766,"lng":-42.23542},{"id":13829,"name":"Picos","lat":-7.10697,"lng":-41.51271},{"id":13846,"name":"Pimenteiras","lat":-6.24528,"lng":-41.41917},{"id":13878,"name":"Pio IX","lat":-6.86982,"lng":-40.59717},{"id":13887,"name":"Piracuruca","lat":-3.86656,"lng":-41.74153},{"id":13917,"name":"Piripiri","lat":-4.39488,"lng":-41.78819},{"id":13992,"name":"Porto","lat":-3.94558,"lng":-42.68879},{"id":13996,"name":"Porto Alegre do Piauí","lat":-6.95931,"lng":-44.07411},{"id":14070,"name":"Prata do Piauí","lat":-5.71099,"lng":-42.15331},{"id":14138,"name":"Queimada Nova","lat":-8.53997,"lng":-41.24753},{"id":14186,"name":"Redenção do Gurguéia","lat":-9.58205,"lng":-44.53802},{"id":14188,"name":"Regeneração","lat":-6.27844,"lng":-42.48165},{"id":14210,"name":"Riacho Frio","lat":-9.8366,"lng":-44.67899},{"id":14233,"name":"Ribeira do Piauí","lat":-8.09706,"lng":-42.57609},{"id":14235,"name":"Ribeiro Gonçalves","lat":-8.08721,"lng":-45.47197},{"id":14278,"name":"Rio Grande do Piauí","lat":-7.86062,"lng":-43.14551},{"id":14454,"name":"Santa Cruz do Piauí","lat":-7.2649,"lng":-41.7638},{"id":14458,"name":"Santa Cruz dos Milagres","lat":-5.83227,"lng":-41.95795},{"id":14461,"name":"Santa Filomena","lat":-8.89582,"lng":-45.66715},{"id":14488,"name":"Santa Luz","lat":-8.97437,"lng":-44.27778},{"id":14546,"name":"Santa Rosa do Piauí","lat":-6.82877,"lng":-42.24627},{"id":14591,"name":"Santana do Piauí","lat":-6.95247,"lng":-41.46185},{"id":14618,"name":"Santo Antônio de Lisboa","lat":-6.87642,"lng":-41.18103},{"id":14643,"name":"Santo Antônio dos Milagres","lat":-6.05399,"lng":-42.70083},{"id":14651,"name":"Santo Inácio do Piauí","lat":-7.46906,"lng":-41.91794},{"id":14849,"name":"São Braz do Piauí","lat":-8.9738,"lng":-42.97568},{"id":14904,"name":"São Félix do Piauí","lat":-5.88422,"lng":-42.1083},{"id":14884,"name":"São Francisco de Assis do Piauí","lat":-8.12334,"lng":-41.48056},{"id":14897,"name":"São Francisco do Piauí","lat":-7.16899,"lng":-42.55086},{"id":14920,"name":"São Gonçalo do Gurguéia","lat":-10.0763,"lng":-45.42387},{"id":14922,"name":"São Gonçalo do Piauí","lat":-6.02033,"lng":-42.6702},{"id":15008,"name":"São João da Canabrava","lat":-6.72756,"lng":-41.38226},{"id":15009,"name":"São João da Fronteira","lat":-4.09363,"lng":-41.21552},{"id":15015,"name":"São João da Serra","lat":-5.44173,"lng":-41.85793},{"id":15017,"name":"São João da Varjota","lat":-6.94733,"lng":-41.92917},{"id":15025,"name":"São João do Arraial","lat":-3.80325,"lng":-42.46973},{"id":15040,"name":"São João do Piauí","lat":-8.27575,"lng":-42.34005},{"id":14968,"name":"São José do Divino","lat":-3.74297,"lng":-41.90119},{"id":14980,"name":"São José do Peixe","lat":-7.49544,"lng":-42.49355},{"id":14981,"name":"São José do Piauí","lat":-6.84096,"lng":-41.51702},{"id":15050,"name":"São Julião","lat":-7.05987,"lng":-40.79725},{"id":15056,"name":"São Lourenço do Piauí","lat":-9.13336,"lng":-42.40297},{"id":15059,"name":"São Luis do Piauí","lat":-6.77801,"lng":-41.2765},{"id":15080,"name":"São Miguel da Baixa Grande","lat":-5.81791,"lng":-42.27077},{"id":15088,"name":"São Miguel do Fidalgo","lat":-7.59935,"lng":-42.38796},{"id":15095,"name":"São Miguel do Tapuio","lat":-5.70486,"lng":-41.61634},{"id":15119,"name":"São Pedro do Piauí","lat":-5.82135,"lng":-42.77168},{"id":15126,"name":"São Raimundo Nonato","lat":-9.0522,"lng":-42.60836},{"id":14683,"name":"Sebastião Barros","lat":-10.59755,"lng":-44.83609},{"id":14685,"name":"Sebastião Leal","lat":-7.51324,"lng":-44.02545},{"id":14774,"name":"Sigefredo Pacheco","lat":-4.79886,"lng":-41.78459},{"id":14788,"name":"Simões","lat":-7.59889,"lng":-40.81778},{"id":14785,"name":"Simplício Mendes","lat":-7.85389,"lng":-41.91028},{"id":14801,"name":"Socorro do Piauí","lat":-7.8982,"lng":-42.50745},{"id":14827,"name":"Sussuapara","lat":-7.00335,"lng":-41.39182},{"id":15213,"name":"Tamboril do Piauí","lat":-8.40278,"lng":-43.09084},{"id":15222,"name":"Tanque do Piauí","lat":-6.69614,"lng":-42.1831},{"id":15284,"name":"Teresina","lat":-5.10252,"lng":-42.7407},{"id":15456,"name":"União","lat":-4.59646,"lng":-42.86468},{"id":15487,"name":"Uruçuí","lat":-7.34206,"lng":-44.58334},{"id":15501,"name":"Valença do Piauí","lat":-6.2787,"lng":-41.81385},{"id":15616,"name":"Várzea Branca","lat":-9.34411,"lng":-42.95158},{"id":15617,"name":"Várzea Grande","lat":-6.56374,"lng":-42.17729},{"id":15537,"name":"Vera Mendes","lat":-7.5548,"lng":-41.50596},{"id":15571,"name":"Vila Nova do Piauí","lat":-7.18671,"lng":-40.93621},{"id":15625,"name":"Wall Ferraz","lat":-7.29532,"lng":-41.8373}]