[{"id":289,"name":"Aghavnatun","lat":40.2333,"lng":44.25295},{"id":292,"name":"Aknalich","lat":40.14728,"lng":44.16669},{"id":293,"name":"Aknashen","lat":40.09551,"lng":44.28604},{"id":297,"name":"Alashkert","lat":40.10712,"lng":44.05108},{"id":302,"name":"Apaga","lat":40.09729,"lng":44.25293},{"id":306,"name":"Arak’s","lat":40.05548,"lng":44.30292},{"id":310,"name":"Arazap’","lat":40.04169,"lng":44.14728},{"id":311,"name":"Arbat’","lat":40.13892,"lng":44.40289},{"id":315,"name":"Arevashat","lat":40.14447,"lng":44.37512},{"id":317,"name":"Arevik","lat":40.1001,"lng":44.09448},{"id":322,"name":"Argavand","lat":40.0611,"lng":44.09448},{"id":325,"name":"Armavir","lat":40.15446,"lng":44.03815},{"id":327,"name":"Arshaluys","lat":40.16949,"lng":44.21393},{"id":330,"name":"Artimet","lat":40.15008,"lng":44.26672},{"id":340,"name":"Aygek","lat":40.1889,"lng":44.38611},{"id":342,"name":"Aygeshat","lat":40.07507,"lng":44.0611},{"id":347,"name":"Baghramyan","lat":40.19452,"lng":44.36951},{"id":350,"name":"Bambakashat","lat":40.10828,"lng":44.01947},{"id":367,"name":"Dalarik","lat":40.2279,"lng":43.87793},{"id":374,"name":"Doghs","lat":40.22229,"lng":44.27228},{"id":388,"name":"Gay","lat":40.08444,"lng":44.30528},{"id":389,"name":"Geghakert","lat":40.18516,"lng":44.24331},{"id":392,"name":"Geghanist","lat":40.14587,"lng":44.43048},{"id":394,"name":"Getashen","lat":40.04449,"lng":43.94171},{"id":398,"name":"Gmbet’","lat":40.22369,"lng":44.25409},{"id":403,"name":"Griboyedov","lat":40.11307,"lng":44.27169},{"id":410,"name":"Haykashen","lat":40.07233,"lng":44.30829},{"id":414,"name":"Hovtamej","lat":40.18329,"lng":44.25848},{"id":419,"name":"Janfida","lat":40.04449,"lng":44.02789},{"id":433,"name":"Khoronk’","lat":40.13611,"lng":44.24731},{"id":440,"name":"Lenughi","lat":40.12512,"lng":43.96393},{"id":448,"name":"Lukashin","lat":40.18726,"lng":44.0039},{"id":454,"name":"Margara","lat":40.03332,"lng":44.18048},{"id":461,"name":"Mayisyan","lat":40.15701,"lng":44.09192},{"id":465,"name":"Merdzavan","lat":40.1814,"lng":44.40033},{"id":469,"name":"Metsamor","lat":40.14447,"lng":44.1167},{"id":473,"name":"Mrgashat","lat":40.13068,"lng":44.08069},{"id":477,"name":"Musalerr","lat":40.1557,"lng":44.37793},{"id":478,"name":"Myasnikyan","lat":40.18048,"lng":43.91949},{"id":479,"name":"Nalbandyan","lat":40.0639,"lng":43.98889},{"id":483,"name":"Nor Armavir","lat":40.08612,"lng":43.99451},{"id":488,"name":"Norakert","lat":40.19733,"lng":44.3501},{"id":504,"name":"P’shatavan","lat":40.03888,"lng":44.06671},{"id":502,"name":"Ptghunk’","lat":40.16388,"lng":44.36389},{"id":509,"name":"Sardarapat","lat":40.13206,"lng":44.00969},{"id":519,"name":"Shenavan","lat":40.05548,"lng":43.93048},{"id":532,"name":"Tandzut","lat":40.06952,"lng":44.07788},{"id":533,"name":"Taronik","lat":40.13367,"lng":44.19957},{"id":539,"name":"Tsaghkunk’","lat":40.18048,"lng":44.27228},{"id":540,"name":"Tsiatsan","lat":40.1861,"lng":44.26947},{"id":549,"name":"Vagharshapat","lat":40.16557,"lng":44.29462},{"id":567,"name":"Voskehat","lat":40.14172,"lng":44.33069},{"id":575,"name":"Yeghegnut","lat":40.08893,"lng":44.16669},{"id":579,"name":"Yeraskhahun","lat":40.07233,"lng":44.21948}]