[{"id":130067,"name":"Ciudad Bolívar","lat":8.12923,"lng":-63.54086},{"id":130068,"name":"Ciudad Guayana","lat":8.35122,"lng":-62.64102},{"id":130119,"name":"Municipio Padre Pedro Chien","lat":8.02455,"lng":-61.88187},{"id":130152,"name":"Santa Elena de Uairén","lat":4.60226,"lng":-61.11025},{"id":130164,"name":"Upata","lat":8.0162,"lng":-62.40561}]