[{"id":1604,"name":"Abtissendorf","lat":46.99583,"lng":15.45639},{"id":1610,"name":"Admont","lat":47.57537,"lng":14.46075},{"id":1613,"name":"Aflenz Kurort","lat":47.54211,"lng":15.23898},{"id":1616,"name":"Aibl","lat":46.68145,"lng":15.22619},{"id":1618,"name":"Aigen im Ennstal","lat":47.51667,"lng":14.13333},{"id":1624,"name":"Albersdorf","lat":47.12166,"lng":15.69826},{"id":1629,"name":"Allerheiligen bei Wildon","lat":46.91417,"lng":15.55444},{"id":1631,"name":"Allerheiligen im Mürztal","lat":47.46667,"lng":15.4},{"id":1636,"name":"Altaussee","lat":47.63844,"lng":13.76278},{"id":1642,"name":"Altenmarkt bei Fürstenfeld","lat":47.06638,"lng":16.04785},{"id":1643,"name":"Altenmarkt bei Sankt Gallen","lat":47.72327,"lng":14.64838},{"id":1661,"name":"Andritz","lat":47.11387,"lng":15.42348},{"id":1664,"name":"Anger","lat":47.27422,"lng":15.69139},{"id":1674,"name":"Apfelberg","lat":47.2,"lng":14.83333},{"id":1677,"name":"Ardning","lat":47.5912,"lng":14.36372},{"id":1678,"name":"Arnfels","lat":46.67639,"lng":15.40306},{"id":1682,"name":"Arzberg","lat":47.25,"lng":15.51667},{"id":1694,"name":"Attendorf","lat":47.00426,"lng":15.33897},{"id":1707,"name":"Auersbach","lat":47.01667,"lng":15.86667},{"id":1716,"name":"Bad Aussee","lat":47.60998,"lng":13.78243},{"id":1717,"name":"Bad Blumau","lat":47.11667,"lng":16.05},{"id":1721,"name":"Bad Gams","lat":46.87111,"lng":15.22472},{"id":1723,"name":"Bad Gleichenberg","lat":46.87556,"lng":15.90861},{"id":1732,"name":"Bad Radkersburg","lat":46.68806,"lng":15.98806},{"id":1740,"name":"Bad Waltersdorf","lat":47.1696,"lng":16.0087},{"id":1744,"name":"Baierdorf-Umgebung","lat":47.28511,"lng":15.71045},{"id":1745,"name":"Bairisch Kölldorf","lat":46.86667,"lng":15.93333},{"id":1823,"name":"Bärnbach","lat":47.07141,"lng":15.12792},{"id":1750,"name":"Baumgarten bei Gnas","lat":46.91667,"lng":15.76667},{"id":1762,"name":"Berndorf","lat":47.41667,"lng":15.26667},{"id":1772,"name":"Bierbaum am Auersbach","lat":46.82949,"lng":15.79237},{"id":1775,"name":"Birkfeld","lat":47.35,"lng":15.68333},{"id":1780,"name":"Blaindorf","lat":47.17498,"lng":15.86795},{"id":1799,"name":"Breitenfeld am Tannenriegel","lat":46.85,"lng":15.63333},{"id":1800,"name":"Breitenfeld an der Rittschein","lat":47.03333,"lng":15.95},{"id":1803,"name":"Bretstein","lat":47.33333,"lng":14.41667},{"id":1810,"name":"Bruck an der Mur","lat":47.41667,"lng":15.28333},{"id":1812,"name":"Brunn","lat":46.72944,"lng":15.3},{"id":1820,"name":"Burgau","lat":47.14268,"lng":16.09643},{"id":1832,"name":"Dechantskirchen","lat":47.41667,"lng":16.01667},{"id":1836,"name":"Deuchendorf","lat":47.46593,"lng":15.32172},{"id":1837,"name":"Deutsch Goritz","lat":46.75083,"lng":15.82944},{"id":1842,"name":"Deutschfeistritz","lat":47.19852,"lng":15.33623},{"id":1844,"name":"Deutschlandsberg","lat":46.81528,"lng":15.22222},{"id":1846,"name":"Diemlach","lat":47.4361,"lng":15.2746},{"id":1847,"name":"Dienersdorf","lat":47.23979,"lng":15.90142},{"id":1852,"name":"Dietersdorf","lat":47.2,"lng":14.66667},{"id":1853,"name":"Dietersdorf am Gnasbach","lat":46.80917,"lng":15.81167},{"id":1857,"name":"Donawitz","lat":47.36667,"lng":15.06667},{"id":1858,"name":"Donnersbach","lat":47.46139,"lng":14.12972},{"id":1879,"name":"Dürnstein in der Steiermark","lat":46.98833,"lng":14.39167},{"id":1892,"name":"Ebersdorf","lat":47.19852,"lng":15.96219},{"id":1899,"name":"Edelsbach bei Feldbach","lat":46.98944,"lng":15.83694},{"id":1900,"name":"Edelschrott","lat":47.02156,"lng":15.05266},{"id":1901,"name":"Edelsgrub","lat":47.03333,"lng":15.6},{"id":1903,"name":"Edelstauden","lat":46.98333,"lng":15.61667},{"id":1908,"name":"Eggenberg","lat":47.07,"lng":15.39871},{"id":1912,"name":"Eggersdorf bei Graz","lat":47.12338,"lng":15.60084},{"id":1914,"name":"Ehrenhausen","lat":46.72417,"lng":15.58667},{"id":1916,"name":"Eibiswald","lat":46.68667,"lng":15.24722},{"id":1917,"name":"Eichberg","lat":47.38188,"lng":15.97356},{"id":1919,"name":"Eichfeld","lat":46.72528,"lng":15.76806},{"id":1922,"name":"Eisbach","lat":47.11667,"lng":15.26667},{"id":1923,"name":"Eisenerz","lat":47.53333,"lng":14.88333},{"id":1936,"name":"Empersdorf","lat":46.99892,"lng":15.59959},{"id":1945,"name":"Eppenstein","lat":47.12833,"lng":14.7375},{"id":1959,"name":"Falkenburg","lat":47.5,"lng":14.08333},{"id":1962,"name":"Farrach","lat":47.18333,"lng":14.73333},{"id":1964,"name":"Fehring","lat":46.94,"lng":16.00806},{"id":1968,"name":"Feistritz bei Knittelfeld","lat":47.26802,"lng":14.89334},{"id":1972,"name":"Feldbach","lat":46.95306,"lng":15.88833},{"id":1975,"name":"Feldkirchen bei Graz","lat":47.01667,"lng":15.45},{"id":1982,"name":"Fernitz","lat":46.97389,"lng":15.50111},{"id":1991,"name":"Fischbach","lat":47.44234,"lng":15.64972},{"id":1995,"name":"Fladnitz im Raabtal","lat":46.99167,"lng":15.78528},{"id":1996,"name":"Flatschach","lat":47.21667,"lng":14.75},{"id":2001,"name":"Floing","lat":47.26356,"lng":15.7465},{"id":2003,"name":"Fohnsdorf","lat":47.2,"lng":14.68333},{"id":2011,"name":"Frannach","lat":46.91306,"lng":15.63361},{"id":2013,"name":"Frauenberg","lat":47.42855,"lng":15.34206},{"id":2017,"name":"Freidorf an der Laßnitz","lat":46.81667,"lng":15.25},{"id":2018,"name":"Freiland bei Deutschlandsberg","lat":46.83333,"lng":15.13333},{"id":2023,"name":"Friedberg","lat":47.43333,"lng":16.05},{"id":2026,"name":"Frohnleiten","lat":47.26667,"lng":15.31667},{"id":2037,"name":"Fürstenfeld","lat":47.05,"lng":16.08333},{"id":2039,"name":"Gaal","lat":47.27268,"lng":14.67003},{"id":2040,"name":"Gabersdorf","lat":46.77722,"lng":15.58417},{"id":2047,"name":"Gallmannsegg","lat":47.18333,"lng":15.06667},{"id":2053,"name":"Gamlitz","lat":46.72028,"lng":15.55333},{"id":2055,"name":"Gams bei Hieflau","lat":47.66667,"lng":14.78333},{"id":2056,"name":"Ganz","lat":47.6,"lng":15.68333},{"id":2057,"name":"Garanas","lat":46.76667,"lng":15.11667},{"id":2061,"name":"Gasen","lat":47.38333,"lng":15.56667},{"id":2070,"name":"Geidorf","lat":47.08393,"lng":15.444},{"id":2071,"name":"Geistthal","lat":47.16667,"lng":15.16667},{"id":2079,"name":"Gersdorf an der Feistritz","lat":47.16667,"lng":15.85},{"id":2085,"name":"Gleinstätten","lat":46.75361,"lng":15.36972},{"id":2086,"name":"Gleisdorf","lat":47.10559,"lng":15.71011},{"id":2090,"name":"Glojach","lat":46.86667,"lng":15.66667},{"id":2097,"name":"Gnas","lat":46.87306,"lng":15.82528},{"id":2100,"name":"Gniebing","lat":46.96252,"lng":15.85645},{"id":2106,"name":"Gosdorf","lat":46.72778,"lng":15.7925},{"id":2187,"name":"Göss","lat":47.35871,"lng":15.10015},{"id":2188,"name":"Gössenberg","lat":47.41667,"lng":13.81667},{"id":2107,"name":"Gossendorf","lat":46.91076,"lng":15.93043},{"id":2190,"name":"Gösting","lat":47.09788,"lng":15.39777},{"id":2192,"name":"Göttelsberg","lat":47.21667,"lng":15.6},{"id":2108,"name":"Grabersdorf","lat":46.84306,"lng":15.82472},{"id":2109,"name":"Grafendorf bei Hartberg","lat":47.34028,"lng":15.9906},{"id":2115,"name":"Gralla","lat":46.81404,"lng":15.5551},{"id":2119,"name":"Grambach","lat":47.01473,"lng":15.50407},{"id":2120,"name":"Gratkorn","lat":47.13333,"lng":15.35},{"id":2121,"name":"Gratwein","lat":47.11667,"lng":15.31667},{"id":2122,"name":"Graz","lat":47.06667,"lng":15.45},{"id":2123,"name":"Graz Stadt","lat":47.06667,"lng":15.43333},{"id":2127,"name":"Greisdorf","lat":46.92647,"lng":15.21906},{"id":2128,"name":"Gressenberg","lat":46.8,"lng":15.11667},{"id":2131,"name":"Gries","lat":47.06236,"lng":15.42421},{"id":2165,"name":"Gröbming","lat":47.44272,"lng":13.90122},{"id":2145,"name":"Groß Sankt Florian","lat":46.82444,"lng":15.31861},{"id":2156,"name":"Großklein","lat":46.73611,"lng":15.44444},{"id":2158,"name":"Großlobming","lat":47.18333,"lng":14.8},{"id":2162,"name":"Großsölk","lat":47.41667,"lng":13.96667},{"id":2144,"name":"Grosssulz","lat":46.94556,"lng":15.49028},{"id":2174,"name":"Gundersdorf","lat":46.95,"lng":15.23333},{"id":2206,"name":"Hafendorf","lat":47.45653,"lng":15.31837},{"id":2217,"name":"Hainersdorf","lat":47.11506,"lng":15.94374},{"id":2219,"name":"Hainsdorf im Schwarzautal","lat":46.83583,"lng":15.64139},{"id":2221,"name":"Halbenrain","lat":46.72194,"lng":15.94667},{"id":2223,"name":"Hall bei Admont","lat":47.587,"lng":14.46372},{"id":2236,"name":"Hart bei Graz","lat":47.04311,"lng":15.51527},{"id":2238,"name":"Hartberg","lat":47.28333,"lng":15.96667},{"id":2241,"name":"Hartl","lat":47.18333,"lng":15.91667},{"id":2242,"name":"Hartmannsdorf","lat":47.05461,"lng":15.83941},{"id":2246,"name":"Hatzendorf","lat":46.97686,"lng":16.00107},{"id":2250,"name":"Haus","lat":47.40997,"lng":13.76724},{"id":2251,"name":"Haus im Ennstal","lat":47.41058,"lng":13.76759},{"id":2255,"name":"Hausmannstätten","lat":46.99111,"lng":15.51139},{"id":2262,"name":"Heiligenkreuz am Waasen","lat":46.95583,"lng":15.58806},{"id":2264,"name":"Heimschuh","lat":46.76,"lng":15.49306},{"id":2268,"name":"Hengsberg","lat":46.86667,"lng":15.43333},{"id":2277,"name":"Hetzendorf","lat":47.18333,"lng":14.68333},{"id":2279,"name":"Hieflau","lat":47.60639,"lng":14.74503},{"id":2284,"name":"Hinterberg","lat":47.36066,"lng":15.06951},{"id":2291,"name":"Hirnsdorf","lat":47.19167,"lng":15.82868},{"id":2296,"name":"Hitzendorf","lat":47.03333,"lng":15.3},{"id":2301,"name":"Hochtregist","lat":47.1,"lng":15.13333},{"id":2337,"name":"Höf","lat":47.13401,"lng":15.49092},{"id":2307,"name":"Hof bei Straden","lat":46.8,"lng":15.93333},{"id":2311,"name":"Hofstätten an der Raab","lat":47.06667,"lng":15.73333},{"id":2313,"name":"Hohenau an der Raab","lat":47.3,"lng":15.55},{"id":2318,"name":"Hohentauern","lat":47.43333,"lng":14.48333},{"id":2322,"name":"Hollenegg","lat":46.79147,"lng":15.21345},{"id":2341,"name":"Hönigsberg","lat":47.58038,"lng":15.64808},{"id":2352,"name":"Ilz","lat":47.08649,"lng":15.92676},{"id":2357,"name":"Innere Stadt","lat":47.0665,"lng":15.44051},{"id":2365,"name":"Irdning","lat":47.50529,"lng":14.10155},{"id":2371,"name":"Jagerberg","lat":46.85361,"lng":15.73806},{"id":2373,"name":"Jakomini","lat":47.05441,"lng":15.44984},{"id":2380,"name":"Johnsbach","lat":47.53333,"lng":14.58333},{"id":2382,"name":"Judenburg","lat":47.16667,"lng":14.66667},{"id":2383,"name":"Judendorf","lat":47.4,"lng":15.1},{"id":2385,"name":"Kaibing","lat":47.2,"lng":15.83333},{"id":2386,"name":"Kainach bei Voitsberg","lat":47.13637,"lng":15.0953},{"id":2387,"name":"Kainbach","lat":47.08333,"lng":15.51667},{"id":2388,"name":"Kaindorf","lat":47.22537,"lng":15.91125},{"id":2389,"name":"Kaindorf an der Sulm","lat":46.79248,"lng":15.53879},{"id":2391,"name":"Kalsdorf bei Graz","lat":46.96528,"lng":15.48028},{"id":2395,"name":"Kalwang","lat":47.42678,"lng":14.75442},{"id":2396,"name":"Kammern im Liesingtal","lat":47.39245,"lng":14.90407},{"id":2397,"name":"Kapellen","lat":47.64784,"lng":15.62863},{"id":2399,"name":"Kapfenberg","lat":47.44458,"lng":15.29331},{"id":2400,"name":"Kapfenstein","lat":46.88611,"lng":15.97167},{"id":2423,"name":"Kindberg","lat":47.5,"lng":15.45},{"id":2425,"name":"Kirchbach in Steiermark","lat":46.93167,"lng":15.66194},{"id":2430,"name":"Kirchberg an der Raab","lat":46.98583,"lng":15.76694},{"id":2436,"name":"Kirchenviertel","lat":47.13124,"lng":15.34764},{"id":2444,"name":"Kitzeck im Sausal","lat":46.78072,"lng":15.45384},{"id":2455,"name":"Kleinlobming","lat":47.14954,"lng":14.84875},{"id":2457,"name":"Kleinsöding","lat":47.0,"lng":15.28333},{"id":2458,"name":"Kleinsölk","lat":47.39444,"lng":13.93944},{"id":2463,"name":"Klöch","lat":46.76472,"lng":15.96556},{"id":2461,"name":"Kloster","lat":46.88333,"lng":15.08333},{"id":2465,"name":"Knittelfeld","lat":47.21667,"lng":14.81667},{"id":2466,"name":"Kobenz","lat":47.25,"lng":14.85},{"id":2508,"name":"Köflach","lat":47.06667,"lng":15.08333},{"id":2470,"name":"Kohlberg","lat":46.9,"lng":15.78333},{"id":2471,"name":"Kohlschwarz","lat":47.11667,"lng":15.11667},{"id":2478,"name":"Krakaudorf","lat":47.18131,"lng":14.02061},{"id":2479,"name":"Krakauhintermühlen","lat":47.18333,"lng":13.98333},{"id":2480,"name":"Krakauschatten","lat":47.18333,"lng":13.96667},{"id":2482,"name":"Kraubath an der Mur","lat":47.3,"lng":14.93333},{"id":2488,"name":"Krieglach","lat":47.54728,"lng":15.56248},{"id":2493,"name":"Krottendorf","lat":47.2,"lng":15.63333},{"id":2494,"name":"Krottendorf bei Ligist","lat":47.01667,"lng":15.21667},{"id":2498,"name":"Krumegg","lat":47.02111,"lng":15.63139},{"id":2501,"name":"Krusdorf","lat":46.83944,"lng":15.86083},{"id":2505,"name":"Kulm am Zirbitz","lat":47.05814,"lng":14.48702},{"id":2506,"name":"Kumberg","lat":47.16422,"lng":15.53261},{"id":2522,"name":"Labuch","lat":47.06667,"lng":15.66667},{"id":2527,"name":"Lafnitz","lat":47.36792,"lng":16.01103},{"id":2532,"name":"Landl","lat":47.65666,"lng":14.73189},{"id":2534,"name":"Lang","lat":46.83765,"lng":15.50471},{"id":2536,"name":"Langegg bei Graz","lat":47.05,"lng":15.63333},{"id":2543,"name":"Langenwang","lat":47.56667,"lng":15.61667},{"id":2547,"name":"Lannach","lat":46.94611,"lng":15.33722},{"id":2552,"name":"Lassnitzhöhe","lat":47.06667,"lng":15.58333},{"id":2564,"name":"Leibnitz","lat":46.78161,"lng":15.53836},{"id":2566,"name":"Leitendorf","lat":47.36667,"lng":15.08333},{"id":2567,"name":"Leitersdorf im Raabtal","lat":46.94182,"lng":15.93365},{"id":2569,"name":"Leitring","lat":46.76667,"lng":15.56667},{"id":2573,"name":"Lend","lat":47.08256,"lng":15.41589},{"id":2578,"name":"Leoben","lat":47.3765,"lng":15.09144},{"id":2589,"name":"Leutschach","lat":46.66722,"lng":15.46889},{"id":2593,"name":"Liebenau","lat":47.03333,"lng":15.46667},{"id":2595,"name":"Lieboch","lat":46.97417,"lng":15.3375},{"id":2597,"name":"Liesingtal","lat":47.34597,"lng":15.01352},{"id":2598,"name":"Liezen","lat":47.56667,"lng":14.23333},{"id":2599,"name":"Ligist","lat":46.99389,"lng":15.21083},{"id":2624,"name":"Lödersdorf","lat":46.95861,"lng":15.94333},{"id":2612,"name":"Loipersdorf bei Fürstenfeld","lat":47.0,"lng":16.1},{"id":2625,"name":"Maierdorf","lat":46.8925,"lng":15.84972},{"id":2643,"name":"Maria Lankowitz","lat":47.0622,"lng":15.06525},{"id":2652,"name":"Mariahof","lat":47.1,"lng":14.4},{"id":2657,"name":"Mariatrost","lat":47.1,"lng":15.5},{"id":2658,"name":"Mariazell","lat":47.77306,"lng":15.31639},{"id":2680,"name":"Mautern in Steiermark","lat":47.4,"lng":14.83333},{"id":2689,"name":"Mellach","lat":46.93333,"lng":15.51667},{"id":2691,"name":"Merkendorf","lat":46.85722,"lng":15.90389},{"id":2693,"name":"Mettersdorf am Saßbach","lat":46.80583,"lng":15.71111},{"id":2694,"name":"Michaelerberg","lat":47.41083,"lng":13.89333},{"id":2710,"name":"Mitterdorf an der Raab","lat":47.16667,"lng":15.6},{"id":2711,"name":"Mitterdorf im Mürztal","lat":47.53333,"lng":15.51667},{"id":2714,"name":"Mitterlabill","lat":46.88917,"lng":15.63556},{"id":2717,"name":"Mitterndorf im Steirischen Salzkammergut","lat":47.55556,"lng":13.93187},{"id":2721,"name":"Modriach","lat":46.95,"lng":15.05},{"id":2747,"name":"Mönichwald","lat":47.44655,"lng":15.88275},{"id":2728,"name":"Mooskirchen","lat":46.98167,"lng":15.27889},{"id":2729,"name":"Mortantsch","lat":47.20752,"lng":15.57954},{"id":2757,"name":"Mühldorf bei Feldbach","lat":46.93861,"lng":15.9075},{"id":2758,"name":"Mühlen","lat":47.03071,"lng":14.50848},{"id":2735,"name":"Murau","lat":47.11056,"lng":14.16944},{"id":2736,"name":"Mureck","lat":46.70806,"lng":15.77472},{"id":2765,"name":"Mürzhofen","lat":47.48333,"lng":15.38333},{"id":2766,"name":"Mürzsteg","lat":47.67556,"lng":15.49145},{"id":2767,"name":"Mürzzuschlag","lat":47.6066,"lng":15.67226},{"id":2769,"name":"Naas","lat":47.25086,"lng":15.59449},{"id":2780,"name":"Nestelbach bei Graz","lat":47.06053,"lng":15.6114},{"id":2781,"name":"Nestelbach im Ilztal","lat":47.08333,"lng":15.86667},{"id":2786,"name":"Neuberg an der Mürz","lat":47.66423,"lng":15.57226},{"id":2788,"name":"Neudau","lat":47.17554,"lng":16.10184},{"id":2808,"name":"Neumarkt in Steiermark","lat":47.07398,"lng":14.42728},{"id":2817,"name":"Neutillmitsch","lat":46.81667,"lng":15.53333},{"id":2833,"name":"Niederöblarn","lat":47.47667,"lng":14.01937},{"id":2829,"name":"Niederschöckl","lat":47.15,"lng":15.5},{"id":2832,"name":"Niederwölz","lat":47.15126,"lng":14.37479},{"id":2835,"name":"Niklasdorf","lat":47.38333,"lng":15.15},{"id":2837,"name":"Nitscha","lat":47.11667,"lng":15.75},{"id":2842,"name":"Obdach","lat":47.06667,"lng":14.68333},{"id":2844,"name":"Oberaich","lat":47.4,"lng":15.21667},{"id":2847,"name":"Oberdorf am Hochegg","lat":46.97861,"lng":15.72167},{"id":2851,"name":"Oberhaag","lat":46.6869,"lng":15.33202},{"id":2857,"name":"Oberkurzheim","lat":47.23333,"lng":14.58333},{"id":2870,"name":"Oberpremstätten","lat":46.97444,"lng":15.40444},{"id":2872,"name":"Oberrettenbach","lat":47.15,"lng":15.8},{"id":2876,"name":"Oberstorcha","lat":46.96667,"lng":15.8},{"id":2880,"name":"Obervogau","lat":46.745,"lng":15.58472},{"id":2885,"name":"Oberweg","lat":47.15,"lng":14.63333},{"id":2887,"name":"Oberwölz Stadt","lat":47.20117,"lng":14.28321},{"id":2888,"name":"Oberzeiring","lat":47.25,"lng":14.48333},{"id":3897,"name":"Öblarn","lat":47.45938,"lng":13.99023},{"id":2900,"name":"Oppenberg","lat":47.48333,"lng":14.26667},{"id":2903,"name":"Ortgraben","lat":47.45,"lng":16.05},{"id":2908,"name":"Osterwitz","lat":46.85943,"lng":15.08998},{"id":2917,"name":"Pack","lat":46.97917,"lng":14.98417},{"id":2918,"name":"Paldau","lat":46.94222,"lng":15.79583},{"id":2919,"name":"Palfau","lat":47.7,"lng":14.8},{"id":2925,"name":"Parschlug","lat":47.4809,"lng":15.28645},{"id":2927,"name":"Passail","lat":47.28333,"lng":15.51667},{"id":2933,"name":"Peggau","lat":47.2,"lng":15.35},{"id":2936,"name":"Perchau am Sattel","lat":47.1,"lng":14.45},{"id":2939,"name":"Perlsdorf","lat":46.91361,"lng":15.81417},{"id":2941,"name":"Pernegg an der Mur","lat":47.35979,"lng":15.34236},{"id":2945,"name":"Pertlstein","lat":46.94056,"lng":15.96167},{"id":2962,"name":"Piberegg","lat":47.09424,"lng":15.11658},{"id":2965,"name":"Pichling bei Köflach","lat":47.04785,"lng":15.07098},{"id":2971,"name":"Pinggau","lat":47.44232,"lng":16.06713},{"id":2974,"name":"Pirching am Traubenberg","lat":46.95,"lng":15.6},{"id":2976,"name":"Pirka","lat":47.0,"lng":15.38333},{"id":2977,"name":"Pischelsdorf in der Steiermark","lat":47.17417,"lng":15.80572},{"id":2978,"name":"Pistorf","lat":46.76667,"lng":15.36667},{"id":2979,"name":"Pitschgau","lat":46.7,"lng":15.26667},{"id":2993,"name":"Politischer Bezirk Bruck-Mürzzuschlag","lat":47.4188,"lng":15.27512},{"id":2994,"name":"Politischer Bezirk Deutschlandsberg","lat":46.75,"lng":15.2},{"id":3002,"name":"Politischer Bezirk Graz-Umgebung","lat":47.1386,"lng":15.38823},{"id":3007,"name":"Politischer Bezirk Hartberg-Fürstenfeld","lat":47.27923,"lng":15.98373},{"id":3021,"name":"Politischer Bezirk Leibnitz","lat":46.79565,"lng":15.51849},{"id":3022,"name":"Politischer Bezirk Leoben","lat":47.41667,"lng":14.91667},{"id":3024,"name":"Politischer Bezirk Liezen","lat":47.53521,"lng":14.34314},{"id":3030,"name":"Politischer Bezirk Murau","lat":47.13333,"lng":14.2},{"id":3031,"name":"Politischer Bezirk Murtal","lat":47.16964,"lng":14.66469},{"id":3050,"name":"Politischer Bezirk Südoststeiermark","lat":46.94089,"lng":15.88623},{"id":3055,"name":"Politischer Bezirk Voitsberg","lat":47.05,"lng":15.1},{"id":3059,"name":"Politischer Bezirk Weiz","lat":47.3,"lng":15.65},{"id":3105,"name":"Pöllau","lat":47.3,"lng":15.83333},{"id":3106,"name":"Pöllauberg","lat":47.31667,"lng":15.85},{"id":3107,"name":"Pöls","lat":47.21667,"lng":14.58333},{"id":3065,"name":"Poppendorf","lat":46.85611,"lng":15.85639},{"id":3076,"name":"Preding","lat":46.85861,"lng":15.40972},{"id":3084,"name":"Proleb","lat":47.4,"lng":15.13333},{"id":3086,"name":"Pruggern","lat":47.4237,"lng":13.87625},{"id":3089,"name":"Puch bei Weiz","lat":47.21667,"lng":15.71667},{"id":3097,"name":"Puntigam","lat":47.03333,"lng":15.43333},{"id":3101,"name":"Pusterwald","lat":47.30611,"lng":14.37556},{"id":3114,"name":"Raaba","lat":47.03333,"lng":15.5},{"id":3115,"name":"Raabau","lat":46.96278,"lng":15.91167},{"id":3121,"name":"Rabenwald","lat":47.4,"lng":15.9},{"id":3122,"name":"Rachau","lat":47.21667,"lng":14.9},{"id":3128,"name":"Ragnitz","lat":46.83667,"lng":15.59278},{"id":3134,"name":"Ramsau am Dachstein","lat":47.4215,"lng":13.65545},{"id":3139,"name":"Raning","lat":46.85,"lng":15.81667},{"id":3143,"name":"Ranten","lat":47.15949,"lng":14.08349},{"id":3145,"name":"Rassach","lat":46.86028,"lng":15.27},{"id":3147,"name":"Ratsch an der Weinstraße","lat":46.68944,"lng":15.57111},{"id":3148,"name":"Ratschendorf","lat":46.74222,"lng":15.81583},{"id":3149,"name":"Ratten","lat":47.48333,"lng":15.71667},{"id":3164,"name":"Reichendorf","lat":47.18922,"lng":15.7616},{"id":3168,"name":"Reifling","lat":47.13333,"lng":14.66667},{"id":3179,"name":"Rettenegg","lat":47.52694,"lng":15.78104},{"id":3182,"name":"Retznei","lat":46.73333,"lng":15.56667},{"id":3192,"name":"Riegersburg","lat":47.0,"lng":15.93028},{"id":3193,"name":"Ries","lat":47.08315,"lng":15.485},{"id":3203,"name":"Rohrbach an der Lafnitz","lat":47.38333,"lng":16.0},{"id":3212,"name":"Rosental an der Kainach","lat":47.05192,"lng":15.122},{"id":3226,"name":"Röthelstein","lat":47.31667,"lng":15.36667},{"id":3214,"name":"Rottenmann","lat":47.51667,"lng":14.35},{"id":3232,"name":"Salla","lat":47.1,"lng":14.96667},{"id":3243,"name":"Sankt Anna am Aigen","lat":46.83111,"lng":15.97139},{"id":3245,"name":"Sankt Bartholomä","lat":47.05457,"lng":15.25889},{"id":3246,"name":"Sankt Blasen","lat":47.08333,"lng":14.3},{"id":3250,"name":"Sankt Gallen","lat":47.68631,"lng":14.61705},{"id":3257,"name":"Sankt Georgen an der Stiefing","lat":46.87333,"lng":15.57972},{"id":3260,"name":"Sankt Georgen ob Judenburg","lat":47.20744,"lng":14.49736},{"id":3261,"name":"Sankt Georgen ob Murau","lat":47.1,"lng":14.1},{"id":3264,"name":"Sankt Ilgen","lat":47.55,"lng":15.16667},{"id":3265,"name":"Sankt Jakob im Walde","lat":47.46667,"lng":15.78333},{"id":3266,"name":"Sankt Jakob-Breitenau","lat":47.39229,"lng":15.4297},{"id":3267,"name":"Sankt Johann am Tauern","lat":47.35,"lng":14.46667},{"id":3268,"name":"Sankt Johann bei Herberstein","lat":47.2,"lng":15.8},{"id":3270,"name":"Sankt Johann im Saggautal","lat":46.70389,"lng":15.40278},{"id":3272,"name":"Sankt Johann in der Haide","lat":47.2808,"lng":16.02579},{"id":3273,"name":"Sankt Josef (Weststeiermark)","lat":46.90917,"lng":15.33639},{"id":3274,"name":"Sankt Katharein an der Laming","lat":47.47069,"lng":15.16319},{"id":3275,"name":"Sankt Kathrein am Hauenstein","lat":47.48943,"lng":15.69414},{"id":3276,"name":"Sankt Kathrein am Offenegg","lat":47.3,"lng":15.58333},{"id":3277,"name":"Sankt Lambrecht","lat":47.06667,"lng":14.3},{"id":3280,"name":"Sankt Leonhard","lat":47.06924,"lng":15.45784},{"id":3284,"name":"Sankt Lorenzen am Wechsel","lat":47.44153,"lng":15.95498},{"id":3285,"name":"Sankt Lorenzen bei Knittelfeld","lat":47.25078,"lng":14.89549},{"id":3286,"name":"Sankt Lorenzen bei Scheifling","lat":47.14556,"lng":14.40583},{"id":3287,"name":"Sankt Lorenzen im Mürztal","lat":47.48333,"lng":15.36667},{"id":3289,"name":"Sankt Marein bei Graz","lat":47.01583,"lng":15.68389},{"id":3290,"name":"Sankt Marein bei Knittelfeld","lat":47.27396,"lng":14.86085},{"id":3291,"name":"Sankt Marein bei Neumarkt","lat":47.06591,"lng":14.42908},{"id":3292,"name":"Sankt Marein im Mürztal","lat":47.46667,"lng":15.36667},{"id":3294,"name":"Sankt Margarethen an der Raab","lat":47.05,"lng":15.75},{"id":3296,"name":"Sankt Margarethen bei Knittelfeld","lat":47.21667,"lng":14.86667},{"id":3300,"name":"Sankt Martin","lat":47.44667,"lng":15.2849},{"id":3303,"name":"Sankt Martin am Grimming","lat":47.48873,"lng":13.98105},{"id":3308,"name":"Sankt Martin im Sulmtal","lat":46.75611,"lng":15.29722},{"id":3311,"name":"Sankt Michael in Obersteiermark","lat":47.33839,"lng":15.01784},{"id":3312,"name":"Sankt Nikolai im Sausal","lat":46.82111,"lng":15.45194},{"id":3313,"name":"Sankt Nikolai im Sölktal","lat":47.31667,"lng":14.05},{"id":3314,"name":"Sankt Nikolai ob Draßling","lat":46.80889,"lng":15.65083},{"id":3316,"name":"Sankt Oswald bei Plankenwarth","lat":47.08701,"lng":15.27703},{"id":3317,"name":"Sankt Oswald ob Eibiswald","lat":46.70833,"lng":15.14667},{"id":3321,"name":"Sankt Peter","lat":47.05,"lng":15.46667},{"id":3323,"name":"Sankt Peter am Kammersberg","lat":47.18706,"lng":14.18464},{"id":3324,"name":"Sankt Peter am Ottersbach","lat":46.79778,"lng":15.75917},{"id":3325,"name":"Sankt Peter im Sulmtal","lat":46.75,"lng":15.25},{"id":3327,"name":"Sankt Peter ob Judenburg","lat":47.18417,"lng":14.58639},{"id":3328,"name":"Sankt Peter-Freienstein","lat":47.38333,"lng":15.01667},{"id":3331,"name":"Sankt Radegund bei Graz","lat":47.18172,"lng":15.49192},{"id":3333,"name":"Sankt Ruprecht an der Raab","lat":47.15336,"lng":15.66256},{"id":3335,"name":"Sankt Stefan im Rosental","lat":46.90389,"lng":15.71},{"id":3336,"name":"Sankt Stefan ob Leoben","lat":47.31672,"lng":14.97831},{"id":3337,"name":"Sankt Stefan ob Stainz","lat":46.92861,"lng":15.25889},{"id":3339,"name":"Sankt Ulrich am Waasen","lat":46.93333,"lng":15.53333},{"id":3342,"name":"Sankt Veit am Vogau","lat":46.74048,"lng":15.64217},{"id":3352,"name":"Schachen bei Vorau","lat":47.3801,"lng":15.85816},{"id":3412,"name":"Schäffern","lat":47.47771,"lng":16.10956},{"id":3367,"name":"Scheifling","lat":47.15044,"lng":14.41278},{"id":3371,"name":"Schladming","lat":47.39289,"lng":13.68699},{"id":3415,"name":"Schöder","lat":47.18333,"lng":14.1},{"id":3389,"name":"Schrems bei Frohnleiten","lat":47.28109,"lng":15.35932},{"id":3393,"name":"Schwanberg","lat":46.75833,"lng":15.20833},{"id":3399,"name":"Schwarzau im Schwarzautal","lat":46.87886,"lng":15.66421},{"id":3425,"name":"Sebersdorf","lat":47.1865,"lng":15.9936},{"id":3426,"name":"Seckau","lat":47.26667,"lng":14.78333},{"id":3436,"name":"Seggauberg","lat":46.76667,"lng":15.51667},{"id":3438,"name":"Seiersberg","lat":47.0,"lng":15.4},{"id":3442,"name":"Selzthal","lat":47.54988,"lng":14.31201},{"id":3444,"name":"Semriach","lat":47.21667,"lng":15.4},{"id":3450,"name":"Siegersdorf bei Herberstein","lat":47.2,"lng":15.78333},{"id":3462,"name":"Sinabelkirchen","lat":47.102,"lng":15.82795},{"id":3466,"name":"Soboth","lat":46.68139,"lng":15.07833},{"id":3564,"name":"Söchau","lat":47.03333,"lng":16.01667},{"id":3565,"name":"Södingberg","lat":47.10703,"lng":15.17169},{"id":3473,"name":"Spatenhof","lat":46.9625,"lng":15.36111},{"id":3474,"name":"Spielberg bei Knittelfeld","lat":47.21667,"lng":14.78333},{"id":3475,"name":"Spielfeld","lat":46.70556,"lng":15.63722},{"id":3478,"name":"Spital am Semmering","lat":47.61345,"lng":15.75096},{"id":3488,"name":"Stadl an der Mur","lat":47.08333,"lng":13.96667},{"id":3493,"name":"Stainach","lat":47.53343,"lng":14.10872},{"id":3494,"name":"Stainz","lat":46.89444,"lng":15.26722},{"id":3495,"name":"Stainz bei Straden","lat":46.82444,"lng":15.89222},{"id":3498,"name":"Stallhof","lat":46.88333,"lng":15.28333},{"id":3499,"name":"Stallhofen","lat":47.05,"lng":15.21667},{"id":3500,"name":"Stambach","lat":47.33333,"lng":15.93333},{"id":3505,"name":"Stattegg","lat":47.13333,"lng":15.41667},{"id":3510,"name":"Stein","lat":46.99778,"lng":16.08694},{"id":3522,"name":"Stenzengreith","lat":47.2,"lng":15.51667},{"id":3531,"name":"Stiwoll","lat":47.1,"lng":15.21667},{"id":3537,"name":"Straden","lat":46.80917,"lng":15.86806},{"id":3538,"name":"Strallegg","lat":47.41165,"lng":15.72534},{"id":3547,"name":"Straß in Steiermark","lat":46.72722,"lng":15.62444},{"id":3542,"name":"Strassengel","lat":47.11573,"lng":15.33288},{"id":3549,"name":"Straßgang","lat":47.03333,"lng":15.4},{"id":3555,"name":"Stubenberg","lat":47.2446,"lng":15.80027},{"id":3556,"name":"Studenzen","lat":47.00583,"lng":15.75417},{"id":3563,"name":"Sulztal an der Weinstraße","lat":46.68333,"lng":15.55},{"id":3576,"name":"Tauplitz","lat":47.56005,"lng":14.01293},{"id":3585,"name":"Teufenbach","lat":47.1287,"lng":14.35913},{"id":3586,"name":"Thal","lat":47.07644,"lng":15.36052},{"id":3596,"name":"Thörl","lat":47.51952,"lng":15.22276},{"id":3600,"name":"Tieschen","lat":46.78611,"lng":15.94222},{"id":3601,"name":"Tillmitsch","lat":46.81195,"lng":15.51679},{"id":3602,"name":"Tillmitsch Links der Laßnitz","lat":46.80955,"lng":15.52394},{"id":3606,"name":"Traboch","lat":47.37705,"lng":14.98647},{"id":3608,"name":"Trahütten","lat":46.825,"lng":15.15694},{"id":3617,"name":"Trautmannsdorf in Oststeiermark","lat":46.8753,"lng":15.88451},{"id":3619,"name":"Treglwang","lat":47.47458,"lng":14.59083},{"id":3622,"name":"Trieben","lat":47.48574,"lng":14.48744},{"id":3623,"name":"Triebendorf","lat":47.11667,"lng":14.23333},{"id":3626,"name":"Trofaiach","lat":47.42524,"lng":15.00681},{"id":3628,"name":"Trössing","lat":46.81667,"lng":15.81667},{"id":3635,"name":"Turnau","lat":47.55776,"lng":15.33739},{"id":3899,"name":"Übelbach","lat":47.22534,"lng":15.23615},{"id":3901,"name":"Übersbach","lat":47.02318,"lng":16.05517},{"id":3645,"name":"Ungerdorf","lat":47.08333,"lng":15.66667},{"id":3647,"name":"Unterauersbach","lat":46.86556,"lng":15.77028},{"id":3648,"name":"Unterbergla","lat":46.80746,"lng":15.31516},{"id":3651,"name":"Unterfladnitz","lat":47.18333,"lng":15.66667},{"id":3655,"name":"Unterlamm","lat":46.97694,"lng":16.06389},{"id":3659,"name":"Unterpremstätten","lat":46.96472,"lng":15.40417},{"id":3667,"name":"Utschtal","lat":47.4,"lng":15.2},{"id":3673,"name":"Vasoldsberg","lat":47.01634,"lng":15.55835},{"id":3674,"name":"Veitsch","lat":47.57815,"lng":15.4945},{"id":3693,"name":"Vogau","lat":46.73187,"lng":15.60837},{"id":3694,"name":"Voitsberg","lat":47.04445,"lng":15.15313},{"id":3698,"name":"Vorau","lat":47.40548,"lng":15.88754},{"id":3701,"name":"Vordernberg","lat":47.48809,"lng":14.99436},{"id":3710,"name":"Wagna","lat":46.76682,"lng":15.55906},{"id":3712,"name":"Wagnitz","lat":46.98333,"lng":15.46667},{"id":3725,"name":"Wald am Schoberpaß","lat":47.44936,"lng":14.67567},{"id":3742,"name":"Waltendorf","lat":47.06667,"lng":15.46667},{"id":3745,"name":"Wartberg","lat":47.52717,"lng":15.48095},{"id":3766,"name":"Weinburg am Saßbach","lat":46.75361,"lng":15.72111},{"id":3781,"name":"Weißenbach bei Liezen","lat":47.56667,"lng":14.21667},{"id":3784,"name":"Weißkirchen in Steiermark","lat":47.15,"lng":14.73333},{"id":3780,"name":"Weiz","lat":47.21667,"lng":15.61667},{"id":3795,"name":"Werndorf","lat":46.92417,"lng":15.49083},{"id":3796,"name":"Wernersdorf","lat":46.71592,"lng":15.20718},{"id":3799,"name":"Wettmannstätten","lat":46.83056,"lng":15.38722},{"id":3800,"name":"Wetzelsdorf","lat":47.05293,"lng":15.39923},{"id":3807,"name":"Wies","lat":46.72028,"lng":15.27194},{"id":3813,"name":"Wildalpen","lat":47.65,"lng":14.98333},{"id":3815,"name":"Wildon","lat":46.88333,"lng":15.51667},{"id":3834,"name":"Winklern bei Oberwölz","lat":47.2,"lng":14.23333},{"id":3843,"name":"Wolfsberg im Schwarzautal","lat":46.84389,"lng":15.65889},{"id":3858,"name":"Wörschach","lat":47.55,"lng":14.15},{"id":3860,"name":"Wörth an der Lafnitz","lat":47.21368,"lng":16.08081},{"id":3852,"name":"Wundschuh","lat":46.92639,"lng":15.45111},{"id":3881,"name":"Zeltweg","lat":47.18333,"lng":14.75},{"id":3882,"name":"Zerlach","lat":46.94593,"lng":15.65093},{"id":3883,"name":"Zettling","lat":46.9522,"lng":15.4342},{"id":3884,"name":"Zeutschach","lat":47.06667,"lng":14.36667}]