[{"id":1603,"name":"Abtenau","lat":47.56373,"lng":13.34599},{"id":1611,"name":"Adnet","lat":47.69746,"lng":13.13115},{"id":1644,"name":"Altenmarkt im Pongau","lat":47.38333,"lng":13.41667},{"id":1663,"name":"Anger","lat":47.15593,"lng":13.10592},{"id":1667,"name":"Anif","lat":47.75,"lng":13.06667},{"id":1672,"name":"Anthering","lat":47.88333,"lng":13.01667},{"id":1702,"name":"Au","lat":47.7,"lng":13.06667},{"id":1722,"name":"Bad Gastein","lat":47.11547,"lng":13.13467},{"id":1726,"name":"Bad Hofgastein","lat":47.17274,"lng":13.09871},{"id":1758,"name":"Bergheim","lat":47.83333,"lng":13.03333},{"id":1763,"name":"Berndorf bei Salzburg","lat":47.99532,"lng":13.06146},{"id":1777,"name":"Bischofshofen","lat":47.41667,"lng":13.21667},{"id":1789,"name":"Bramberg am Wildkogel","lat":47.26979,"lng":12.3385},{"id":1808,"name":"Bruck an der Großglocknerstraße","lat":47.28494,"lng":12.8231},{"id":1821,"name":"Burgfried","lat":47.68004,"lng":13.11175},{"id":1826,"name":"Bürmoos","lat":47.98343,"lng":12.91786},{"id":1848,"name":"Dienten am Hochkönig","lat":47.38324,"lng":13.00369},{"id":1862,"name":"Dorfbeuern","lat":48.01667,"lng":13.01667},{"id":1863,"name":"Dorfgastein","lat":47.24172,"lng":13.10223},{"id":1882,"name":"Eben im Pongau","lat":47.4,"lng":13.4},{"id":1883,"name":"Ebenau","lat":47.79073,"lng":13.17527},{"id":1896,"name":"Eching","lat":47.97263,"lng":12.88786},{"id":1929,"name":"Elixhausen","lat":47.86667,"lng":13.06667},{"id":1933,"name":"Elsbethen","lat":47.76464,"lng":13.08104},{"id":1953,"name":"Esch","lat":47.8403,"lng":13.09223},{"id":1955,"name":"Eugendorf","lat":47.86765,"lng":13.12609},{"id":1958,"name":"Faistenau","lat":47.77767,"lng":13.23393},{"id":1986,"name":"Filzmoos","lat":47.43333,"lng":13.51667},{"id":1994,"name":"Flachau","lat":47.34406,"lng":13.39148},{"id":2007,"name":"Forstau","lat":47.37842,"lng":13.55558},{"id":2031,"name":"Fuschl am See","lat":47.8,"lng":13.3},{"id":2072,"name":"Georgenberg","lat":47.63333,"lng":13.15},{"id":2082,"name":"Glanegg","lat":47.75,"lng":13.0},{"id":2084,"name":"Glasenbach","lat":47.76667,"lng":13.08333},{"id":2103,"name":"Golling an der Salzach","lat":47.6,"lng":13.16667},{"id":2166,"name":"Grödig","lat":47.73833,"lng":13.0373},{"id":2139,"name":"Grossarl","lat":47.23333,"lng":13.2},{"id":2140,"name":"Grossgmain","lat":47.72416,"lng":12.90851},{"id":2202,"name":"Habach","lat":47.81753,"lng":13.16252},{"id":2225,"name":"Hallein","lat":47.68333,"lng":13.1},{"id":2226,"name":"Hallwang","lat":47.85,"lng":13.08333},{"id":2269,"name":"Henndorf am Wallersee","lat":47.9,"lng":13.18333},{"id":2283,"name":"Himmelreich","lat":47.8,"lng":12.98333},{"id":2286,"name":"Hinterglemm","lat":47.37685,"lng":12.59583},{"id":2288,"name":"Hintersee","lat":47.7,"lng":13.28333},{"id":2304,"name":"Hof","lat":47.35,"lng":13.31667},{"id":2306,"name":"Hof bei Salzburg","lat":47.81929,"lng":13.21488},{"id":2325,"name":"Hollersbach im Pinzgau","lat":47.27658,"lng":12.42326},{"id":2347,"name":"Hüttau","lat":47.4161,"lng":13.30775},{"id":2349,"name":"Hüttschlag","lat":47.17635,"lng":13.23239},{"id":2366,"name":"Irrsdorf","lat":47.96667,"lng":13.28333},{"id":2404,"name":"Kaprun","lat":47.27239,"lng":12.75985},{"id":2452,"name":"Kleinarl","lat":47.27725,"lng":13.31955},{"id":2475,"name":"Koppl","lat":47.80808,"lng":13.15561},{"id":2513,"name":"Köstendorf","lat":47.95,"lng":13.2},{"id":2489,"name":"Krimml","lat":47.21799,"lng":12.17487},{"id":2490,"name":"Krispl","lat":47.71667,"lng":13.18333},{"id":2502,"name":"Kuchl","lat":47.62647,"lng":13.1448},{"id":2529,"name":"Lamprechtshausen","lat":47.99098,"lng":12.95481},{"id":2562,"name":"Lehen","lat":47.87083,"lng":13.01722},{"id":2572,"name":"Lend","lat":47.29856,"lng":13.05176},{"id":2576,"name":"Lengfelden","lat":47.85,"lng":13.05},{"id":2581,"name":"Leogang","lat":47.43906,"lng":12.76109},{"id":2609,"name":"Lofer","lat":47.58475,"lng":12.69333},{"id":2627,"name":"Maishofen","lat":47.36667,"lng":12.8},{"id":2639,"name":"Maria Alm am Steinernen Meer","lat":47.40579,"lng":12.90121},{"id":2653,"name":"Mariapfarr","lat":47.15,"lng":13.75},{"id":2671,"name":"Mattsee","lat":47.96667,"lng":13.1},{"id":2681,"name":"Mauterndorf","lat":47.13451,"lng":13.67884},{"id":2709,"name":"Mitterberghütten","lat":47.4,"lng":13.21667},{"id":2712,"name":"Mitterhofen","lat":47.38333,"lng":12.8},{"id":2719,"name":"Mittersill","lat":47.28333,"lng":12.48333},{"id":2752,"name":"Mühlbach am Hochkönig","lat":47.37746,"lng":13.12926},{"id":2784,"name":"Neualm","lat":47.69336,"lng":13.08758},{"id":2799,"name":"Neukirchen am Großvenediger","lat":47.25046,"lng":12.27585},{"id":2804,"name":"Neumarkt am Wallersee","lat":47.95,"lng":13.23333},{"id":2820,"name":"Niederalm","lat":47.72872,"lng":13.06223},{"id":2828,"name":"Niedernsill","lat":47.28333,"lng":12.65},{"id":2838,"name":"Nußdorf am Haunsberg","lat":47.95944,"lng":13.00917},{"id":2845,"name":"Oberalm","lat":47.7,"lng":13.1},{"id":2850,"name":"Obergäu","lat":47.58955,"lng":13.17621},{"id":2864,"name":"Oberndorf bei Salzburg","lat":47.95,"lng":12.93333},{"id":2878,"name":"Obertrum am See","lat":47.93722,"lng":13.07722},{"id":2957,"name":"Pfarrwerfen","lat":47.45729,"lng":13.20531},{"id":2963,"name":"Pichl","lat":47.28333,"lng":12.85},{"id":2967,"name":"Piesendorf","lat":47.29077,"lng":12.71839},{"id":2982,"name":"Plainfeld","lat":47.83333,"lng":13.18333},{"id":2983,"name":"Plankenau","lat":47.32673,"lng":13.19282},{"id":3006,"name":"Politischer Bezirk Hallein","lat":47.6,"lng":13.3},{"id":3041,"name":"Politischer Bezirk Salzburg-Umgebung","lat":47.84019,"lng":13.18799},{"id":3042,"name":"Politischer Bezirk Sankt Johann im Pongau","lat":47.3,"lng":13.3},{"id":3051,"name":"Politischer Bezirk Tamsweg","lat":47.15,"lng":13.7},{"id":3088,"name":"Puch bei Hallein","lat":47.71536,"lng":13.09296},{"id":3125,"name":"Radstadt","lat":47.38333,"lng":13.45},{"id":3132,"name":"Ramingstein","lat":47.07462,"lng":13.83642},{"id":3153,"name":"Rauris","lat":47.22656,"lng":12.99459},{"id":3169,"name":"Reinbach","lat":47.34673,"lng":13.19072},{"id":3173,"name":"Reitberg","lat":47.85269,"lng":13.1573},{"id":3229,"name":"Saalbach","lat":47.39138,"lng":12.63642},{"id":3230,"name":"Saalfelden am Steinernen Meer","lat":47.42681,"lng":12.848},{"id":3234,"name":"Salzburg","lat":47.79941,"lng":13.04399},{"id":3235,"name":"Salzburg Stadt","lat":47.80067,"lng":13.04532},{"id":3241,"name":"Sankt Andrä im Lungau","lat":47.15,"lng":13.78333},{"id":3262,"name":"Sankt Gilgen","lat":47.76667,"lng":13.36667},{"id":3269,"name":"Sankt Johann im Pongau","lat":47.35,"lng":13.2},{"id":3278,"name":"Sankt Leonhard","lat":47.72587,"lng":13.04577},{"id":3298,"name":"Sankt Margarethen im Lungau","lat":47.07927,"lng":13.69613},{"id":3306,"name":"Sankt Martin bei Lofer","lat":47.56667,"lng":12.7},{"id":3310,"name":"Sankt Michael im Lungau","lat":47.1,"lng":13.63333},{"id":3345,"name":"Sankt Veit im Pongau","lat":47.33333,"lng":13.15},{"id":3364,"name":"Scheffau am Tennengebirge","lat":47.58831,"lng":13.2202},{"id":3375,"name":"Schleedorf","lat":47.95,"lng":13.15},{"id":3396,"name":"Schwarzach im Pongau","lat":47.32048,"lng":13.15171},{"id":3432,"name":"Seeham","lat":47.96746,"lng":13.07699},{"id":3433,"name":"Seekirchen am Wallersee","lat":47.8942481,"lng":13.1260778},{"id":3435,"name":"Seewalchen","lat":47.9045768,"lng":13.1351423},{"id":3455,"name":"Siezenheim","lat":47.81529,"lng":12.99039},{"id":3485,"name":"St. Martin of Tennengebirge","lat":47.465,"lng":13.37761},{"id":3545,"name":"Strasswalchen","lat":47.97947,"lng":13.25535},{"id":3553,"name":"Strobl","lat":47.71667,"lng":13.48333},{"id":3557,"name":"Stuhlfelden","lat":47.28761,"lng":12.52755},{"id":3570,"name":"Tamsweg","lat":47.12808,"lng":13.81102},{"id":3575,"name":"Taugl","lat":47.64747,"lng":13.20282},{"id":3577,"name":"Taxach","lat":47.7261,"lng":13.07184},{"id":3578,"name":"Taxenbach","lat":47.29116,"lng":12.96215},{"id":3587,"name":"Thalgau","lat":47.84142,"lng":13.25325},{"id":3593,"name":"Thomatal","lat":47.06667,"lng":13.75},{"id":3594,"name":"Thumersbach","lat":47.32952,"lng":12.81675},{"id":3637,"name":"Tweng","lat":47.18333,"lng":13.6},{"id":3646,"name":"Unken","lat":47.64966,"lng":12.72946},{"id":3657,"name":"Unternberg","lat":47.11269,"lng":13.74261},{"id":3662,"name":"Untertauern","lat":47.3,"lng":13.5},{"id":3669,"name":"Uttendorf","lat":47.28333,"lng":12.56667},{"id":3678,"name":"Viehhausen","lat":47.78333,"lng":12.98333},{"id":3679,"name":"Viehhofen","lat":47.36667,"lng":12.73333},{"id":3682,"name":"Vigaun","lat":47.66667,"lng":13.13333},{"id":3711,"name":"Wagnergraben","lat":48.02036,"lng":13.02395},{"id":3713,"name":"Wagrain","lat":47.33528,"lng":13.29889},{"id":3723,"name":"Walchen","lat":47.28822,"lng":12.68739},{"id":3726,"name":"Wald im Pinzgau","lat":47.25,"lng":12.23333},{"id":3734,"name":"Waldprechting","lat":47.9,"lng":13.11667},{"id":3740,"name":"Wals","lat":47.78333,"lng":12.96667},{"id":3741,"name":"Walserfeld","lat":47.79222,"lng":12.98},{"id":3792,"name":"Werfen","lat":47.47585,"lng":13.1902},{"id":3793,"name":"Werfenweng","lat":47.46204,"lng":13.25582},{"id":3868,"name":"Zederhaus","lat":47.1557,"lng":13.50576},{"id":3874,"name":"Zell am See","lat":47.32556,"lng":12.79444}]