[{"id":1623,"name":"Alberschwende","lat":47.45025,"lng":9.83152},{"id":1635,"name":"Altach","lat":47.35,"lng":9.65},{"id":1658,"name":"Andelsbuch","lat":47.41167,"lng":9.89326},{"id":1701,"name":"Au","lat":47.32176,"lng":9.98067},{"id":1712,"name":"Ausserbraz","lat":47.14875,"lng":9.90066},{"id":1747,"name":"Bartholomäberg","lat":47.092237,"lng":9.9076546},{"id":1749,"name":"Batschuns","lat":47.28306,"lng":9.65},{"id":1767,"name":"Bezau","lat":47.38478,"lng":9.90139},{"id":1773,"name":"Bildstein","lat":47.45,"lng":9.76667},{"id":1779,"name":"Bizau","lat":47.36906,"lng":9.92839},{"id":1783,"name":"Blons","lat":47.22327,"lng":9.83414},{"id":1784,"name":"Bludenz","lat":47.15476,"lng":9.82255},{"id":1785,"name":"Bludesch","lat":47.2,"lng":9.73306},{"id":1790,"name":"Brand","lat":47.10083,"lng":9.73722},{"id":1795,"name":"Bregenz","lat":47.50311,"lng":9.7471},{"id":1827,"name":"Bürs","lat":47.14972,"lng":9.8},{"id":1828,"name":"Bürserberg","lat":47.14644,"lng":9.77736},{"id":1829,"name":"Dalaas","lat":47.12446,"lng":9.99104},{"id":1830,"name":"Damüls","lat":47.28034,"lng":9.89164},{"id":1861,"name":"Doren","lat":47.49278,"lng":9.87972},{"id":1865,"name":"Dornbirn","lat":47.41427,"lng":9.74195},{"id":1874,"name":"Düns","lat":47.22353,"lng":9.71663},{"id":1875,"name":"Dünserberg","lat":47.22752,"lng":9.72372},{"id":1907,"name":"Egg","lat":47.43154,"lng":9.89762},{"id":1918,"name":"Eichenberg","lat":47.53333,"lng":9.78333},{"id":1973,"name":"Feldkirch","lat":47.23306,"lng":9.6},{"id":2012,"name":"Frastanz","lat":47.21735,"lng":9.62995},{"id":2016,"name":"Fraxern","lat":47.31498,"lng":9.67391},{"id":2032,"name":"Fußach","lat":47.47933,"lng":9.66278},{"id":2045,"name":"Gaißau","lat":47.46667,"lng":9.6},{"id":2060,"name":"Gaschurn","lat":46.98584,"lng":10.02702},{"id":2184,"name":"Göfis","lat":47.23356,"lng":9.63458},{"id":2195,"name":"Götzis","lat":47.33306,"lng":9.63306},{"id":2151,"name":"Großdorf","lat":47.43361,"lng":9.91528},{"id":2229,"name":"Hard","lat":47.48306,"lng":9.68306},{"id":2293,"name":"Hirschegg","lat":47.34813,"lng":10.17137},{"id":2295,"name":"Hittisau","lat":47.45781,"lng":9.95962},{"id":2336,"name":"Höchst","lat":47.45934,"lng":9.6405},{"id":2316,"name":"Hohenems","lat":47.36667,"lng":9.68306},{"id":2320,"name":"Hohenweiler","lat":47.58333,"lng":9.78333},{"id":2342,"name":"Hörbranz","lat":47.55,"lng":9.75},{"id":2355,"name":"Innerbraz","lat":47.15,"lng":9.91667},{"id":2419,"name":"Kennelbach","lat":47.48306,"lng":9.76667},{"id":2447,"name":"Klaus","lat":47.30913,"lng":9.64678},{"id":2464,"name":"Klösterle","lat":47.13333,"lng":10.08333},{"id":2468,"name":"Koblach","lat":47.33306,"lng":9.6},{"id":2496,"name":"Krumbach","lat":47.48306,"lng":9.93583},{"id":2537,"name":"Langen","lat":47.51667,"lng":9.81667},{"id":2538,"name":"Langenegg","lat":47.46922,"lng":9.89744},{"id":2555,"name":"Lauterach","lat":47.47572,"lng":9.72941},{"id":2559,"name":"Lech","lat":47.20797,"lng":10.14184},{"id":2602,"name":"Lingenau","lat":47.45033,"lng":9.92166},{"id":2607,"name":"Lochau","lat":47.53333,"lng":9.75},{"id":2615,"name":"Lorüns","lat":47.1297982,"lng":9.8515421},{"id":2617,"name":"Ludesch","lat":47.2,"lng":9.78306},{"id":2621,"name":"Lustenau","lat":47.42642,"lng":9.65851},{"id":2739,"name":"Mäder","lat":47.35,"lng":9.61667},{"id":2687,"name":"Meiningen","lat":47.29891,"lng":9.57862},{"id":2690,"name":"Mellau","lat":47.35034,"lng":9.88149},{"id":2707,"name":"Mittelberg","lat":47.35127,"lng":10.17197},{"id":2741,"name":"Möggers","lat":47.56667,"lng":9.81667},{"id":2734,"name":"Muntlix","lat":47.28296,"lng":9.65939},{"id":2778,"name":"Nenzing","lat":47.18436,"lng":9.70539},{"id":2841,"name":"Nüziders","lat":47.16667,"lng":9.8},{"id":2989,"name":"Politischer Bezirk Bludenz","lat":47.15144,"lng":9.82452},{"id":2991,"name":"Politischer Bezirk Bregenz","lat":47.42069,"lng":9.91989},{"id":2995,"name":"Politischer Bezirk Dornbirn","lat":47.38349,"lng":9.7494},{"id":2997,"name":"Politischer Bezirk Feldkirch","lat":47.25535,"lng":9.5836},{"id":3127,"name":"Raggal","lat":47.21082,"lng":9.83688},{"id":3140,"name":"Rankweil","lat":47.27108,"lng":9.64308},{"id":3183,"name":"Reuthe","lat":47.37113,"lng":9.89481},{"id":3191,"name":"Riefensberg","lat":47.50137,"lng":9.95838},{"id":3195,"name":"Riezlern","lat":47.35778,"lng":10.18759},{"id":3224,"name":"Röns","lat":47.21667,"lng":9.7},{"id":3227,"name":"Röthis","lat":47.29332,"lng":9.65484},{"id":3244,"name":"Sankt Anton im Montafon","lat":47.11667,"lng":9.86667},{"id":3251,"name":"Sankt Gallenkirch","lat":47.02102,"lng":9.97335},{"id":3349,"name":"Satteins","lat":47.21667,"lng":9.66667},{"id":3378,"name":"Schlins","lat":47.2,"lng":9.7},{"id":3381,"name":"Schnepfau","lat":47.35206,"lng":9.9452},{"id":3382,"name":"Schnifis","lat":47.21667,"lng":9.73306},{"id":3383,"name":"Schoppernau","lat":47.31205,"lng":10.01646},{"id":3391,"name":"Schröcken","lat":47.25755,"lng":10.09197},{"id":3390,"name":"Schruns","lat":47.06667,"lng":9.91667},{"id":3395,"name":"Schwarzach","lat":47.44904,"lng":9.76213},{"id":3403,"name":"Schwarzenberg","lat":47.41415,"lng":9.85154},{"id":3448,"name":"Sibratsgfäll","lat":47.42667,"lng":10.03806},{"id":3458,"name":"Silbertal","lat":47.09368,"lng":9.98314},{"id":3497,"name":"Stallehr","lat":47.1407767,"lng":9.8570205},{"id":3561,"name":"Sulz","lat":47.28721,"lng":9.65183},{"id":3562,"name":"Sulzberg","lat":47.52178,"lng":9.91353},{"id":3597,"name":"Thüringen","lat":47.2,"lng":9.76667},{"id":3629,"name":"Tschagguns","lat":47.0766944,"lng":9.9028002},{"id":3900,"name":"Übersaxen","lat":47.25284,"lng":9.6708},{"id":3672,"name":"Vandans","lat":47.09569,"lng":9.86525},{"id":3683,"name":"Viktorsberg","lat":47.30092,"lng":9.67484},{"id":3749,"name":"Warth","lat":47.25,"lng":10.18333},{"id":3764,"name":"Weiler","lat":47.29972,"lng":9.65},{"id":3847,"name":"Wolfurt","lat":47.46667,"lng":9.75}]