[{"id":1600,"name":"Abfaltersbach","lat":46.75715,"lng":12.52828},{"id":1601,"name":"Absam","lat":47.29572,"lng":11.50593},{"id":1607,"name":"Achenkirch","lat":47.52659,"lng":11.70559},{"id":1620,"name":"Ainet","lat":46.86603,"lng":12.68968},{"id":1625,"name":"Aldrans","lat":47.25,"lng":11.45},{"id":1634,"name":"Alpbach","lat":47.39878,"lng":11.94373},{"id":1652,"name":"Amlach","lat":46.81639,"lng":12.76361},{"id":1653,"name":"Ampass","lat":47.26251,"lng":11.46226},{"id":1655,"name":"Amras","lat":47.25,"lng":11.41667},{"id":1662,"name":"Angath","lat":47.50758,"lng":12.06513},{"id":1665,"name":"Angerberg","lat":47.50563,"lng":12.03119},{"id":1669,"name":"Anras","lat":46.77389,"lng":12.56083},{"id":1683,"name":"Arzl","lat":47.28333,"lng":11.43333},{"id":1684,"name":"Arzl im Pitztal","lat":47.20712,"lng":10.76261},{"id":1687,"name":"Aschau","lat":47.26667,"lng":11.9},{"id":1688,"name":"Aschau im Zillertal","lat":47.26613,"lng":11.89536},{"id":1709,"name":"Aurach","lat":47.41223,"lng":12.42734},{"id":1713,"name":"Außervillgraten","lat":46.7875,"lng":12.43139},{"id":1714,"name":"Axams","lat":47.23111,"lng":11.27892},{"id":1727,"name":"Bad Häring","lat":47.51071,"lng":12.11912},{"id":1748,"name":"Barwies","lat":47.3,"lng":10.96667},{"id":1751,"name":"Baumkirchen","lat":47.3,"lng":11.56667},{"id":1766,"name":"Berwang","lat":47.40807,"lng":10.74735},{"id":1769,"name":"Biberwier","lat":47.38333,"lng":10.9},{"id":1770,"name":"Bichlbach","lat":47.42033,"lng":10.79042},{"id":1774,"name":"Birgitz","lat":47.23536,"lng":11.29922},{"id":1791,"name":"Brandenberg","lat":47.49053,"lng":11.89459},{"id":1797,"name":"Breitenbach am Inn","lat":47.47829,"lng":11.97372},{"id":1802,"name":"Breitenwang","lat":47.48713,"lng":10.7342},{"id":1804,"name":"Brixen im Thale","lat":47.45,"lng":12.25},{"id":1805,"name":"Brixlegg","lat":47.42942,"lng":11.87794},{"id":1807,"name":"Bruck am Ziller","lat":47.38998,"lng":11.85124},{"id":1817,"name":"Buch in Tirol","lat":47.37447,"lng":11.754},{"id":1831,"name":"Debant","lat":46.83333,"lng":12.81667},{"id":1872,"name":"Dölsach","lat":46.82833,"lng":12.84528},{"id":1880,"name":"Ebbs","lat":47.63333,"lng":12.21667},{"id":1881,"name":"Eben am Achensee","lat":47.4138,"lng":11.76138},{"id":1913,"name":"Ehenbichl","lat":47.46667,"lng":10.7},{"id":1915,"name":"Ehrwald","lat":47.4,"lng":10.91667},{"id":1928,"name":"Elbigenalp","lat":47.29041,"lng":10.43607},{"id":1930,"name":"Ellbögen","lat":47.16667,"lng":11.45},{"id":1931,"name":"Ellmau","lat":47.51378,"lng":12.29937},{"id":1932,"name":"Elmen","lat":47.34039,"lng":10.54318},{"id":1937,"name":"Endach","lat":47.56796,"lng":12.15603},{"id":1946,"name":"Erl","lat":47.68333,"lng":12.18333},{"id":1951,"name":"Erpfendorf","lat":47.58333,"lng":12.46667},{"id":1979,"name":"Fendels","lat":47.0539,"lng":10.67777},{"id":1984,"name":"Fieberbrunn","lat":47.47626,"lng":12.54347},{"id":1985,"name":"Fiecht","lat":47.35,"lng":11.7},{"id":1987,"name":"Finkenberg","lat":47.15279,"lng":11.82212},{"id":1993,"name":"Fiss","lat":47.05714,"lng":10.61747},{"id":1998,"name":"Flaurling","lat":47.29143,"lng":11.12319},{"id":1999,"name":"Fliess","lat":47.11667,"lng":10.61667},{"id":2000,"name":"Flirsch","lat":47.15,"lng":10.4},{"id":2004,"name":"Forchach","lat":47.41667,"lng":10.58333},{"id":2025,"name":"Fritzens","lat":47.30535,"lng":11.5895},{"id":2034,"name":"Fügen","lat":47.347,"lng":11.84939},{"id":2035,"name":"Fügenberg","lat":47.3521,"lng":11.84173},{"id":2028,"name":"Fulpmes","lat":47.15202,"lng":11.34922},{"id":2050,"name":"Gallzein","lat":47.36807,"lng":11.77159},{"id":2051,"name":"Galtür","lat":46.96667,"lng":10.18333},{"id":2076,"name":"Gerlos","lat":47.22464,"lng":12.03012},{"id":2077,"name":"Gerlosberg","lat":47.21667,"lng":11.93333},{"id":2096,"name":"Gnadenwald","lat":47.31667,"lng":11.56667},{"id":2101,"name":"Going","lat":47.51332,"lng":12.33164},{"id":2194,"name":"Götzens","lat":47.23606,"lng":11.31154},{"id":2116,"name":"Gramais","lat":47.26667,"lng":10.53333},{"id":2164,"name":"Grän","lat":47.5,"lng":10.55},{"id":2132,"name":"Gries am Brenner","lat":47.03849,"lng":11.48131},{"id":2133,"name":"Gries im Sellrain","lat":47.19554,"lng":11.15619},{"id":2137,"name":"Grins","lat":47.14034,"lng":10.51409},{"id":2138,"name":"Grinzens","lat":47.22927,"lng":11.25318},{"id":2170,"name":"Gschnitz","lat":47.04469,"lng":11.35089},{"id":2215,"name":"Haiming","lat":47.25,"lng":10.88333},{"id":2220,"name":"Hainzenberg","lat":47.21788,"lng":11.90034},{"id":2224,"name":"Hall in Tirol","lat":47.28333,"lng":11.51667},{"id":2237,"name":"Hart im Zillertal","lat":47.35106,"lng":11.86476},{"id":2335,"name":"Häselgehr","lat":47.31667,"lng":10.5},{"id":2245,"name":"Hatting","lat":47.2787,"lng":11.16838},{"id":2265,"name":"Heinfels","lat":46.75,"lng":12.45},{"id":2266,"name":"Heiterwang","lat":47.45,"lng":10.75},{"id":2289,"name":"Hippach","lat":47.20435,"lng":11.86523},{"id":2298,"name":"Hochfilzen","lat":47.46667,"lng":12.61667},{"id":2338,"name":"Höfen","lat":47.46667,"lng":10.68333},{"id":2326,"name":"Holzgau","lat":47.26045,"lng":10.34419},{"id":2328,"name":"Hopfgarten im Brixental","lat":47.4498,"lng":12.15659},{"id":2329,"name":"Hopfgarten in Defereggen","lat":46.91917,"lng":12.53639},{"id":2345,"name":"Hötting","lat":47.26815,"lng":11.36868},{"id":2350,"name":"Igls","lat":47.23127,"lng":11.41018},{"id":2353,"name":"Imst","lat":47.24504,"lng":10.73974},{"id":2354,"name":"Imsterberg","lat":47.20517,"lng":10.69605},{"id":2359,"name":"Innervillgraten","lat":46.81194,"lng":12.37472},{"id":2360,"name":"Innsbruck","lat":47.26266,"lng":11.39454},{"id":2361,"name":"Innsbruck Stadt","lat":47.28433,"lng":11.37706},{"id":2364,"name":"Inzing","lat":47.2737,"lng":11.19751},{"id":2368,"name":"Ischgl","lat":47.01257,"lng":10.29179},{"id":2369,"name":"Itter","lat":47.46667,"lng":12.13333},{"id":2376,"name":"Jenbach","lat":47.39173,"lng":11.77245},{"id":2378,"name":"Jerzens","lat":47.1512,"lng":10.74686},{"id":2379,"name":"Jochberg","lat":47.3792,"lng":12.41807},{"id":2384,"name":"Jungholz","lat":47.57409,"lng":10.44723},{"id":2393,"name":"Kaltenbach","lat":47.28333,"lng":11.86667},{"id":2401,"name":"Kapfing","lat":47.33333,"lng":11.85},{"id":2403,"name":"Kappl","lat":47.06667,"lng":10.38333},{"id":2406,"name":"Karres","lat":47.21667,"lng":10.78333},{"id":2407,"name":"Karrösten","lat":47.2254,"lng":10.76561},{"id":2408,"name":"Kartitsch","lat":46.72889,"lng":12.50083},{"id":2413,"name":"Kauns","lat":47.07822,"lng":10.69219},{"id":2417,"name":"Kematen in Tirol","lat":47.25,"lng":11.26667},{"id":2431,"name":"Kirchberg in Tirol","lat":47.44539,"lng":12.31602},{"id":2433,"name":"Kirchbichl","lat":47.51743,"lng":12.09629},{"id":2435,"name":"Kirchdorf in Tirol","lat":47.55626,"lng":12.44511},{"id":2443,"name":"Kitzbühel","lat":47.44637,"lng":12.39215},{"id":2472,"name":"Kolsass","lat":47.3,"lng":11.63333},{"id":2473,"name":"Kolsassberg","lat":47.2815,"lng":11.65289},{"id":2512,"name":"Kössen","lat":47.6699,"lng":12.40545},{"id":2481,"name":"Kramsach","lat":47.44312,"lng":11.87545},{"id":2503,"name":"Kufstein","lat":47.58333,"lng":12.16667},{"id":2507,"name":"Kundl","lat":47.46667,"lng":11.98333},{"id":2526,"name":"Ladis","lat":47.07459,"lng":10.64949},{"id":2530,"name":"Landeck","lat":47.13988,"lng":10.56593},{"id":2623,"name":"Längenfeld","lat":47.07398,"lng":10.96951},{"id":2548,"name":"Lans","lat":47.23833,"lng":11.43139},{"id":2557,"name":"Lavant","lat":46.79889,"lng":12.83806},{"id":2560,"name":"Lechaschau","lat":47.48804,"lng":10.70652},{"id":2565,"name":"Leisach","lat":46.8125,"lng":12.74861},{"id":2587,"name":"Lermoos","lat":47.40358,"lng":10.8807},{"id":2588,"name":"Leutasch","lat":47.3689,"lng":11.14404},{"id":2596,"name":"Lienz","lat":46.8289,"lng":12.76903},{"id":2655,"name":"Mariastein","lat":47.52772,"lng":12.05479},{"id":2656,"name":"Mariatal","lat":47.44788,"lng":11.8721},{"id":2667,"name":"Matrei am Brenner","lat":47.12794,"lng":11.45176},{"id":2668,"name":"Matrei in Osttirol","lat":47.0,"lng":12.53333},{"id":2677,"name":"Maurach","lat":47.42124,"lng":11.75305},{"id":2682,"name":"Mayrhofen","lat":47.16667,"lng":11.86667},{"id":2683,"name":"Medraz","lat":47.14256,"lng":11.34287},{"id":2699,"name":"Mieders","lat":47.16667,"lng":11.38333},{"id":2700,"name":"Mieming","lat":47.3412076,"lng":10.9656344},{"id":2703,"name":"Mils bei Imst","lat":47.20616,"lng":10.67485},{"id":2704,"name":"Mils bei Solbad Hall","lat":47.28333,"lng":11.53333},{"id":2715,"name":"Mitterndorf","lat":47.57728,"lng":12.16968},{"id":2750,"name":"Mötz","lat":47.28333,"lng":10.95},{"id":2751,"name":"Mühlau","lat":47.28333,"lng":11.4},{"id":2753,"name":"Mühlbachl","lat":47.13333,"lng":11.45},{"id":2762,"name":"Münster","lat":47.42164,"lng":11.83356},{"id":2737,"name":"Musau","lat":47.53195,"lng":10.67339},{"id":2738,"name":"Mutters","lat":47.23333,"lng":11.38333},{"id":2770,"name":"Namlos","lat":47.35,"lng":10.66667},{"id":2771,"name":"Nassereith","lat":47.31667,"lng":10.83333},{"id":2773,"name":"Natters","lat":47.23414,"lng":11.37342},{"id":2774,"name":"Nauders","lat":46.88859,"lng":10.50126},{"id":2779,"name":"Nesselwängle","lat":47.48333,"lng":10.61667},{"id":2815,"name":"Neustift im Stubaital","lat":47.11667,"lng":11.31667},{"id":2821,"name":"Niederau","lat":47.45,"lng":12.08333},{"id":2822,"name":"Niederbreitenbach","lat":47.53333,"lng":12.08333},{"id":2826,"name":"Niederndorf","lat":47.65,"lng":12.21667},{"id":2836,"name":"Nikolsdorf","lat":46.78583,"lng":12.91333},{"id":2846,"name":"Oberau","lat":47.44336,"lng":12.04891},{"id":2856,"name":"Oberhofen im Inntal","lat":47.3015166,"lng":11.0951619},{"id":2858,"name":"Oberlienz","lat":46.84722,"lng":12.73139},{"id":2860,"name":"Obermieming","lat":47.3064227,"lng":10.9772205},{"id":2861,"name":"Obernberg am Brenner","lat":47.01667,"lng":11.41667},{"id":2866,"name":"Oberndorf in Tirol","lat":47.5,"lng":12.38333},{"id":2869,"name":"Oberperfuss","lat":47.24451,"lng":11.24755},{"id":2877,"name":"Obertilliach","lat":46.71056,"lng":12.61444},{"id":2889,"name":"Obsteig","lat":47.3,"lng":10.93333},{"id":2893,"name":"Oetz","lat":47.2,"lng":10.9},{"id":3898,"name":"Ötztal-Bahnhof","lat":47.23333,"lng":10.85},{"id":2929,"name":"Patsch","lat":47.20527,"lng":11.4151},{"id":2949,"name":"Pettnau","lat":47.29204,"lng":11.15962},{"id":2950,"name":"Pettneu","lat":47.14595,"lng":10.33655},{"id":2953,"name":"Pfaffenhofen","lat":47.2987869,"lng":11.0830431},{"id":2958,"name":"Pflach","lat":47.51667,"lng":10.71667},{"id":2959,"name":"Pfons","lat":47.14201,"lng":11.46071},{"id":2960,"name":"Pfunds","lat":46.96667,"lng":10.55},{"id":2961,"name":"Pians","lat":47.13486,"lng":10.51237},{"id":2969,"name":"Pill","lat":47.32352,"lng":11.68018},{"id":3011,"name":"Politischer Bezirk Imst","lat":47.08333,"lng":10.86667},{"id":3012,"name":"Politischer Bezirk Innsbruck Land","lat":47.2,"lng":11.33333},{"id":3015,"name":"Politischer Bezirk Kitzbühel","lat":47.43333,"lng":12.38333},{"id":3019,"name":"Politischer Bezirk Kufstein","lat":47.5,"lng":12.03333},{"id":3020,"name":"Politischer Bezirk Landeck","lat":47.12575,"lng":10.56679},{"id":3023,"name":"Politischer Bezirk Lienz","lat":46.9,"lng":12.5},{"id":3038,"name":"Politischer Bezirk Reutte","lat":47.41667,"lng":10.55},{"id":3046,"name":"Politischer Bezirk Schwaz","lat":47.26667,"lng":11.76667},{"id":3064,"name":"Polling in Tirol","lat":47.28333,"lng":11.15},{"id":3072,"name":"Pradl","lat":47.26539,"lng":11.4152},{"id":3087,"name":"Prutz","lat":47.08333,"lng":10.66667},{"id":3124,"name":"Radfeld","lat":47.44806,"lng":11.91424},{"id":3135,"name":"Ramsau im Zillertal","lat":47.20383,"lng":11.87545},{"id":3138,"name":"Ranggen","lat":47.25727,"lng":11.2112},{"id":3150,"name":"Rattenberg","lat":47.43941,"lng":11.89407},{"id":3175,"name":"Reith bei Kitzbühel","lat":47.46667,"lng":12.35},{"id":3176,"name":"Reith bei Seefeld","lat":47.3,"lng":11.2},{"id":3177,"name":"Reith im Alpbachtal","lat":47.41694,"lng":11.87785},{"id":3180,"name":"Rettenschöss","lat":47.65718,"lng":12.26872},{"id":3184,"name":"Reutte","lat":47.48333,"lng":10.71667},{"id":3186,"name":"Ried im Oberinntal","lat":47.05,"lng":10.65},{"id":3188,"name":"Ried im Zillertal","lat":47.3,"lng":11.86667},{"id":3194,"name":"Rietz","lat":47.28593,"lng":11.03075},{"id":3196,"name":"Rinn","lat":47.25,"lng":11.5},{"id":3206,"name":"Rohrberg","lat":47.23333,"lng":11.91667},{"id":3209,"name":"Roppen","lat":47.21667,"lng":10.81667},{"id":3218,"name":"Rum","lat":47.28333,"lng":11.45},{"id":3271,"name":"Sankt Johann in Tirol","lat":47.5233,"lng":12.4232},{"id":3338,"name":"Sankt Ulrich am Pillersee","lat":47.5274,"lng":12.57239},{"id":3346,"name":"Sankt Veit in Defereggen","lat":46.92722,"lng":12.42972},{"id":3351,"name":"Sautens","lat":47.2,"lng":10.86667},{"id":3360,"name":"Scharnitz","lat":47.38899,"lng":11.26455},{"id":3363,"name":"Schattwald","lat":47.51427,"lng":10.46143},{"id":3365,"name":"Scheffau am Wilden Kaiser","lat":47.52943,"lng":12.25139},{"id":3372,"name":"Schlaiten","lat":46.87944,"lng":12.65417},{"id":3379,"name":"Schlitters","lat":47.38045,"lng":11.83888},{"id":3418,"name":"Schönberg im Stubaital","lat":47.18333,"lng":11.41667},{"id":3422,"name":"Schönwies","lat":47.19665,"lng":10.65742},{"id":3404,"name":"Schwaz","lat":47.35169,"lng":11.71014},{"id":3408,"name":"Schwendau","lat":47.19753,"lng":11.85897},{"id":3409,"name":"Schwendt","lat":47.63182,"lng":12.39266},{"id":3411,"name":"Schwoich","lat":47.546,"lng":12.14049},{"id":3427,"name":"See","lat":47.08333,"lng":10.46667},{"id":3431,"name":"Seefeld in Tirol","lat":47.33016,"lng":11.18786},{"id":3441,"name":"Sellrain","lat":47.21667,"lng":11.21667},{"id":3446,"name":"Serfaus","lat":47.04018,"lng":10.60339},{"id":3459,"name":"Sillian","lat":46.75278,"lng":12.42111},{"id":3460,"name":"Silz","lat":47.26667,"lng":10.93333},{"id":3463,"name":"Sistrans","lat":47.23333,"lng":11.45},{"id":3566,"name":"Sölden","lat":46.96667,"lng":11.0},{"id":3567,"name":"Söll","lat":47.50378,"lng":12.19221},{"id":3482,"name":"St Anton am Arlberg","lat":47.1275,"lng":10.26372},{"id":3501,"name":"Stams","lat":47.27603,"lng":10.98315},{"id":3502,"name":"Stans","lat":47.36667,"lng":11.71667},{"id":3503,"name":"Stanz bei Landeck","lat":47.14758,"lng":10.5534},{"id":3504,"name":"Stanzach","lat":47.38333,"lng":10.56667},{"id":3508,"name":"Steeg","lat":47.24393,"lng":10.29436},{"id":3513,"name":"Steinach am Brenner","lat":47.08333,"lng":11.46667},{"id":3540,"name":"Strass im Zillertal","lat":47.39556,"lng":11.81966},{"id":3541,"name":"Strassen","lat":46.75389,"lng":12.48417},{"id":3552,"name":"Strengen","lat":47.12589,"lng":10.46199},{"id":3558,"name":"Stumm","lat":47.29052,"lng":11.88755},{"id":3559,"name":"Stummerberg","lat":47.28333,"lng":11.91667},{"id":3571,"name":"Tannheim","lat":47.49934,"lng":10.51641},{"id":3572,"name":"Tarrenz","lat":47.26667,"lng":10.76667},{"id":3580,"name":"Telfes im Stubai","lat":47.16667,"lng":11.36667},{"id":3581,"name":"Telfs","lat":47.30707,"lng":11.06817},{"id":3582,"name":"Terfens","lat":47.32355,"lng":11.64388},{"id":3589,"name":"Thaur","lat":47.29476,"lng":11.47529},{"id":3595,"name":"Thurn","lat":46.85056,"lng":12.76861},{"id":3604,"name":"Tobadill","lat":47.12513,"lng":10.51404},{"id":3624,"name":"Trins","lat":47.08333,"lng":11.41667},{"id":3625,"name":"Tristach","lat":46.81611,"lng":12.78972},{"id":3632,"name":"Tulfes","lat":47.25806,"lng":11.53333},{"id":3636,"name":"Tux","lat":47.15559,"lng":11.72872},{"id":3639,"name":"Uderns","lat":47.31667,"lng":11.86667},{"id":3643,"name":"Umhausen","lat":47.13503,"lng":10.92826},{"id":3656,"name":"Unterlangkampfen","lat":47.55,"lng":12.1},{"id":3658,"name":"Unterperfuss","lat":47.26667,"lng":11.25},{"id":3663,"name":"Untertilliach","lat":46.70346,"lng":12.67758},{"id":3671,"name":"Vals","lat":47.04507,"lng":11.53281},{"id":3690,"name":"Vils","lat":47.55,"lng":10.63333},{"id":3691,"name":"Virgen","lat":47.00159,"lng":12.45661},{"id":3695,"name":"Volders","lat":47.28333,"lng":11.56667},{"id":3696,"name":"Voldöpp","lat":47.44469,"lng":11.88343},{"id":3708,"name":"Völs","lat":47.25,"lng":11.33333},{"id":3697,"name":"Vomp","lat":47.33333,"lng":11.68333},{"id":3700,"name":"Vorderhornbach","lat":47.37009,"lng":10.53947},{"id":3702,"name":"Vorderthiersee","lat":47.58333,"lng":12.1},{"id":3720,"name":"Waidring","lat":47.58333,"lng":12.56667},{"id":3724,"name":"Walchsee","lat":47.65163,"lng":12.31868},{"id":3853,"name":"Wängle","lat":47.48658,"lng":10.68995},{"id":3751,"name":"Wattenberg","lat":47.28333,"lng":11.6},{"id":3752,"name":"Wattens","lat":47.29419,"lng":11.5907},{"id":3753,"name":"Weer","lat":47.30375,"lng":11.64498},{"id":3754,"name":"Weerberg","lat":47.29841,"lng":11.66592},{"id":3770,"name":"Weissach","lat":47.57091,"lng":12.16255},{"id":3771,"name":"Weissenbach am Lech","lat":47.44162,"lng":10.64071},{"id":3790,"name":"Wenns","lat":47.16667,"lng":10.73333},{"id":3798,"name":"Westendorf","lat":47.43208,"lng":12.21406},{"id":3811,"name":"Wiesing","lat":47.40486,"lng":11.79708},{"id":3814,"name":"Wildermieming","lat":47.31667,"lng":11.01667},{"id":3816,"name":"Wildschönau","lat":47.40619,"lng":12.03784},{"id":3821,"name":"Wilten","lat":47.25829,"lng":11.38808},{"id":3857,"name":"Wörgl","lat":47.48906,"lng":12.06174},{"id":3867,"name":"Zams","lat":47.15844,"lng":10.5897},{"id":3871,"name":"Zell","lat":47.58333,"lng":12.15},{"id":3875,"name":"Zell am Ziller","lat":47.23333,"lng":11.88333},{"id":3879,"name":"Zellberg","lat":47.23333,"lng":11.85},{"id":3888,"name":"Zirl","lat":47.2741,"lng":11.23961},{"id":3896,"name":"Zöblen","lat":47.50772,"lng":10.47971}]