[{"id":79706,"name":"Baglung","lat":28.2771164,"lng":83.5435353},{"id":79709,"name":"Gorkha","lat":28.2734627,"lng":84.148777},{"id":79711,"name":"Kaski","lat":28.3457236,"lng":83.6598731},{"id":79720,"name":"Lamjung","lat":28.2830567,"lng":84.1110312},{"id":79721,"name":"Manang","lat":28.6687281,"lng":82.9968136},{"id":79730,"name":"Mustang","lat":28.9439987,"lng":82.6806739},{"id":79731,"name":"Myagdi","lat":28.5460986,"lng":83.1559775},{"id":79736,"name":"Nawalpur","lat":27.6531965,"lng":83.7244287},{"id":79738,"name":"Parbat","lat":28.2027643,"lng":83.3612186},{"id":79739,"name":"Syangja","lat":28.0450971,"lng":83.406127},{"id":79744,"name":"Tanahun","lat":27.9356556,"lng":83.9179311}]