[{"id":52414,"name":"Agrínio","lat":38.62139,"lng":21.40778},{"id":52522,"name":"Aígio","lat":38.24861,"lng":22.08194},{"id":52432,"name":"Aitolikó","lat":38.43704,"lng":21.35358},{"id":52523,"name":"Aíyira","lat":38.14846,"lng":22.35426},{"id":52437,"name":"Akráta","lat":38.15469,"lng":22.3183},{"id":52438,"name":"Aktaío","lat":38.30444,"lng":21.7944},{"id":52442,"name":"Alfeioúsa","lat":37.64019,"lng":21.5375},{"id":52447,"name":"Amaliáda","lat":37.79842,"lng":21.35068},{"id":52449,"name":"Amfilochía","lat":38.85944,"lng":21.16639},{"id":52463,"name":"Andravída","lat":37.90588,"lng":21.26936},{"id":52466,"name":"Angelókastro","lat":38.56585,"lng":21.29631},{"id":53391,"name":"Áno Kastrítsi","lat":38.27228,"lng":21.836},{"id":52474,"name":"Antirrio","lat":38.33014,"lng":21.76413},{"id":52482,"name":"Archaía Olympía","lat":37.64788,"lng":21.6271},{"id":52483,"name":"Archontochóri","lat":38.70053,"lng":21.03896},{"id":52495,"name":"Arkoúdi","lat":37.84681,"lng":21.11022},{"id":52509,"name":"Astakós","lat":38.53556,"lng":21.08135},{"id":53411,"name":"Áyios Konstandínos","lat":38.63337,"lng":21.3995},{"id":52525,"name":"Chalandrítsa","lat":38.10843,"lng":21.78349},{"id":52542,"name":"Chávari","lat":37.84842,"lng":21.38403},{"id":52550,"name":"Dhokímion","lat":38.61352,"lng":21.38072},{"id":52588,"name":"Epitálio","lat":37.62675,"lng":21.49528},{"id":52614,"name":"Fyteíes","lat":38.69524,"lng":21.18467},{"id":52622,"name":"Galatás","lat":38.35742,"lng":21.56222},{"id":52629,"name":"Gastoúni","lat":37.85,"lng":21.25},{"id":52630,"name":"Gavaloú","lat":38.52903,"lng":21.53226},{"id":52640,"name":"Goúmero","lat":37.76236,"lng":21.61853},{"id":52672,"name":"Kainoúryion","lat":38.60453,"lng":21.48776},{"id":52688,"name":"Kalávryta","lat":38.03222,"lng":22.1125},{"id":52699,"name":"Kamárai","lat":38.29881,"lng":21.99892},{"id":52702,"name":"Kandíla","lat":38.70564,"lng":20.94749},{"id":52720,"name":"Karátoula","lat":37.73564,"lng":21.53578},{"id":52707,"name":"Kardamás","lat":37.76729,"lng":21.33946},{"id":52805,"name":"Káto Achaḯa","lat":38.15,"lng":21.55},{"id":52813,"name":"Káto Mazaráki","lat":38.07035,"lng":21.65097},{"id":52731,"name":"Katochí","lat":38.41237,"lng":21.25258},{"id":52732,"name":"Katoúna","lat":38.78547,"lng":21.11417},{"id":52736,"name":"Kavásila","lat":37.87581,"lng":21.26422},{"id":52791,"name":"Kréstena","lat":37.59193,"lng":21.62034},{"id":52792,"name":"Kríkellos","lat":38.94532,"lng":21.1791},{"id":52795,"name":"Kyllíni","lat":37.93542,"lng":21.14503},{"id":52873,"name":"Lálas","lat":37.70936,"lng":21.72117},{"id":52874,"name":"Lápas","lat":38.09755,"lng":21.41861},{"id":52839,"name":"Lechainá","lat":37.93333,"lng":21.26667},{"id":52846,"name":"Lepenoú","lat":38.70839,"lng":21.2897},{"id":52854,"name":"Limnokhórion","lat":38.14115,"lng":21.48047},{"id":52890,"name":"Makrísia","lat":37.60957,"lng":21.60509},{"id":52896,"name":"Manoláda","lat":38.04708,"lng":21.34814},{"id":52905,"name":"Mataránga","lat":38.52359,"lng":21.47325},{"id":52914,"name":"Megáli Khóra","lat":38.64629,"lng":21.37309},{"id":52925,"name":"Menídi","lat":39.04213,"lng":21.11875},{"id":52928,"name":"Mesolóngi","lat":38.37138,"lng":21.43151},{"id":52936,"name":"Mindilóglion","lat":38.18387,"lng":21.70133},{"id":52941,"name":"Monastiráki","lat":38.85053,"lng":20.94458},{"id":52951,"name":"Myrsíni","lat":37.92117,"lng":21.237},{"id":52994,"name":"Náfpaktos","lat":38.39167,"lng":21.8275},{"id":53018,"name":"Néa Manoláda","lat":38.05378,"lng":21.38189},{"id":52974,"name":"Neápolis","lat":38.67144,"lng":21.36274},{"id":52968,"name":"Neochóri","lat":37.90794,"lng":21.20392},{"id":52969,"name":"Neochórion","lat":38.40847,"lng":21.27511},{"id":52978,"name":"Nomós Achaḯas","lat":38.0,"lng":22.0},{"id":52979,"name":"Nomós Aitolías kai Akarnanías","lat":38.5,"lng":21.5},{"id":52984,"name":"Nomós Ileías","lat":37.75,"lng":21.58333},{"id":53067,"name":"Ovriá","lat":38.18866,"lng":21.72903},{"id":53162,"name":"Pálairos","lat":38.783,"lng":20.88183},{"id":53085,"name":"Panaitólion","lat":38.58316,"lng":21.44729},{"id":53087,"name":"Pappadhátai","lat":38.52816,"lng":21.45016},{"id":53090,"name":"Paralía","lat":38.19833,"lng":21.70263},{"id":53098,"name":"Paravóla","lat":38.61472,"lng":21.52046},{"id":53169,"name":"Pátra","lat":38.24444,"lng":21.73444},{"id":53104,"name":"Pelópi","lat":37.67444,"lng":21.59344},{"id":53130,"name":"Plátanos","lat":37.66731,"lng":21.61108},{"id":53184,"name":"Pýrgos","lat":37.67513,"lng":21.44102},{"id":53200,"name":"Río","lat":38.29558,"lng":21.78504},{"id":53194,"name":"Rododáfni","lat":38.26976,"lng":22.04875},{"id":53199,"name":"Royítika","lat":38.18268,"lng":21.68414},{"id":53206,"name":"Sardínia","lat":38.89003,"lng":21.20619},{"id":53208,"name":"Savália","lat":37.82158,"lng":21.29425},{"id":53256,"name":"Stános","lat":38.80453,"lng":21.17461},{"id":53261,"name":"Sylivainiótika","lat":38.16139,"lng":22.33156},{"id":53262,"name":"Synoikismós Chavaríou","lat":37.85575,"lng":21.38789},{"id":53301,"name":"Témeni","lat":38.23707,"lng":22.12533},{"id":53284,"name":"Thérmo","lat":38.57358,"lng":21.66628},{"id":53288,"name":"Triandaíika","lat":38.6553,"lng":21.38315},{"id":53339,"name":"Várda","lat":38.03058,"lng":21.36506},{"id":53309,"name":"Vartholomió","lat":37.86219,"lng":21.20575},{"id":53310,"name":"Varvásaina","lat":37.67106,"lng":21.49886},{"id":53346,"name":"Vónitsa","lat":38.91639,"lng":20.88639},{"id":53332,"name":"Vrachnaíika","lat":38.16253,"lng":21.66693},{"id":53356,"name":"Zacháro","lat":37.48333,"lng":21.65}]