[{"id":52399,"name":"Acharnés","lat":38.08333,"lng":23.73333},{"id":52402,"name":"Aegina","lat":37.74667,"lng":23.4275},{"id":52403,"name":"Afidnés","lat":38.20332,"lng":23.83982},{"id":52406,"name":"Aghios Panteleímon","lat":38.11643,"lng":23.98182},{"id":52421,"name":"Agía Paraskeví","lat":38.01667,"lng":23.83333},{"id":52426,"name":"Agía Varvára","lat":37.98938,"lng":23.66011},{"id":53370,"name":"Ágioi Anárgyroi","lat":38.03013,"lng":23.72379},{"id":52407,"name":"Agios Dimitrios","lat":37.93333,"lng":23.73333},{"id":52408,"name":"Agios Dimítrios Kropiás","lat":37.80612,"lng":23.85793},{"id":52410,"name":"Agios Ioannis Rentis","lat":37.96491,"lng":23.66511},{"id":53385,"name":"Ágios Stéfanos","lat":38.14657,"lng":23.85608},{"id":52433,"name":"Aiánteio","lat":37.92135,"lng":23.45877},{"id":52430,"name":"Aigáleo","lat":37.98333,"lng":23.68333},{"id":53387,"name":"Álimos","lat":37.91033,"lng":23.72361},{"id":52454,"name":"Ampelákia","lat":37.95055,"lng":23.52803},{"id":52478,"name":"Anávyssos","lat":37.73414,"lng":23.94389},{"id":53394,"name":"Áno Liósia","lat":38.08333,"lng":23.7},{"id":52468,"name":"Anoixi","lat":38.13267,"lng":23.85874},{"id":52470,"name":"Anthoúsa","lat":38.02544,"lng":23.87617},{"id":52487,"name":"Argithéa","lat":37.97506,"lng":23.88556},{"id":52490,"name":"Argyroúpoli","lat":37.90594,"lng":23.75035},{"id":52500,"name":"Artémida","lat":37.96727,"lng":23.99684},{"id":52508,"name":"Asprópyrgos","lat":38.06134,"lng":23.58971},{"id":52515,"name":"Athens","lat":37.98376,"lng":23.72784},{"id":52518,"name":"Avlónas","lat":38.25149,"lng":23.69554},{"id":53409,"name":"Áyioi Apóstoloi","lat":38.29169,"lng":23.91011},{"id":52532,"name":"Chaïdári","lat":38.01135,"lng":23.66597},{"id":52534,"name":"Cholargós","lat":38.0,"lng":23.8},{"id":52549,"name":"Dhafní","lat":37.95002,"lng":23.73437},{"id":52552,"name":"Dhráfi","lat":38.02375,"lng":23.90788},{"id":52557,"name":"Dióni","lat":38.02328,"lng":23.93286},{"id":52558,"name":"Diónysos","lat":38.10458,"lng":23.87938},{"id":52561,"name":"Drapetsóna","lat":37.94988,"lng":23.62309},{"id":52563,"name":"Drosiá","lat":38.11977,"lng":23.86428},{"id":52575,"name":"Ekáli","lat":38.11035,"lng":23.83505},{"id":52577,"name":"Elefsína","lat":38.04135,"lng":23.54295},{"id":52581,"name":"Ellinikó","lat":37.89013,"lng":23.74406},{"id":52591,"name":"Erythrés","lat":38.21741,"lng":23.32234},{"id":52604,"name":"Filothéi","lat":38.02524,"lng":23.78257},{"id":52613,"name":"Fylí","lat":38.10235,"lng":23.66901},{"id":52624,"name":"Galatás","lat":37.49618,"lng":23.44886},{"id":52627,"name":"Galátsi","lat":38.01667,"lng":23.75},{"id":52653,"name":"Gérakas","lat":38.02277,"lng":23.8576},{"id":52638,"name":"Glyfáda","lat":37.86289,"lng":23.75802},{"id":52644,"name":"Grammatikó","lat":38.20251,"lng":23.96504},{"id":53421,"name":"Ílion","lat":38.03333,"lng":23.7},{"id":52662,"name":"Ilioúpoli","lat":37.93149,"lng":23.76779},{"id":52665,"name":"Irákleio","lat":38.05282,"lng":23.76523},{"id":52674,"name":"Kaisarianí","lat":37.9634,"lng":23.76523},{"id":52802,"name":"Kálamos","lat":38.28447,"lng":23.86308},{"id":52681,"name":"Kallithéa","lat":37.95,"lng":23.7},{"id":52695,"name":"Kalývia Thorikoú","lat":37.83894,"lng":23.92505},{"id":52697,"name":"Kamaterón","lat":38.05586,"lng":23.70515},{"id":52705,"name":"Kapandríti","lat":38.21579,"lng":23.87938},{"id":52714,"name":"Karellás","lat":37.93445,"lng":23.86484},{"id":52817,"name":"Káto Soúlion","lat":38.16803,"lng":24.01628},{"id":52742,"name":"Keratéa","lat":37.80585,"lng":23.9774},{"id":52741,"name":"Keratsíni","lat":37.9625,"lng":23.61972},{"id":52744,"name":"Khalándrion","lat":38.02369,"lng":23.80068},{"id":52743,"name":"Khalkoútsion","lat":38.33263,"lng":23.73188},{"id":52746,"name":"Kifisiá","lat":38.07438,"lng":23.81106},{"id":52749,"name":"Kinéta","lat":37.96843,"lng":23.21351},{"id":52750,"name":"Kipséli","lat":38.00288,"lng":23.73755},{"id":52824,"name":"Kítsi","lat":37.85181,"lng":23.84068},{"id":52769,"name":"Koropí","lat":37.89886,"lng":23.87181},{"id":52770,"name":"Korydallós","lat":37.98468,"lng":23.64711},{"id":52779,"name":"Kouvarás","lat":37.82711,"lng":23.96715},{"id":52790,"name":"Kryonéri","lat":38.13712,"lng":23.83055},{"id":52799,"name":"Kypséli","lat":37.76021,"lng":23.45448},{"id":52830,"name":"Kýthira","lat":36.14955,"lng":22.98979},{"id":52877,"name":"Lávrio","lat":37.71445,"lng":24.05647},{"id":52844,"name":"Leondárion","lat":37.987,"lng":23.85518},{"id":52856,"name":"Limín Mesoyaías","lat":37.89108,"lng":24.00307},{"id":52871,"name":"Lykóvrysi","lat":38.06933,"lng":23.78223},{"id":52885,"name":"Magoúla","lat":38.07989,"lng":23.52108},{"id":52955,"name":"Mándra","lat":38.06667,"lng":23.5},{"id":52898,"name":"Marathónas","lat":38.15317,"lng":23.96278},{"id":52899,"name":"Markópoulo","lat":37.88333,"lng":23.93333},{"id":52900,"name":"Markópoulo Oropoú","lat":38.2898,"lng":23.82475},{"id":52902,"name":"Maroúsi","lat":38.05,"lng":23.8},{"id":52911,"name":"Megalochóri","lat":37.71051,"lng":23.34659},{"id":52956,"name":"Mégara","lat":37.99471,"lng":23.34324},{"id":52922,"name":"Melíssia","lat":38.05,"lng":23.83333},{"id":52931,"name":"Metamórfosi","lat":38.06576,"lng":23.76356},{"id":52943,"name":"Moskháton","lat":37.94789,"lng":23.6788},{"id":53004,"name":"Néa Chalkidóna","lat":38.0271,"lng":23.73051},{"id":53005,"name":"Néa Erythraía","lat":38.0927,"lng":23.82223},{"id":53006,"name":"Néa Filadélfeia","lat":38.03491,"lng":23.73811},{"id":53009,"name":"Néa Ionía","lat":38.0357,"lng":23.75733},{"id":53022,"name":"Néa Mákri","lat":38.08733,"lng":23.97642},{"id":53024,"name":"Néa Palátia","lat":38.31942,"lng":23.79649},{"id":53025,"name":"Néa Pentéli","lat":38.06059,"lng":23.85926},{"id":53030,"name":"Néa Péramos","lat":38.00647,"lng":23.42348},{"id":53034,"name":"Néa Smýrni","lat":37.94504,"lng":23.71416},{"id":53045,"name":"Néo Psychikó","lat":38.00624,"lng":23.78373},{"id":52970,"name":"Neos Voutzás","lat":38.04312,"lng":23.97749},{"id":53054,"name":"Níkaia","lat":37.96667,"lng":23.65},{"id":53065,"name":"Oropós","lat":38.30326,"lng":23.75549},{"id":53070,"name":"Paianía","lat":37.95527,"lng":23.85443},{"id":53076,"name":"Palaiá Fókaia","lat":37.71998,"lng":23.94792},{"id":53077,"name":"Palaió Fáliro","lat":37.92812,"lng":23.70105},{"id":53084,"name":"Pallíni","lat":38.00514,"lng":23.88302},{"id":53089,"name":"Papágou","lat":37.98642,"lng":23.79347},{"id":53171,"name":"Péfki","lat":38.06019,"lng":23.79264},{"id":53107,"name":"Pentéli","lat":38.05,"lng":23.86667},{"id":53175,"name":"Pérama","lat":37.96775,"lng":23.5721},{"id":53112,"name":"Peristéri","lat":38.01539,"lng":23.69187},{"id":53119,"name":"Petroúpolis","lat":38.04187,"lng":23.68494},{"id":53122,"name":"Pikérmi","lat":38.00161,"lng":23.94075},{"id":53123,"name":"Piraeus","lat":37.94203,"lng":23.64619},{"id":53132,"name":"Polydéndri","lat":38.216,"lng":23.86806},{"id":53180,"name":"Póros","lat":37.49944,"lng":23.45361},{"id":53155,"name":"Psychikó","lat":38.01324,"lng":23.77223},{"id":53186,"name":"Rafína","lat":38.01812,"lng":24.00599},{"id":53197,"name":"Rodópoli","lat":38.11669,"lng":23.87572},{"id":53204,"name":"Salamína","lat":37.96427,"lng":23.49649},{"id":53207,"name":"Saronída","lat":37.74809,"lng":23.91059},{"id":53211,"name":"Selínia","lat":37.9332,"lng":23.53147},{"id":53226,"name":"Skála Oropoú","lat":38.31964,"lng":23.78763},{"id":53220,"name":"Skarmagkás","lat":38.01133,"lng":23.60303},{"id":53242,"name":"Spáta","lat":37.96163,"lng":23.91514},{"id":53243,"name":"Spétses","lat":37.26191,"lng":23.15943},{"id":53245,"name":"Stamáta","lat":38.12546,"lng":23.88038},{"id":53300,"name":"Távros","lat":37.97064,"lng":23.69043},{"id":53280,"name":"Thrakomakedónes","lat":38.12964,"lng":23.75751},{"id":53340,"name":"Vári","lat":37.8332,"lng":23.80311},{"id":53308,"name":"Varnávas","lat":38.22358,"lng":23.92307},{"id":53311,"name":"Varybóbi","lat":38.12723,"lng":23.78729},{"id":53316,"name":"Vathý","lat":37.7642,"lng":23.48011},{"id":53344,"name":"Vília","lat":38.16716,"lng":23.33659},{"id":53325,"name":"Vlycháda","lat":38.02734,"lng":23.43663},{"id":53331,"name":"Voúla","lat":37.84221,"lng":23.77651},{"id":53329,"name":"Vouliagméni","lat":37.81423,"lng":23.77892},{"id":53334,"name":"Vraná","lat":38.12497,"lng":23.95198},{"id":53335,"name":"Vrilissia","lat":38.03381,"lng":23.82962},{"id":53347,"name":"Výronas","lat":37.96105,"lng":23.753},{"id":53424,"name":"Ýdra","lat":37.34976,"lng":23.4656},{"id":53355,"name":"Ymittos","lat":37.95342,"lng":23.74897},{"id":53360,"name":"Zefyri","lat":38.06647,"lng":23.71701},{"id":53363,"name":"Zográfos","lat":37.97574,"lng":23.76911}]