[{"id":53367,"name":"Ádendro","lat":40.67131,"lng":22.60466},{"id":53368,"name":"Áfytos","lat":40.09915,"lng":23.4367},{"id":52422,"name":"Agía Paraskeví","lat":40.4815,"lng":23.04863},{"id":52425,"name":"Agía Triáda","lat":40.50003,"lng":22.87351},{"id":53369,"name":"Ágio Pnévma","lat":41.10142,"lng":23.67992},{"id":53374,"name":"Ágios Athanásios","lat":40.71598,"lng":22.72841},{"id":53377,"name":"Ágios Geórgios","lat":40.60215,"lng":22.1943},{"id":53378,"name":"Ágios Loukás","lat":40.71799,"lng":22.29545},{"id":53381,"name":"Ágios Nikólaos","lat":40.24926,"lng":23.69616},{"id":53382,"name":"Ágios Pávlos","lat":40.64075,"lng":22.96039},{"id":53383,"name":"Ágios Pétros","lat":40.86725,"lng":22.58298},{"id":53384,"name":"Ágios Spyrídon","lat":40.20778,"lng":22.44311},{"id":53386,"name":"Ágios Vasíleios","lat":40.66424,"lng":23.11373},{"id":154232,"name":"Agiou Pavlou","lat":40.160417,"lng":24.2882986},{"id":52411,"name":"Agkathiá","lat":40.55535,"lng":22.47083},{"id":52431,"name":"Aigínio","lat":40.50139,"lng":22.54},{"id":52436,"name":"Akrolímni","lat":40.6802,"lng":22.2645},{"id":52441,"name":"Alexándreia","lat":40.62667,"lng":22.44417},{"id":52443,"name":"Alistráti","lat":41.06443,"lng":23.95751},{"id":52453,"name":"Ampeleíes","lat":40.83417,"lng":22.38767},{"id":52455,"name":"Ampelókipoi","lat":40.65304,"lng":22.92624},{"id":52461,"name":"Anatolikó","lat":40.66152,"lng":22.7119},{"id":52465,"name":"Angelochóri","lat":40.67862,"lng":22.19933},{"id":53397,"name":"Ápsalos","lat":40.8924,"lng":22.05709},{"id":52481,"name":"Aravissós","lat":40.84352,"lng":22.30178},{"id":52492,"name":"Aridaía","lat":40.97306,"lng":22.05639},{"id":52496,"name":"Arnaía","lat":40.48652,"lng":23.59537},{"id":53402,"name":"Árnissa","lat":40.79555,"lng":21.83577},{"id":52498,"name":"Arsénio","lat":40.71412,"lng":22.15923},{"id":52503,"name":"Askós","lat":40.75105,"lng":23.38721},{"id":52506,"name":"Asproválta","lat":40.73049,"lng":23.7118},{"id":53404,"name":"Ássiros","lat":40.82143,"lng":23.03008},{"id":52511,"name":"Asvestochóri","lat":40.64125,"lng":23.02528},{"id":53407,"name":"Áthyra","lat":40.82615,"lng":22.59279},{"id":52519,"name":"Axioúpoli","lat":40.98582,"lng":22.54165},{"id":52520,"name":"Axós","lat":40.80223,"lng":22.36158},{"id":52529,"name":"Chalástra","lat":40.62643,"lng":22.73291},{"id":52526,"name":"Chalkidóna","lat":40.73184,"lng":22.59992},{"id":52531,"name":"Charopó","lat":41.26031,"lng":23.37279},{"id":52536,"name":"Chortiátis","lat":40.60954,"lng":23.10014},{"id":52540,"name":"Chrysó","lat":41.05806,"lng":23.65108},{"id":52537,"name":"Chrysochórafa","lat":41.18097,"lng":23.23551},{"id":52553,"name":"Diavatá","lat":40.68744,"lng":22.85799},{"id":52554,"name":"Diavatós","lat":40.54606,"lng":22.26686},{"id":52569,"name":"Díon","lat":40.17169,"lng":22.48463},{"id":154233,"name":"Dionysiou","lat":40.1682855,"lng":24.2718839},{"id":154239,"name":"Docheiariou","lat":40.2679135,"lng":24.1641472},{"id":52562,"name":"Dravískos","lat":40.92393,"lng":23.87119},{"id":52564,"name":"Drymós","lat":40.78099,"lng":22.95889},{"id":53416,"name":"Édessa","lat":40.8026,"lng":22.04751},{"id":52572,"name":"Efkarpía","lat":40.68797,"lng":22.95348},{"id":52573,"name":"Eirinoúpoli","lat":40.67806,"lng":22.19278},{"id":52586,"name":"Epanomí","lat":40.42614,"lng":22.92782},{"id":52587,"name":"Episkopí","lat":40.68748,"lng":22.1364},{"id":154243,"name":"Esphigmenou","lat":40.3526124,"lng":24.1355338},{"id":53419,"name":"Évosmos","lat":40.67056,"lng":22.90833},{"id":52594,"name":"Evropós","lat":40.89703,"lng":22.55277},{"id":52597,"name":"Exaplátanos","lat":40.97643,"lng":22.12958},{"id":52618,"name":"Fíliro","lat":40.69151,"lng":23.0046},{"id":52621,"name":"Galatádes","lat":40.7559,"lng":22.28062},{"id":52626,"name":"Galátista","lat":40.4682,"lng":23.28015},{"id":52649,"name":"Gázoros","lat":41.02557,"lng":23.77574},{"id":52651,"name":"Géfyra","lat":40.73253,"lng":22.69359},{"id":52634,"name":"Gerakaroú","lat":40.62666,"lng":23.21566},{"id":52637,"name":"Giannitsá","lat":40.79194,"lng":22.4075},{"id":52639,"name":"Gouménissa","lat":40.94604,"lng":22.44974},{"id":154242,"name":"Hilandar","lat":40.3400108,"lng":24.1180966},{"id":52658,"name":"Ierissós","lat":40.39748,"lng":23.87505},{"id":52664,"name":"Irákleia","lat":41.18217,"lng":23.28243},{"id":154248,"name":"Iviron","lat":40.2460732,"lng":24.2823018},{"id":52687,"name":"Kalá Déndra","lat":41.09941,"lng":23.42396},{"id":52675,"name":"Kalamariá","lat":40.5825,"lng":22.95028},{"id":52689,"name":"Kalí","lat":40.81931,"lng":22.17761},{"id":52682,"name":"Kallithéa","lat":40.07374,"lng":23.44637},{"id":52685,"name":"Kalochóri","lat":40.64189,"lng":22.85734},{"id":52693,"name":"Kalýves Polygýrou","lat":40.28659,"lng":23.39033},{"id":52694,"name":"Kalývia","lat":40.75508,"lng":22.21753},{"id":52698,"name":"Kampánis","lat":40.88951,"lng":22.91682},{"id":154250,"name":"Karakallou","lat":40.2234118,"lng":24.306265},{"id":52711,"name":"Kardiá","lat":40.46909,"lng":22.99378},{"id":52721,"name":"Karítsa","lat":40.18745,"lng":22.48171},{"id":52719,"name":"Karyótissa","lat":40.76915,"lng":22.31331},{"id":52722,"name":"Kassándreia","lat":40.04835,"lng":23.41362},{"id":52730,"name":"Kateríni","lat":40.26956,"lng":22.50608},{"id":52810,"name":"Káto Kamíla","lat":41.02119,"lng":23.48336},{"id":52812,"name":"Káto Lipochóri","lat":40.75754,"lng":22.17962},{"id":52814,"name":"Káto Miliá","lat":40.25403,"lng":22.34342},{"id":52816,"name":"Káto Scholári","lat":40.42906,"lng":23.02978},{"id":52734,"name":"Kavallári","lat":40.71539,"lng":23.04588},{"id":52747,"name":"Kilkís","lat":40.99302,"lng":22.87433},{"id":52823,"name":"Kítros","lat":40.37399,"lng":22.57862},{"id":52752,"name":"Kleidí","lat":40.56632,"lng":22.59033},{"id":52782,"name":"Koímisi","lat":41.21282,"lng":23.30035},{"id":52758,"name":"Kolchikón","lat":40.75662,"lng":23.13377},{"id":52759,"name":"Kolindrós","lat":40.47888,"lng":22.48319},{"id":154240,"name":"Konstamonitou","lat":40.2886739,"lng":24.1723228},{"id":52764,"name":"Kontariótissa","lat":40.22754,"lng":22.461},{"id":52767,"name":"Kopanós","lat":40.63382,"lng":22.12893},{"id":52768,"name":"Korinós","lat":40.31659,"lng":22.58817},{"id":52771,"name":"Koryfí","lat":40.60286,"lng":22.50681},{"id":52775,"name":"Koufália","lat":40.77778,"lng":22.57194},{"id":52776,"name":"Kouloúra","lat":40.54652,"lng":22.31795},{"id":154247,"name":"Koutloumousiou","lat":40.2531634,"lng":24.2452006},{"id":52786,"name":"Krithiá","lat":40.84184,"lng":22.98292},{"id":52794,"name":"Krýa Vrýsi","lat":40.68738,"lng":22.30516},{"id":52828,"name":"Kýmina","lat":40.61354,"lng":22.69278},{"id":52832,"name":"Lagkadás","lat":40.75,"lng":23.06667},{"id":52833,"name":"Lagyná","lat":40.72351,"lng":23.0042},{"id":52872,"name":"Lákkoma","lat":40.39139,"lng":23.05578},{"id":52843,"name":"Lefkónas","lat":41.10029,"lng":23.49658},{"id":52847,"name":"Leptokaryá","lat":40.06032,"lng":22.5612},{"id":52850,"name":"Lianovérgi","lat":40.63526,"lng":22.5082},{"id":52858,"name":"Lití","lat":40.74533,"lng":22.97982},{"id":52859,"name":"Litóchoro","lat":40.10056,"lng":22.49778},{"id":52881,"name":"Lófos","lat":40.24395,"lng":22.38033},{"id":52868,"name":"Loutráki","lat":40.97116,"lng":21.94659},{"id":52869,"name":"Loutrós","lat":40.58873,"lng":22.39976},{"id":52888,"name":"Makrochóri","lat":40.55125,"lng":22.24955},{"id":52891,"name":"Makrýgialos","lat":40.41551,"lng":22.60392},{"id":52954,"name":"Mándalo","lat":40.85677,"lng":22.21264},{"id":52904,"name":"Marína","lat":40.692,"lng":22.10099},{"id":52908,"name":"Mavrothálassa","lat":40.89427,"lng":23.75048},{"id":52909,"name":"Mavrovoúni","lat":40.78243,"lng":22.15629},{"id":52915,"name":"Megáli Panagía","lat":40.44505,"lng":23.67999},{"id":154251,"name":"Megisti Lavra","lat":40.1708291,"lng":24.3801444},{"id":52920,"name":"Melíki","lat":40.51685,"lng":22.39599},{"id":52921,"name":"Melíssi","lat":40.77406,"lng":22.35304},{"id":52919,"name":"Melissochóri","lat":40.76796,"lng":22.92858},{"id":52924,"name":"Meneméni","lat":40.65829,"lng":22.89712},{"id":52927,"name":"Mesiméri","lat":40.41344,"lng":23.0075},{"id":52934,"name":"Mikró Monastíri","lat":40.7043,"lng":22.54112},{"id":52937,"name":"Mitroúsi","lat":41.07041,"lng":23.46064},{"id":52996,"name":"Náousa","lat":40.62944,"lng":22.06806},{"id":53002,"name":"Néa Apollonía","lat":40.62558,"lng":23.44074},{"id":53042,"name":"Néa Éfesos","lat":40.22923,"lng":22.49811},{"id":53007,"name":"Néa Flogitá","lat":40.26108,"lng":23.22107},{"id":53008,"name":"Néa Fókaia","lat":40.13333,"lng":23.39754},{"id":53012,"name":"Néa Kallikráteia","lat":40.31312,"lng":23.06343},{"id":53017,"name":"Néa Magnisía","lat":40.68785,"lng":22.84582},{"id":53023,"name":"Néa Málgara","lat":40.60985,"lng":22.68196},{"id":53019,"name":"Néa Mesimvría","lat":40.75158,"lng":22.76904},{"id":53020,"name":"Néa Michanióna","lat":40.46371,"lng":22.8617},{"id":53021,"name":"Néa Moudhaniá","lat":40.2439,"lng":23.28484},{"id":53029,"name":"Néa Pélla","lat":40.76516,"lng":22.49173},{"id":53026,"name":"Néa Plágia","lat":40.26537,"lng":23.20376},{"id":53027,"name":"Néa Poteídaia","lat":40.19409,"lng":23.32832},{"id":53028,"name":"Néa Potídhaia","lat":40.19428,"lng":23.32874},{"id":53032,"name":"Néa Róda","lat":40.38119,"lng":23.92374},{"id":53036,"name":"Néa Sánta","lat":40.84084,"lng":22.92163},{"id":53037,"name":"Néa Tríglia","lat":40.30575,"lng":23.2066},{"id":53039,"name":"Néa Vrasná","lat":40.70592,"lng":23.6985},{"id":53041,"name":"Néa Zíchni","lat":41.03204,"lng":23.8287},{"id":52961,"name":"Neapoli","lat":40.6532,"lng":22.94156},{"id":53043,"name":"Néo Agionéri","lat":40.80826,"lng":22.70733},{"id":53044,"name":"Néo Petrítsi","lat":41.27459,"lng":23.29381},{"id":53046,"name":"Néo Rýsi","lat":40.49605,"lng":22.98794},{"id":53047,"name":"Néo Soúli","lat":41.09397,"lng":23.64376},{"id":52966,"name":"Neochóri","lat":41.05231,"lng":23.57997},{"id":52963,"name":"Neochoroúda","lat":40.73817,"lng":22.87557},{"id":53048,"name":"Néoi Epivátes","lat":40.49863,"lng":22.91192},{"id":53050,"name":"Néos Marmarás","lat":40.0961,"lng":23.78323},{"id":53051,"name":"Néos Mylótopos","lat":40.81872,"lng":22.35489},{"id":53053,"name":"Néos Skopós","lat":41.0239,"lng":23.60927},{"id":52975,"name":"Nigríta","lat":40.90528,"lng":23.49944},{"id":53055,"name":"Níkiti","lat":40.22204,"lng":23.66837},{"id":52977,"name":"Nisí","lat":40.6361,"lng":22.38884},{"id":52981,"name":"Nomós Chalkidikís","lat":40.41667,"lng":23.5},{"id":52990,"name":"Nomós Péllis","lat":40.83333,"lng":22.25},{"id":52992,"name":"Nomós Thessaloníkis","lat":40.66667,"lng":23.0},{"id":53423,"name":"Ólynthos","lat":40.29147,"lng":23.34205},{"id":53059,"name":"Oraiókastro","lat":40.73083,"lng":22.91722},{"id":53063,"name":"Ormýlia","lat":40.29451,"lng":23.54332},{"id":154234,"name":"Osiou Gregoriou","lat":40.1955136,"lng":24.1974812},{"id":53066,"name":"Ouranoupolis","lat":40.33333,"lng":23.98333},{"id":53082,"name":"Palaífyto","lat":40.78283,"lng":22.27388},{"id":53072,"name":"Palaiochóri","lat":40.49186,"lng":23.64928},{"id":53073,"name":"Palaiokómi","lat":40.87068,"lng":23.90121},{"id":53086,"name":"Panórama","lat":40.58779,"lng":23.0315},{"id":154245,"name":"Pantokratoros","lat":40.2791829,"lng":24.2339853},{"id":53091,"name":"Paralía","lat":40.2671,"lng":22.59615},{"id":53100,"name":"Patrída","lat":40.56071,"lng":22.18545},{"id":53170,"name":"Péfka","lat":40.65806,"lng":22.99378},{"id":53102,"name":"Pefkochóri","lat":39.98784,"lng":23.61219},{"id":53172,"name":"Pélla","lat":40.76169,"lng":22.52637},{"id":53106,"name":"Pentálofos","lat":40.74296,"lng":22.85256},{"id":53105,"name":"Pentaplátano","lat":40.81902,"lng":22.41903},{"id":53110,"name":"Peraía","lat":40.49874,"lng":22.92617},{"id":53116,"name":"Perístasi","lat":40.27443,"lng":22.54164},{"id":53111,"name":"Peristerá","lat":40.54881,"lng":23.1654},{"id":154249,"name":"Philotheou","lat":40.2256458,"lng":24.2886713},{"id":53125,"name":"Plagiári","lat":40.47276,"lng":22.9579},{"id":53128,"name":"Platý","lat":40.64241,"lng":22.53458},{"id":53134,"name":"Políchni","lat":40.66671,"lng":22.94881},{"id":53135,"name":"Polýgyros","lat":40.37704,"lng":23.44135},{"id":53133,"name":"Polykárpi","lat":40.92598,"lng":22.01634},{"id":53136,"name":"Polýkastro","lat":40.99444,"lng":22.56909},{"id":53137,"name":"Pontisméno","lat":41.20885,"lng":23.28325},{"id":53139,"name":"Portariá","lat":40.28405,"lng":23.29549},{"id":53151,"name":"Próchoma","lat":40.79826,"lng":22.66659},{"id":53143,"name":"Profítis Ilías","lat":40.81373,"lng":22.16166},{"id":53152,"name":"Prómachoi","lat":41.02517,"lng":22.00437},{"id":53153,"name":"Próti","lat":40.94411,"lng":24.00118},{"id":53146,"name":"Provatás","lat":41.06825,"lng":23.3903},{"id":53158,"name":"Pylaía","lat":40.59918,"lng":22.98613},{"id":53188,"name":"Ritíni","lat":40.28835,"lng":22.28361},{"id":53189,"name":"Rizári","lat":40.78373,"lng":22.088},{"id":53190,"name":"Rizó","lat":40.73331,"lng":22.13674},{"id":53191,"name":"Rizómata","lat":40.35061,"lng":22.21079},{"id":53195,"name":"Rodolívos","lat":40.92055,"lng":23.97489},{"id":53265,"name":"Sárti","lat":40.09369,"lng":23.97859},{"id":53268,"name":"Sérres","lat":41.08499,"lng":23.54757},{"id":53212,"name":"Sevastianá","lat":40.76874,"lng":22.12346},{"id":53213,"name":"Sfendámi","lat":40.41307,"lng":22.54677},{"id":53214,"name":"Sidirókastro","lat":41.23499,"lng":23.38899},{"id":53270,"name":"Símantra","lat":40.34563,"lng":23.31026},{"id":154235,"name":"Simonopetra","lat":40.1908988,"lng":24.2447271},{"id":53271,"name":"Síndos","lat":40.67045,"lng":22.80545},{"id":53222,"name":"Skotoússa","lat":41.12844,"lng":23.38174},{"id":53223,"name":"Skoútari","lat":41.01871,"lng":23.51971},{"id":53228,"name":"Skýdra","lat":40.76722,"lng":22.15194},{"id":53231,"name":"Sochós","lat":40.81788,"lng":23.35546},{"id":53234,"name":"Sosándra","lat":40.99894,"lng":22.03254},{"id":53236,"name":"Sourotí","lat":40.47274,"lng":23.09197},{"id":154237,"name":"St. Panteleimon","lat":40.2378439,"lng":24.1987318},{"id":53246,"name":"Stathmós Mourión","lat":41.26378,"lng":22.83855},{"id":154246,"name":"Stavronikita","lat":40.2673189,"lng":24.2734189},{"id":53250,"name":"Stavrós","lat":40.66498,"lng":23.70015},{"id":53247,"name":"Stavroúpoli","lat":40.66944,"lng":22.93806},{"id":53253,"name":"Stratónion","lat":40.51406,"lng":23.82471},{"id":53254,"name":"Strymonikó","lat":41.04144,"lng":23.31487},{"id":53257,"name":"Svorónos","lat":40.26805,"lng":22.46366},{"id":53259,"name":"Sykiá","lat":40.03874,"lng":23.94046},{"id":53260,"name":"Sykiés","lat":40.64944,"lng":22.95083},{"id":53275,"name":"Terpní","lat":40.91643,"lng":23.48137},{"id":53283,"name":"Thérmi","lat":40.54712,"lng":23.01967},{"id":53278,"name":"Thessaloníki","lat":40.64361,"lng":22.93086},{"id":53289,"name":"Triandría","lat":40.615,"lng":22.9762},{"id":53290,"name":"Tríkala","lat":40.59814,"lng":22.55733},{"id":53293,"name":"Trílofos","lat":40.46898,"lng":22.9718},{"id":53305,"name":"Valteró","lat":41.17927,"lng":23.32022},{"id":53306,"name":"Vamvakófyto","lat":41.17916,"lng":23.39602},{"id":53312,"name":"Vasiliká","lat":40.47966,"lng":23.13695},{"id":53317,"name":"Vathýlakkos","lat":40.76942,"lng":22.7088},{"id":154244,"name":"Vatopedi","lat":40.3147582,"lng":24.2083269},{"id":53320,"name":"Vergína","lat":40.48654,"lng":22.31735},{"id":53343,"name":"Véroia","lat":40.52437,"lng":22.20242},{"id":53336,"name":"Vrontoú","lat":40.19356,"lng":22.43203},{"id":154238,"name":"Xenophontos","lat":40.2586399,"lng":24.176092},{"id":154236,"name":"Xeropotamou","lat":40.2349446,"lng":24.1485644},{"id":53348,"name":"Xilópolis","lat":40.92713,"lng":23.17944},{"id":154241,"name":"Zografou","lat":40.3062721,"lng":24.1576616}]