[{"id":67631,"name":"Bago","lat":17.33521,"lng":96.48135},{"id":67651,"name":"Letpandan","lat":17.78664,"lng":95.75076},{"id":67674,"name":"Nyaunglebin","lat":17.95363,"lng":96.72247},{"id":67678,"name":"Paungde","lat":18.49167,"lng":95.50591},{"id":67681,"name":"Pyay","lat":18.82464,"lng":95.22216},{"id":67684,"name":"Pyu","lat":18.4813,"lng":96.43742},{"id":67694,"name":"Taungoo","lat":18.94291,"lng":96.43408},{"id":67695,"name":"Thanatpin","lat":17.29136,"lng":96.57523},{"id":67696,"name":"Tharyarwady","lat":17.65399,"lng":95.78813}]