[{"id":67633,"name":"Bogale","lat":16.29415,"lng":95.39742},{"id":67639,"name":"Hinthada","lat":17.64944,"lng":95.45705},{"id":67646,"name":"Kyaiklat","lat":16.44502,"lng":95.72373},{"id":67656,"name":"Maubin","lat":16.73148,"lng":95.65441},{"id":67659,"name":"Mawlamyinegyunn","lat":16.3772,"lng":95.26488},{"id":67666,"name":"Myanaung","lat":18.28651,"lng":95.32014},{"id":67673,"name":"Nyaungdon","lat":17.04459,"lng":95.63957},{"id":67677,"name":"Pathein","lat":16.77919,"lng":94.73212},{"id":67680,"name":"Pyapon","lat":16.28543,"lng":95.67882},{"id":67701,"name":"Wakema","lat":16.60333,"lng":95.18278}]