[{"id":107057,"name":"Acıpayam","lat":37.42385,"lng":29.34941},{"id":107252,"name":"Babadağ","lat":37.80764,"lng":28.85665},{"id":107265,"name":"Baklan","lat":37.97694,"lng":29.60861},{"id":107326,"name":"Bekilli","lat":38.24027,"lng":29.42559},{"id":107334,"name":"Beyağaç","lat":37.24546,"lng":28.90041},{"id":107384,"name":"Bozkurt","lat":37.77583,"lng":29.60811},{"id":107408,"name":"Buldan","lat":38.045,"lng":28.83056},{"id":108759,"name":"Çal","lat":38.09371,"lng":29.40467},{"id":108767,"name":"Çameli","lat":37.0866,"lng":29.35225},{"id":108781,"name":"Çardak","lat":37.77485,"lng":29.70593},{"id":108836,"name":"Çivril","lat":38.30139,"lng":29.73861},{"id":107742,"name":"Güney","lat":38.16454,"lng":29.07324},{"id":107833,"name":"Honaz","lat":37.77146,"lng":29.34466},{"id":107871,"name":"Kale","lat":37.43917,"lng":28.84528},{"id":108196,"name":"Merkezefendi","lat":37.80544,"lng":29.04236},{"id":108310,"name":"Pamukkale","lat":37.91644,"lng":29.11729},{"id":108393,"name":"Sarayköy","lat":37.9158,"lng":28.87999},{"id":108442,"name":"Serinhisar","lat":37.58105,"lng":29.26639},{"id":108540,"name":"Tavas","lat":37.57351,"lng":29.07058}]