[{"id":107246,"name":"Ağın","lat":38.93792,"lng":38.71155},{"id":153354,"name":"Alacakaya","lat":38.462698,"lng":39.862758},{"id":107197,"name":"Arıcak","lat":38.5634,"lng":40.1248},{"id":107288,"name":"Baskil","lat":38.56866,"lng":38.81634},{"id":107901,"name":"Karakoçan","lat":38.95178,"lng":40.02706},{"id":107964,"name":"Keban","lat":38.7938,"lng":38.73517},{"id":108027,"name":"Kovancılar","lat":38.71882,"lng":39.86268},{"id":108137,"name":"Maden","lat":38.39354,"lng":39.67252},{"id":108188,"name":"Merkez","lat":38.6679,"lng":39.21567},{"id":108308,"name":"Palu","lat":38.69135,"lng":39.91984},{"id":108479,"name":"Sivrice","lat":38.44223,"lng":39.30938}]