[{"id":107716,"name":"Göynücek","lat":40.39917,"lng":35.525},{"id":107737,"name":"Gümüşhacıköy","lat":40.87306,"lng":35.21472},{"id":107781,"name":"Hamamözü","lat":40.79539,"lng":35.03367},{"id":108195,"name":"Merkez","lat":40.61939,"lng":35.87016},{"id":108200,"name":"Merzifon","lat":40.88348,"lng":35.47116},{"id":108500,"name":"Suluova","lat":40.83129,"lng":35.64788},{"id":108554,"name":"Taşova","lat":40.75972,"lng":36.3225}]