[{"id":107138,"name":"Altıeylül","lat":39.64099,"lng":27.88639},{"id":107233,"name":"Ayvalık","lat":39.31927,"lng":26.69341},{"id":107273,"name":"Balya","lat":39.74861,"lng":27.57889},{"id":107283,"name":"Bandırma","lat":40.35222,"lng":27.97667},{"id":107354,"name":"Bigadiç","lat":39.3925,"lng":28.13111},{"id":107412,"name":"Burhaniye","lat":39.50041,"lng":26.97269},{"id":107532,"name":"Dursunbey","lat":39.58596,"lng":28.62568},{"id":107550,"name":"Edremit","lat":39.59611,"lng":27.02444},{"id":107584,"name":"Erdek","lat":40.3996,"lng":27.79348},{"id":107705,"name":"Gömeç","lat":39.39016,"lng":26.84127},{"id":107708,"name":"Gönen","lat":40.1049,"lng":27.65399},{"id":107806,"name":"Havran","lat":39.55833,"lng":27.09833},{"id":108920,"name":"İvrindi","lat":39.58389,"lng":27.48639},{"id":153352,"name":"Karesi","lat":39.648333,"lng":27.8825},{"id":107982,"name":"Kepsut","lat":39.68889,"lng":28.15222},{"id":108151,"name":"Manyas","lat":40.04639,"lng":27.97},{"id":108155,"name":"Marmara","lat":40.58633,"lng":27.55541},{"id":108417,"name":"Savaştepe","lat":39.38319,"lng":27.65612},{"id":108527,"name":"Sındırgı","lat":39.24128,"lng":28.17842},{"id":108509,"name":"Susurluk","lat":39.91361,"lng":28.15778}]