[{"id":153653,"name":"Baía Farta","lat":-12.5766,"lng":13.4776},{"id":153654,"name":"Balombo","lat":-12.9046,"lng":13.5959},{"id":590,"name":"Benguela","lat":-12.57626,"lng":13.40547},{"id":153656,"name":"Bocoio","lat":-12.5303,"lng":13.4042},{"id":153659,"name":"Caimbambo","lat":-12.6133,"lng":14.4194},{"id":597,"name":"Catumbela","lat":-12.43002,"lng":13.54677},{"id":153655,"name":"Chongoroi","lat":-12.7888,"lng":13.7975},{"id":153658,"name":"Cubal","lat":-12.5885,"lng":14.4267},{"id":153657,"name":"Ganda","lat":-12.6825,"lng":14.4233},{"id":613,"name":"Lobito","lat":-12.3644,"lng":13.53601},{"id":153660,"name":"Sumbe","lat":-11.2061,"lng":13.8448}]