[{"id":107113,"name":"Akıncılar","lat":40.07172,"lng":38.3433},{"id":107149,"name":"Altınyayla","lat":39.27249,"lng":36.75098},{"id":107500,"name":"Divriği","lat":39.371,"lng":38.1137},{"id":107523,"name":"Doğanşar","lat":40.20841,"lng":37.53123},{"id":107658,"name":"Gemerek","lat":39.18342,"lng":36.07189},{"id":107700,"name":"Gölova","lat":40.06194,"lng":38.60667},{"id":107757,"name":"Gürün","lat":38.72225,"lng":37.27097},{"id":107772,"name":"Hafik","lat":39.85639,"lng":37.38639},{"id":108894,"name":"İmranlı","lat":39.87544,"lng":38.11358},{"id":107883,"name":"Kangal","lat":39.23354,"lng":37.39111},{"id":108029,"name":"Koyulhisar","lat":40.30184,"lng":37.82336},{"id":108187,"name":"Merkez","lat":39.71613,"lng":36.97695},{"id":108938,"name":"Şarkışla","lat":39.35186,"lng":36.40976},{"id":108513,"name":"Suşehri","lat":40.16005,"lng":38.08413},{"id":108618,"name":"Ulaş","lat":39.44492,"lng":37.039},{"id":108747,"name":"Yıldızeli","lat":39.87601,"lng":36.60652},{"id":108749,"name":"Zara","lat":39.82406,"lng":37.77499}]