[{"id":107228,"name":"Ayrancı","lat":37.37111,"lng":33.69291},{"id":107320,"name":"Başyayla","lat":36.75337,"lng":32.68018},{"id":107596,"name":"Ermenek","lat":36.64043,"lng":32.89179},{"id":107958,"name":"Kazımkarabekir","lat":37.23028,"lng":32.95889},{"id":107905,"name":"Merkez","lat":37.18111,"lng":33.215},{"id":108407,"name":"Sarıveliler","lat":36.69705,"lng":32.61203}]