[{"id":107131,"name":"Almus","lat":40.37583,"lng":36.90444},{"id":107193,"name":"Artova","lat":40.11578,"lng":36.3001},{"id":107322,"name":"Başçiftlik","lat":40.54694,"lng":37.16917},{"id":107582,"name":"Erbaa","lat":40.7139,"lng":36.59364},{"id":108580,"name":"Merkez","lat":40.31389,"lng":36.55444},{"id":108248,"name":"Niksar","lat":40.60509,"lng":36.97174},{"id":108322,"name":"Pazar","lat":40.27652,"lng":36.28347},{"id":108370,"name":"Reşadiye","lat":40.43284,"lng":37.37652},{"id":108502,"name":"Sulusaray","lat":39.99389,"lng":36.08404},{"id":108602,"name":"Turhal","lat":40.3875,"lng":36.08111},{"id":108729,"name":"Yeşilyurt","lat":39.99916,"lng":36.23479},{"id":108753,"name":"Zile","lat":40.30306,"lng":35.88639}]