[{"id":107281,"name":"Banaz","lat":38.73707,"lng":29.75194},{"id":107629,"name":"Eşme","lat":38.39976,"lng":28.96905},{"id":107894,"name":"Karahallı","lat":38.32083,"lng":29.53028},{"id":108183,"name":"Merkez","lat":38.68463,"lng":29.29455},{"id":108474,"name":"Sivaslı","lat":38.49944,"lng":29.68361},{"id":108621,"name":"Ulubey","lat":38.41987,"lng":29.29129}]