[{"id":107130,"name":"Aliağa","lat":38.80078,"lng":27.04375},{"id":107275,"name":"Balçova","lat":38.37302,"lng":27.08714},{"id":107305,"name":"Bayındır","lat":38.21741,"lng":27.64744},{"id":107300,"name":"Bayraklı","lat":38.46222,"lng":27.16667},{"id":107331,"name":"Bergama","lat":39.17088,"lng":27.18918},{"id":107335,"name":"Beydağ","lat":38.08241,"lng":28.21609},{"id":107370,"name":"Bornova","lat":38.48492,"lng":27.25235},{"id":107399,"name":"Buca","lat":38.34813,"lng":27.25053},{"id":108825,"name":"Çeşme","lat":38.32614,"lng":26.30574},{"id":108840,"name":"Çiğli","lat":38.48802,"lng":26.96596},{"id":107495,"name":"Dikili","lat":39.071,"lng":26.89017},{"id":107642,"name":"Foça","lat":38.6703,"lng":26.75656},{"id":107646,"name":"Gaziemir","lat":38.31098,"lng":27.15178},{"id":107760,"name":"Güzelbahçe","lat":38.37046,"lng":26.8693},{"id":153785,"name":"İzmir","lat":38.4178287,"lng":26.914903},{"id":107886,"name":"Karabağlar","lat":38.36912,"lng":27.12696},{"id":107887,"name":"Karaburun","lat":38.6364,"lng":26.51094},{"id":107937,"name":"Karşıyaka","lat":38.46775,"lng":27.11502},{"id":107976,"name":"Kemalpaşa","lat":38.40883,"lng":27.491},{"id":107999,"name":"Kiraz","lat":38.23056,"lng":28.20444},{"id":108101,"name":"Kınık","lat":39.08722,"lng":27.38333},{"id":108013,"name":"Konak","lat":38.41448,"lng":27.14412},{"id":108170,"name":"Menderes","lat":38.24963,"lng":27.13429},{"id":108171,"name":"Menemen","lat":38.61608,"lng":27.06315},{"id":108240,"name":"Narlıdere","lat":38.38957,"lng":27.02431},{"id":108860,"name":"Ödemiş","lat":38.2278,"lng":27.96955},{"id":108423,"name":"Seferihisar","lat":38.18144,"lng":26.88877},{"id":108434,"name":"Selçuk","lat":37.95137,"lng":27.36849},{"id":108578,"name":"Tire","lat":38.06582,"lng":27.7273},{"id":108587,"name":"Torbalı","lat":38.17603,"lng":27.37182},{"id":108633,"name":"Urla","lat":38.32292,"lng":26.76403}]