[{"id":153645,"name":"Ambriz","lat":-7.8574,"lng":13.1251},{"id":153646,"name":"Bula Atumba","lat":-7.3117,"lng":14.3147},{"id":598,"name":"Caxito","lat":-8.57848,"lng":13.66425},{"id":153647,"name":"Dande","lat":-8.1133,"lng":13.7652},{"id":153648,"name":"Muxima","lat":-9.5879,"lng":13.5251},{"id":153649,"name":"Nambuangongo","lat":-8.5656,"lng":13.6572},{"id":153650,"name":"Pango Aluquém","lat":-8.5544,"lng":13.5815},{"id":153651,"name":"Úcua","lat":-8.6724,"lng":13.6829}]