[{"id":107152,"name":"Altınözü","lat":36.11244,"lng":36.24488},{"id":107167,"name":"Antakya","lat":36.20655,"lng":36.15722},{"id":107192,"name":"Arsuz","lat":36.41305,"lng":35.89033},{"id":107328,"name":"Belen","lat":36.48866,"lng":36.19489},{"id":107458,"name":"Defne","lat":36.23739,"lng":36.16364},{"id":107539,"name":"Dörtyol","lat":36.83917,"lng":36.23025},{"id":107600,"name":"Erzin","lat":36.95348,"lng":36.19839},{"id":107804,"name":"Hassa","lat":36.79944,"lng":36.51778},{"id":108913,"name":"İskenderun","lat":36.58718,"lng":36.17347},{"id":108107,"name":"Kırıkhan","lat":36.49939,"lng":36.35755},{"id":108050,"name":"Kumlu","lat":36.36508,"lng":36.45526},{"id":108320,"name":"Payas","lat":36.756,"lng":36.21432},{"id":108368,"name":"Reyhanlı","lat":36.26791,"lng":36.56747},{"id":153356,"name":"Samandağ","lat":36.085,"lng":35.980556},{"id":108679,"name":"Yayladağı","lat":35.9025,"lng":36.06272}]