[{"id":153788,"name":"Adana","lat":36.9975753,"lng":35.1232526},{"id":107120,"name":"Aladağ","lat":37.55854,"lng":35.40196},{"id":107427,"name":"Ceyhan","lat":37.02472,"lng":35.8175},{"id":108848,"name":"Çukurova","lat":37.05627,"lng":35.13119},{"id":107635,"name":"Feke","lat":37.82405,"lng":35.91826},{"id":108893,"name":"İmamoğlu","lat":37.275,"lng":35.66649},{"id":107896,"name":"Karaisalı","lat":37.26655,"lng":35.05033},{"id":107918,"name":"Karataş","lat":36.57186,"lng":35.36784},{"id":108033,"name":"Kozan","lat":37.5,"lng":35.75},{"id":108349,"name":"Pozantı","lat":37.43671,"lng":34.88057},{"id":108374,"name":"Saimbeyli","lat":37.99615,"lng":36.09909},{"id":108414,"name":"Sarıçam","lat":37.14971,"lng":35.50949},{"id":108452,"name":"Seyhan","lat":36.9554,"lng":35.21637},{"id":108597,"name":"Tufanbeyli","lat":38.27343,"lng":36.22731},{"id":108737,"name":"Yumurtalık","lat":36.78245,"lng":35.79949},{"id":108745,"name":"Yüreğir","lat":36.99205,"lng":35.45402}]