[{"id":107065,"name":"Adilcevaz","lat":38.79911,"lng":42.73159},{"id":107071,"name":"Ahlat","lat":38.7489,"lng":42.48007},{"id":107751,"name":"Güroymak","lat":38.5758,"lng":42.01558},{"id":107829,"name":"Hizan","lat":38.22498,"lng":42.4183},{"id":108189,"name":"Merkez","lat":38.31702,"lng":42.10065},{"id":108233,"name":"Mutki","lat":38.40624,"lng":41.92018},{"id":108538,"name":"Tatvan","lat":38.49221,"lng":42.28269}]