[{"id":107229,"name":"Ayvacık","lat":39.60111,"lng":26.40472},{"id":107301,"name":"Bayramiç","lat":39.81951,"lng":26.6249},{"id":107353,"name":"Biga","lat":40.26921,"lng":27.20841},{"id":107380,"name":"Bozcaada","lat":39.82409,"lng":26.04069},{"id":108773,"name":"Çan","lat":40.03328,"lng":27.05236},{"id":107548,"name":"Eceabat","lat":40.18416,"lng":26.3574},{"id":107623,"name":"Ezine","lat":39.78561,"lng":26.34083},{"id":107655,"name":"Gelibolu","lat":40.41028,"lng":26.67083},{"id":107683,"name":"Gökçeada","lat":40.16523,"lng":25.85907},{"id":108127,"name":"Lapseki","lat":40.34417,"lng":26.68556},{"id":108193,"name":"Merkez","lat":40.05093,"lng":26.49489},{"id":108691,"name":"Yenice","lat":39.93083,"lng":27.25806}]