[{"id":107145,"name":"Altınova","lat":40.69495,"lng":29.50986},{"id":107187,"name":"Armutlu","lat":40.52919,"lng":28.83871},{"id":108831,"name":"Çiftlikköy","lat":40.66028,"lng":29.32361},{"id":108856,"name":"Çınarcık","lat":40.64538,"lng":29.1245},{"id":108665,"name":"Merkez","lat":40.65501,"lng":29.27693},{"id":108572,"name":"Termal","lat":40.61381,"lng":29.18049}]