[{"id":88934,"name":"Alfândega da Fé","lat":41.34315,"lng":-6.96112},{"id":89030,"name":"Belver","lat":41.24696,"lng":-7.27594},{"id":89047,"name":"Bragança","lat":41.75608,"lng":-6.75535},{"id":89094,"name":"Carrazeda de Anciães","lat":41.24247,"lng":-7.30721},{"id":89095,"name":"Carrazeda de Ansiães","lat":41.23424,"lng":-7.31129},{"id":89194,"name":"Freixo de Espada à Cinta","lat":41.09033,"lng":-6.80648},{"id":89260,"name":"Macedo de Cavaleiros","lat":41.55132,"lng":-6.93355},{"id":89305,"name":"Miranda do Douro","lat":41.49692,"lng":-6.27308},{"id":89306,"name":"Mirandela","lat":41.50098,"lng":-7.19185},{"id":89307,"name":"Mogadouro","lat":41.34034,"lng":-6.71187},{"id":89487,"name":"Samil","lat":41.77632,"lng":-6.75698},{"id":89526,"name":"Sendim","lat":41.38739,"lng":-6.42625},{"id":89606,"name":"Torre de Moncorvo","lat":41.17454,"lng":-7.05364},{"id":89648,"name":"Vila Flor","lat":41.31429,"lng":-7.15071},{"id":89682,"name":"Vimioso","lat":41.57287,"lng":-6.52087},{"id":89683,"name":"Vinhais","lat":41.83509,"lng":-7.00501}]