[{"id":89692,"name":"Água de Pau","lat":37.72142,"lng":-25.5117},{"id":88968,"name":"Angra do Heroísmo","lat":38.65483,"lng":-27.21734},{"id":88969,"name":"Angústias","lat":38.52547,"lng":-28.63132},{"id":88994,"name":"Arrifes","lat":37.76667,"lng":-25.7},{"id":89037,"name":"Biscoitos","lat":38.78333,"lng":-27.25},{"id":89057,"name":"Cabouco","lat":37.76667,"lng":-25.56667},{"id":89062,"name":"Cais do Pico","lat":38.52531,"lng":-28.32074},{"id":89069,"name":"Calheta","lat":38.60186,"lng":-28.01792},{"id":89070,"name":"Calheta de São Jorge","lat":38.59767,"lng":-27.91459},{"id":89105,"name":"Castelo Branco","lat":38.52198,"lng":-28.71365},{"id":89131,"name":"Corvo","lat":39.69771,"lng":-31.1055},{"id":89163,"name":"Fajã de Baixo","lat":37.760434,"lng":-25.6446772},{"id":89172,"name":"Fenais da Ajuda","lat":37.85128,"lng":-25.32406},{"id":89173,"name":"Fenais da Luz","lat":37.8249,"lng":-25.64229},{"id":89181,"name":"Feteira","lat":38.65429,"lng":-27.14995},{"id":89187,"name":"Fonte Bastardo","lat":38.69201,"lng":-27.07942},{"id":89199,"name":"Furnas","lat":37.77567,"lng":-25.31035},{"id":89223,"name":"Horta","lat":38.53737,"lng":-28.62615},{"id":89228,"name":"Lagoa","lat":37.74486,"lng":-25.57184},{"id":89231,"name":"Lajes","lat":38.76352,"lng":-27.10336},{"id":89232,"name":"Lajes das Flores","lat":39.41619,"lng":-31.21725},{"id":89233,"name":"Lajes do Pico","lat":38.42797,"lng":-28.17402},{"id":89267,"name":"Madalena","lat":38.53642,"lng":-28.5266},{"id":89269,"name":"Maia","lat":37.83247,"lng":-25.38976},{"id":89333,"name":"Mosteiros","lat":37.89017,"lng":-25.81999},{"id":89350,"name":"Nordeste","lat":37.82721,"lng":-25.22863},{"id":89412,"name":"Ponta Delgada","lat":37.7423,"lng":-25.67093},{"id":89413,"name":"Ponta Garça","lat":37.71667,"lng":-25.36667},{"id":89427,"name":"Porto Judeu","lat":38.64814,"lng":-27.11944},{"id":89428,"name":"Porto Martins","lat":38.68146,"lng":-27.05835},{"id":89434,"name":"Povoação","lat":37.76471,"lng":-25.24487},{"id":89437,"name":"Praia da Vitória","lat":38.73333,"lng":-27.06667},{"id":89451,"name":"Rabo de Peixe","lat":37.81022,"lng":-25.58263},{"id":89460,"name":"Relva","lat":37.75271,"lng":-25.71848},{"id":89466,"name":"Ribeira Grande","lat":38.51667,"lng":-28.7},{"id":89467,"name":"Ribeira Seca","lat":37.81667,"lng":-25.53333},{"id":89469,"name":"Ribeirinha","lat":38.66203,"lng":-27.18093},{"id":89479,"name":"Rosto de Cão","lat":37.7660756,"lng":-25.6228724},{"id":89494,"name":"Santa Bárbara","lat":38.69608,"lng":-27.33907},{"id":89502,"name":"Santa Cruz da Graciosa","lat":39.04946,"lng":-28.00432},{"id":89501,"name":"Santa Cruz das Flores","lat":39.46984,"lng":-31.18514},{"id":89558,"name":"São Bartolomeu","lat":38.67491,"lng":-27.29349},{"id":89577,"name":"São Mateus","lat":38.6563,"lng":-27.26935},{"id":89586,"name":"São Roque","lat":37.75418,"lng":-25.64127},{"id":89588,"name":"São Roque do Pico","lat":38.51631,"lng":-28.30752},{"id":89589,"name":"São Sebastião","lat":38.66584,"lng":-27.08976},{"id":89592,"name":"São Vicente","lat":37.81829,"lng":-25.66583},{"id":89529,"name":"Senhora do Rosário","lat":37.83333,"lng":-25.15},{"id":89633,"name":"Velas","lat":38.67995,"lng":-28.15155},{"id":89673,"name":"Vila do Porto","lat":36.97454,"lng":-25.09967},{"id":89650,"name":"Vila Franca do Campo","lat":37.71667,"lng":-25.43333}]