[{"id":88906,"name":"Abrantes","lat":39.46667,"lng":-8.2},{"id":88916,"name":"Alcanede","lat":39.41501,"lng":-8.82189},{"id":88917,"name":"Alcanena","lat":39.459,"lng":-8.66892},{"id":88918,"name":"Alcanhões","lat":39.29603,"lng":-8.65847},{"id":88932,"name":"Alferrarede","lat":39.48333,"lng":-8.16667},{"id":88948,"name":"Almeirim","lat":39.20837,"lng":-8.62635},{"id":88952,"name":"Alpiarça","lat":39.25712,"lng":-8.58187},{"id":88963,"name":"Amiães de Baixo","lat":39.44296,"lng":-8.73358},{"id":89012,"name":"Azinhaga","lat":39.34877,"lng":-8.53005},{"id":89031,"name":"Bemfica","lat":39.14325,"lng":-8.68717},{"id":89032,"name":"Benavente","lat":38.908,"lng":-8.76898},{"id":89098,"name":"Cartaxo","lat":39.15377,"lng":-8.81373},{"id":89116,"name":"Chamusca","lat":39.299,"lng":-8.39933},{"id":89127,"name":"Constância","lat":39.45718,"lng":-8.30368},{"id":89130,"name":"Coruche","lat":38.9595,"lng":-8.52745},{"id":89143,"name":"Entroncamento","lat":39.46667,"lng":-8.46667},{"id":89201,"name":"Fátima","lat":39.62071,"lng":-8.65237},{"id":89169,"name":"Fazendas de Almeirim","lat":39.17553,"lng":-8.56927},{"id":89177,"name":"Ferreira do Zêzere","lat":39.72303,"lng":-8.31661},{"id":89211,"name":"Golegã","lat":39.38683,"lng":-8.50591},{"id":89285,"name":"Mação","lat":39.59331,"lng":-7.99772},{"id":89265,"name":"Madalena","lat":39.57133,"lng":-8.44635},{"id":89278,"name":"Marinhais","lat":39.0473,"lng":-8.70236},{"id":89300,"name":"Minde","lat":39.51631,"lng":-8.68799},{"id":89315,"name":"Monsanto","lat":39.46203,"lng":-8.7118},{"id":89317,"name":"Montalvinho","lat":39.4842754,"lng":-8.3058376},{"id":89318,"name":"Montalvo","lat":39.4848636,"lng":-8.3000463},{"id":89373,"name":"Ourém","lat":39.66179,"lng":-8.57895},{"id":89376,"name":"Paialvo","lat":39.56399,"lng":-8.46835},{"id":89392,"name":"Pego","lat":39.46146,"lng":-8.14955},{"id":89408,"name":"Pinheiro Grande","lat":39.39212,"lng":-8.4341},{"id":89409,"name":"Poceirão","lat":38.83095,"lng":-8.79365},{"id":89420,"name":"Pontével","lat":39.14945,"lng":-8.8388},{"id":89438,"name":"Praia do Ribatejo","lat":39.46667,"lng":-8.35},{"id":89463,"name":"Riachos","lat":39.44472,"lng":-8.5142},{"id":89471,"name":"Rio Maior","lat":39.34288,"lng":-8.93806},{"id":89486,"name":"Salvaterra de Magos","lat":39.04482,"lng":-8.68903},{"id":89488,"name":"Samora Correia","lat":38.93709,"lng":-8.87178},{"id":89506,"name":"Santa Margarida da Coutada","lat":39.45,"lng":-8.31667},{"id":89510,"name":"Santarém","lat":39.23333,"lng":-8.68333},{"id":89578,"name":"São Miguel de Rio Torto","lat":39.43333,"lng":-8.21667},{"id":89593,"name":"São Vicente do Paul","lat":39.34946,"lng":-8.62221},{"id":89521,"name":"Sardoal","lat":39.55643,"lng":-8.14323},{"id":89604,"name":"Tomar","lat":39.60199,"lng":-8.40924},{"id":89607,"name":"Torres Novas","lat":39.4916,"lng":-8.54796},{"id":89610,"name":"Tramagal","lat":39.45,"lng":-8.25},{"id":89626,"name":"Vale de Figueira","lat":39.30569,"lng":-8.62876},{"id":89627,"name":"Vale de Santarém","lat":39.19052,"lng":-8.72735},{"id":89646,"name":"Vila Chã de Ourique","lat":39.17219,"lng":-8.76658},{"id":89654,"name":"Vila Nova da Barquinha","lat":39.46081,"lng":-8.43588}]