[{"id":88905,"name":"A dos Francos","lat":39.32272,"lng":-9.04743},{"id":88920,"name":"Alcobaça","lat":39.55223,"lng":-8.97749},{"id":88930,"name":"Alfeizerão","lat":39.49971,"lng":-9.10341},{"id":88943,"name":"Aljubarrota","lat":39.56715,"lng":-8.92925},{"id":88955,"name":"Alvaiázere","lat":39.81951,"lng":-8.38858},{"id":88959,"name":"Alvorninha","lat":39.38224,"lng":-9.03674},{"id":88964,"name":"Amor","lat":39.80404,"lng":-8.85984},{"id":88970,"name":"Ansião","lat":39.93424,"lng":-8.42045},{"id":89000,"name":"Atouguia da Baleia","lat":39.33814,"lng":-9.3263},{"id":89023,"name":"Batalha","lat":39.66025,"lng":-8.82475},{"id":89033,"name":"Benedita","lat":39.4247,"lng":-8.96996},{"id":89042,"name":"Bombarral","lat":39.26723,"lng":-9.15795},{"id":89063,"name":"Caldas da Rainha","lat":39.40326,"lng":-9.13839},{"id":89090,"name":"Caranguejeira","lat":39.74619,"lng":-8.7074},{"id":89102,"name":"Castanheira de Pêra","lat":40.00717,"lng":-8.21048},{"id":89113,"name":"Cela","lat":39.54075,"lng":-9.03449},{"id":89164,"name":"Famalicão","lat":39.53642,"lng":-9.08308},{"id":89180,"name":"Ferrel","lat":39.36398,"lng":-9.31541},{"id":89184,"name":"Figueiró Dos Vinhos","lat":39.90617,"lng":-8.27753},{"id":89188,"name":"Foz do Arelho","lat":39.43672,"lng":-9.21374},{"id":89241,"name":"Leiria","lat":39.74362,"lng":-8.80705},{"id":89253,"name":"Louriçal","lat":40.0039,"lng":-8.73736},{"id":89261,"name":"Maceira","lat":39.68853,"lng":-8.89423},{"id":89277,"name":"Marinha Grande","lat":39.77681,"lng":-8.95005},{"id":89302,"name":"Mira","lat":39.54315,"lng":-8.71505},{"id":89322,"name":"Monte Real","lat":39.8521,"lng":-8.86349},{"id":89323,"name":"Monte Redondo","lat":39.8993,"lng":-8.83171},{"id":89341,"name":"Nadadouro","lat":39.41927,"lng":-9.19091},{"id":89342,"name":"Nazaré","lat":39.59965,"lng":-9.07162},{"id":89699,"name":"Óbidos","lat":39.35854,"lng":-9.17603},{"id":89385,"name":"Pataias","lat":39.66978,"lng":-8.9958},{"id":89391,"name":"Pedrógão Grande","lat":39.92682,"lng":-8.20093},{"id":89400,"name":"Peniche","lat":39.3558,"lng":-9.38112},{"id":89411,"name":"Pombal","lat":39.90735,"lng":-8.66949},{"id":89433,"name":"Porto de Mós","lat":39.60191,"lng":-8.81839},{"id":89483,"name":"Salir de Matos","lat":39.43186,"lng":-9.09479},{"id":89496,"name":"Santa Catarina da Serra","lat":39.6796,"lng":-8.68679},{"id":89576,"name":"São Martinho do Porto","lat":39.51444,"lng":-9.13111},{"id":89534,"name":"Serra de El-Rei","lat":39.33291,"lng":-9.26843},{"id":89555,"name":"Souto da Carpalhosa","lat":39.84867,"lng":-8.83506},{"id":89615,"name":"Turquel","lat":39.46411,"lng":-8.97743},{"id":89622,"name":"Valado de Frades","lat":39.58432,"lng":-9.0229},{"id":89637,"name":"Vestiaria","lat":39.55271,"lng":-8.9979},{"id":89641,"name":"Vidais","lat":39.36886,"lng":-9.04916},{"id":89643,"name":"Vieira de Leiria","lat":39.86945,"lng":-8.93238}]