[{"id":19332,"name":"Beijing","lat":39.9075,"lng":116.39723},{"id":19370,"name":"Changping","lat":40.21612,"lng":116.23471},{"id":157077,"name":"Chaoyang","lat":39.9605414,"lng":116.3333882},{"id":19439,"name":"Daxing","lat":39.74025,"lng":116.32693},{"id":157078,"name":"Dongcheng","lat":39.9164984,"lng":116.3748605},{"id":19499,"name":"Fangshan","lat":39.68699,"lng":115.99658},{"id":157079,"name":"Fengtai","lat":39.8298869,"lng":116.0953332},{"id":157080,"name":"Haidian","lat":40.0241811,"lng":116.0577732},{"id":157081,"name":"Huairou","lat":40.6477972,"lng":116.2559135},{"id":19817,"name":"Liangxiang","lat":39.73598,"lng":116.13295},{"id":19916,"name":"Mentougou","lat":39.93819,"lng":116.09307},{"id":157082,"name":"Miyun","lat":40.5110749,"lng":117.08536},{"id":157083,"name":"Pinggu","lat":40.2047124,"lng":116.8390657},{"id":157084,"name":"Shijingshan","lat":39.9339757,"lng":116.1857849},{"id":20126,"name":"Shunyi","lat":40.12175,"lng":116.64783},{"id":20197,"name":"Tongzhou","lat":39.90395,"lng":116.66183},{"id":157085,"name":"Xicheng","lat":39.9209726,"lng":116.3192105},{"id":157086,"name":"Yanqing","lat":40.5282715,"lng":115.824981}]