[{"id":158303,"name":"Anhua","lat":28.3031394,"lng":111.402883},{"id":19280,"name":"Anjiang","lat":27.31944,"lng":110.10306},{"id":19283,"name":"Anping","lat":27.86639,"lng":110.11611},{"id":158314,"name":"Anren","lat":26.57273,"lng":113.34912},{"id":158288,"name":"Anxiang","lat":29.4135596,"lng":112.1652707},{"id":19289,"name":"Anxiang","lat":29.4,"lng":112.15},{"id":19305,"name":"Baisha","lat":26.52222,"lng":110.93111},{"id":158349,"name":"Baojing","lat":28.6768847,"lng":109.5790945},{"id":158305,"name":"Beihu","lat":25.7874925,"lng":113.0053231},{"id":158267,"name":"Beita","lat":27.2605813,"lng":111.4116451},{"id":19345,"name":"Biyong","lat":27.18722,"lng":109.51},{"id":19346,"name":"Bojia","lat":26.46722,"lng":111.96806},{"id":19350,"name":"Boyang","lat":26.21167,"lng":109.52056},{"id":19352,"name":"Bozhou","lat":27.37889,"lng":109.27778},{"id":158244,"name":"Chaling","lat":26.7755608,"lng":113.6907681},{"id":19364,"name":"Changde","lat":29.034552,"lng":111.6928724},{"id":158263,"name":"Changning","lat":26.4247142,"lng":112.3943209},{"id":19374,"name":"Changsha","lat":28.1450774,"lng":113.2384362},{"id":19375,"name":"Changsha Shi","lat":28.14582,"lng":113.22967},{"id":19384,"name":"Chatian","lat":27.80222,"lng":109.37361},{"id":158274,"name":"Chengbu","lat":26.331669,"lng":110.304056},{"id":158330,"name":"Chenxi","lat":27.952101,"lng":110.210705},{"id":19398,"name":"Chenzhou","lat":25.7733598,"lng":113.0094337},{"id":158297,"name":"Cili","lat":29.406935,"lng":110.921013},{"id":19413,"name":"Dabaozi","lat":26.69556,"lng":109.44778},{"id":158320,"name":"Daoxian","lat":0.0,"lng":0.0},{"id":158266,"name":"Daxiang","lat":27.1806689,"lng":111.4883562},{"id":19445,"name":"Dehang","lat":28.3071,"lng":109.79668},{"id":19449,"name":"Dengjiapu","lat":26.90444,"lng":110.92},{"id":19451,"name":"Dengyuantai","lat":26.68806,"lng":110.54222},{"id":158287,"name":"Dingcheng","lat":29.0217943,"lng":111.676452},{"id":158318,"name":"Dong'an","lat":26.5209952,"lng":111.3769459},{"id":158271,"name":"Dongkou","lat":27.100881,"lng":110.618475},{"id":19474,"name":"Dongshan Dongzuxiang","lat":26.595,"lng":109.89667},{"id":19506,"name":"Fenghuang","lat":27.93557,"lng":109.59961},{"id":158347,"name":"Fenghuang","lat":28.010585,"lng":109.532129},{"id":158229,"name":"Furong","lat":28.1888541,"lng":113.0268336},{"id":19534,"name":"Gangdong","lat":27.91694,"lng":110.83417},{"id":19544,"name":"Gaoqiao","lat":26.63361,"lng":110.9},{"id":19547,"name":"Gaoyi","lat":26.95944,"lng":110.01556},{"id":19565,"name":"Guankou","lat":28.15861,"lng":113.62709},{"id":158313,"name":"Guidong","lat":26.0814472,"lng":113.9397641},{"id":158307,"name":"Guiyang","lat":25.8728015,"lng":112.6287278},{"id":158350,"name":"Guzhang","lat":28.594317,"lng":110.004314},{"id":158289,"name":"Hanshou","lat":28.866813,"lng":112.030207},{"id":158327,"name":"Hecheng","lat":27.6074968,"lng":109.9566644},{"id":19613,"name":"Hengbanqiao","lat":27.17167,"lng":110.86528},{"id":158260,"name":"Hengdong","lat":27.0924468,"lng":113.0125808},{"id":158258,"name":"Hengnan","lat":26.694504,"lng":112.504536},{"id":158259,"name":"Hengshan","lat":27.3152736,"lng":112.7373212},{"id":19615,"name":"Hengyang","lat":26.8971308,"lng":112.5666191},{"id":158300,"name":"Heshan","lat":28.5821773,"lng":112.3684291},{"id":158238,"name":"Hetang","lat":27.9055796,"lng":113.2226941},{"id":19619,"name":"Hexiangqiao","lat":27.22028,"lng":110.96333},{"id":19626,"name":"Hongjiang","lat":27.11,"lng":109.99556},{"id":158338,"name":"Hongjiang","lat":27.2328573,"lng":110.0790255},{"id":19627,"name":"Hongqiao","lat":26.76837,"lng":112.10814},{"id":19639,"name":"Huaihua","lat":27.659483,"lng":110.143549},{"id":19648,"name":"Huangjinjing","lat":27.58563,"lng":110.89133},{"id":19649,"name":"Huanglong","lat":26.54139,"lng":110.93444},{"id":19650,"name":"Huangmaoyuan","lat":27.40417,"lng":110.47472},{"id":19655,"name":"Huangqiao","lat":27.02194,"lng":110.84056},{"id":19660,"name":"Huangtukuang","lat":26.91528,"lng":110.40778},{"id":19661,"name":"Huangxikou","lat":27.71889,"lng":110.385},{"id":19665,"name":"Huaqiao","lat":27.70806,"lng":110.14194},{"id":158281,"name":"Huarong","lat":29.5385736,"lng":112.6478374},{"id":19668,"name":"Huayuan","lat":26.91361,"lng":110.53583},{"id":158348,"name":"Huayuan","lat":28.4342803,"lng":109.4183343},{"id":158332,"name":"Huitong","lat":26.9198901,"lng":109.8152147},{"id":19684,"name":"Huomachong","lat":27.88333,"lng":110.23},{"id":158310,"name":"Jiahe","lat":25.645556,"lng":112.395556},{"id":19696,"name":"Jiangfang","lat":26.50158,"lng":110.3464},{"id":158325,"name":"Jianghua","lat":25.023611,"lng":111.75},{"id":19698,"name":"Jiangkouxu","lat":27.69417,"lng":109.73583},{"id":19700,"name":"Jiangshi","lat":27.12333,"lng":109.73778},{"id":158321,"name":"Jiangyong","lat":25.2311882,"lng":111.2413774},{"id":158336,"name":"Jingzhou","lat":26.556993,"lng":109.570933},{"id":19739,"name":"Jinhe","lat":27.71694,"lng":109.60472},{"id":19748,"name":"Jinshi","lat":29.60487,"lng":111.87012},{"id":158294,"name":"Jinshi","lat":29.494523,"lng":111.85987},{"id":19749,"name":"Jinshiqiao","lat":27.58425,"lng":110.93634},{"id":158345,"name":"Jishou","lat":28.319067,"lng":109.770431},{"id":158279,"name":"Junshan","lat":29.4642866,"lng":113.0009667},{"id":158232,"name":"Kaifu","lat":28.2884064,"lng":112.9966053},{"id":19799,"name":"Lanli","lat":27.88694,"lng":109.91861},{"id":158323,"name":"Lanshan","lat":25.3720755,"lng":112.191748},{"id":19808,"name":"Leiyang","lat":26.40238,"lng":112.85908},{"id":158262,"name":"Leiyang","lat":26.4255243,"lng":112.8545783},{"id":19809,"name":"Lengshuijiang","lat":27.68806,"lng":111.42944},{"id":158342,"name":"Lengshuijiang","lat":27.6581325,"lng":111.4534719},{"id":158317,"name":"Lengshuitan","lat":26.5646555,"lng":111.6328512},{"id":19810,"name":"Lengshuitan","lat":26.4111,"lng":111.59559},{"id":19818,"name":"Liangyaping","lat":27.71833,"lng":110.67083},{"id":19824,"name":"Lianyuan","lat":27.68833,"lng":111.66417},{"id":158343,"name":"Lianyuan","lat":27.738153,"lng":111.7776649},{"id":158246,"name":"Liling","lat":27.6528937,"lng":113.4354686},{"id":158316,"name":"Lingling","lat":26.1577504,"lng":111.5496812},{"id":19846,"name":"Linkou","lat":26.24806,"lng":109.86361},{"id":158291,"name":"Linli","lat":29.523316,"lng":111.594282},{"id":158311,"name":"Linwu","lat":25.2793495,"lng":112.5588047},{"id":158285,"name":"Linxiang","lat":29.4983821,"lng":113.5406301},{"id":19859,"name":"Liuduzhai","lat":27.36611,"lng":110.935},{"id":158236,"name":"Liuyang","lat":28.2178951,"lng":113.7001702},{"id":158290,"name":"Lixian","lat":29.7827218,"lng":111.6776837},{"id":19864,"name":"Lixiqiao","lat":26.79472,"lng":110.41806},{"id":158270,"name":"Longhui","lat":27.317715,"lng":110.989693},{"id":158352,"name":"Longshan","lat":29.231187,"lng":109.496576},{"id":19873,"name":"Longtan","lat":27.41139,"lng":110.53639},{"id":19874,"name":"Longtou’an","lat":27.67028,"lng":110.33611},{"id":19876,"name":"Loudi","lat":27.6995215,"lng":111.9890658},{"id":158339,"name":"Louxing","lat":27.7333455,"lng":111.9960728},{"id":158242,"name":"Lukou","lat":27.7009794,"lng":113.1380117},{"id":19885,"name":"Luojiu","lat":27.51583,"lng":109.80889},{"id":158239,"name":"Lusong","lat":27.8065115,"lng":113.2582282},{"id":158346,"name":"Luxi","lat":28.1214271,"lng":109.9821431},{"id":19893,"name":"Luyang","lat":27.62389,"lng":110.09889},{"id":19909,"name":"Ma’an","lat":26.9775,"lng":110.72111},{"id":19902,"name":"Malin","lat":26.455,"lng":110.64167},{"id":19905,"name":"Maoping","lat":26.51972,"lng":110.41194},{"id":158333,"name":"Mayang","lat":27.7721014,"lng":109.6921728},{"id":158284,"name":"Miluo","lat":28.8101339,"lng":113.0613336},{"id":19944,"name":"Nanmuping","lat":27.31111,"lng":109.67861},{"id":158301,"name":"Nanxian","lat":0.0,"lng":0.0},{"id":158256,"name":"Nanyue","lat":27.2660465,"lng":112.7061618},{"id":19952,"name":"Nanzhou","lat":29.35955,"lng":112.40243},{"id":158237,"name":"Ningxiang","lat":28.1404226,"lng":112.3652444},{"id":158322,"name":"Ningyuan","lat":25.670556,"lng":111.989722},{"id":158283,"name":"Pingjiang","lat":28.773017,"lng":113.7036455},{"id":19989,"name":"Prefecture of Chenzhou","lat":25.84347,"lng":113.05378},{"id":19993,"name":"Pukou","lat":26.52222,"lng":109.55583},{"id":20002,"name":"Puzi","lat":26.98639,"lng":109.77639},{"id":20006,"name":"Qiancheng","lat":27.18501,"lng":109.76543},{"id":20010,"name":"Qianzhou","lat":28.31925,"lng":109.73346},{"id":20011,"name":"Qiaojiang","lat":27.93722,"lng":110.67639},{"id":158261,"name":"Qidong","lat":26.8007069,"lng":112.0847511},{"id":20018,"name":"Qingjiangqiao","lat":26.60444,"lng":110.98528},{"id":20024,"name":"Qingxi","lat":26.43114,"lng":110.35489},{"id":20033,"name":"Qionghu","lat":28.84061,"lng":112.37399},{"id":158326,"name":"Qiyang","lat":26.3760947,"lng":111.9457969},{"id":158312,"name":"Rucheng","lat":25.5500532,"lng":113.6665846},{"id":20047,"name":"Ruoshui","lat":27.00194,"lng":109.96667},{"id":158298,"name":"Sangzhi","lat":29.574001,"lng":110.172485},{"id":20065,"name":"Shangmei","lat":27.74278,"lng":111.29556},{"id":20073,"name":"Shanmen","lat":27.225,"lng":110.69278},{"id":158276,"name":"Shaodong","lat":27.1972513,"lng":111.8459833},{"id":158251,"name":"Shaoshan","lat":27.9182616,"lng":112.5217128},{"id":158264,"name":"Shaoyang","lat":26.9443424,"lng":110.9631102},{"id":158240,"name":"Shifeng","lat":27.9340485,"lng":113.1530206},{"id":158254,"name":"Shigu","lat":26.9469844,"lng":112.5928527},{"id":20094,"name":"Shijiang","lat":27.08194,"lng":110.79333},{"id":158293,"name":"Shimen","lat":29.8035578,"lng":111.122528},{"id":158340,"name":"Shuangfeng","lat":27.4291431,"lng":112.1621255},{"id":20116,"name":"Shuangjiang","lat":26.15467,"lng":109.7138},{"id":158319,"name":"Shuangpai","lat":25.907778,"lng":111.690278},{"id":158265,"name":"Shuangqing","lat":27.2352855,"lng":111.5420435},{"id":20117,"name":"Shuangxi","lat":27.22833,"lng":109.85583},{"id":20122,"name":"Shuiche","lat":27.68694,"lng":110.99972},{"id":20123,"name":"Shuidatian","lat":27.85222,"lng":109.60472},{"id":20128,"name":"Simenqian","lat":27.48722,"lng":110.88611},{"id":158272,"name":"Suining","lat":26.7382532,"lng":110.2232538},{"id":158306,"name":"Suxian","lat":25.7990322,"lng":113.106742},{"id":20167,"name":"Tangjiafang","lat":26.84,"lng":110.36472},{"id":20175,"name":"Tanwan","lat":27.96639,"lng":110.15028},{"id":158302,"name":"Taojiang","lat":28.5200908,"lng":112.148511},{"id":158292,"name":"Taoyuan","lat":28.889606,"lng":111.252621},{"id":158230,"name":"Tianxin","lat":28.1170956,"lng":112.9842016},{"id":158241,"name":"Tianyuan","lat":27.6962209,"lng":113.0678551},{"id":158337,"name":"Tongdao","lat":26.243893,"lng":109.68749},{"id":20196,"name":"Tongwan","lat":27.58111,"lng":110.27722},{"id":20199,"name":"Tuokou","lat":27.12472,"lng":109.62472},{"id":158234,"name":"Wangcheng","lat":28.3796246,"lng":112.8499438},{"id":20210,"name":"Wantouqiao","lat":26.84111,"lng":110.61944},{"id":20225,"name":"Wenxing","lat":28.68208,"lng":112.87864},{"id":158275,"name":"Wugang","lat":26.8039215,"lng":110.7769764},{"id":158286,"name":"Wuling","lat":29.0572367,"lng":111.6775679},{"id":158296,"name":"Wulingyuan","lat":29.3387031,"lng":110.5283093},{"id":20235,"name":"Wulingyuan","lat":29.34936,"lng":110.54407},{"id":20238,"name":"Wuxi","lat":26.5844,"lng":111.859},{"id":20242,"name":"Wuyang","lat":26.74278,"lng":110.32833},{"id":20255,"name":"Xiangtan","lat":27.681864,"lng":112.626292},{"id":158344,"name":"Xiangxi","lat":28.7120445,"lng":109.806804},{"id":20256,"name":"Xiangxi Tujiazu Miaozu Zizhizhou","lat":28.70573,"lng":109.73329},{"id":20257,"name":"Xiangxiang","lat":27.73333,"lng":112.53333},{"id":158250,"name":"Xiangxiang","lat":27.7517719,"lng":112.5255933},{"id":158282,"name":"Xiangyin","lat":28.698927,"lng":112.802196},{"id":20264,"name":"Xianrenwan","lat":27.75444,"lng":110.32972},{"id":20267,"name":"Xianxi","lat":26.33472,"lng":109.64306},{"id":20270,"name":"Xiaohenglong","lat":27.605,"lng":110.51694},{"id":20272,"name":"Xiaolongmen","lat":27.80194,"lng":110.16056},{"id":20273,"name":"Xiaoshajiang","lat":27.52139,"lng":110.74806},{"id":158341,"name":"Xinhua","lat":27.8376355,"lng":111.2747406},{"id":158334,"name":"Xinhuang","lat":27.2347,"lng":109.10899},{"id":158273,"name":"Xinning","lat":26.5764007,"lng":110.9330736},{"id":158269,"name":"Xinshao","lat":27.403715,"lng":111.511537},{"id":158324,"name":"Xintian","lat":25.8879915,"lng":112.1919898},{"id":20322,"name":"Xishan","lat":27.66667,"lng":113.5},{"id":20326,"name":"Xixi","lat":27.69375,"lng":110.95333},{"id":20328,"name":"Xiyan","lat":26.61639,"lng":110.47361},{"id":158331,"name":"Xupu","lat":27.790516,"lng":110.632213},{"id":158253,"name":"Yanfeng","lat":26.8442013,"lng":112.6100573},{"id":158245,"name":"Yanling","lat":26.382384,"lng":113.842812},{"id":20353,"name":"Yanmen","lat":27.855,"lng":109.74028},{"id":20360,"name":"Yaoshi","lat":26.29306,"lng":110.78917},{"id":20363,"name":"Yatunpu","lat":26.155,"lng":109.62667},{"id":20384,"name":"Yiyang","lat":28.438707,"lng":112.056694},{"id":158308,"name":"Yizhang","lat":25.3099567,"lng":112.8331182},{"id":158295,"name":"Yongding","lat":29.123281,"lng":110.5324834},{"id":20386,"name":"Yongfeng","lat":27.42829,"lng":112.18338},{"id":158351,"name":"Yongshun","lat":28.9878605,"lng":109.9843546},{"id":158309,"name":"Yongxing","lat":26.21126,"lng":113.185927},{"id":20388,"name":"Yongzhou","lat":25.781344,"lng":111.6979977},{"id":158243,"name":"Youxian","lat":27.01461,"lng":113.34904},{"id":158304,"name":"Yuanjiang","lat":28.973928,"lng":112.560755},{"id":158329,"name":"Yuanling","lat":28.564372,"lng":110.571018},{"id":158231,"name":"Yuelu","lat":28.1380379,"lng":112.8473132},{"id":158248,"name":"Yuetang","lat":27.8754453,"lng":112.963849},{"id":20396,"name":"Yueyang","lat":29.060703,"lng":113.348653},{"id":20397,"name":"Yueyang Shi","lat":29.32472,"lng":113.302},{"id":158277,"name":"Yueyanglou","lat":29.3346165,"lng":113.2167074},{"id":158247,"name":"Yuhu","lat":27.9348162,"lng":112.8442662},{"id":158233,"name":"Yuhua","lat":28.1389648,"lng":113.0306832},{"id":158278,"name":"Yunxi","lat":29.518187,"lng":113.281964},{"id":20408,"name":"Yutan","lat":28.25831,"lng":112.56048},{"id":20418,"name":"Zhaishi Miaozu Dongzuxiang","lat":26.50083,"lng":110.04444},{"id":20421,"name":"Zhangjiajie","lat":29.373828,"lng":110.530142},{"id":158255,"name":"Zhengxiang","lat":26.8784151,"lng":112.5421961},{"id":158335,"name":"Zhijiang","lat":27.4067104,"lng":109.6113239},{"id":158328,"name":"Zhongfang","lat":27.486767,"lng":110.069016},{"id":20449,"name":"Zhongfang","lat":27.41139,"lng":109.93194},{"id":20457,"name":"Zhongzhai","lat":27.19528,"lng":109.26861},{"id":158252,"name":"Zhuhui","lat":26.8911345,"lng":112.6574397},{"id":20474,"name":"Zhushi","lat":27.08778,"lng":110.67694},{"id":20475,"name":"Zhuzhou","lat":27.049812,"lng":113.55087},{"id":20476,"name":"Zhuzhou Shi","lat":27.8245,"lng":113.08228},{"id":20477,"name":"Zhuzhoujiang Miaozuxiang","lat":26.67528,"lng":110.07194},{"id":158315,"name":"Zixing","lat":25.9801706,"lng":113.2305536},{"id":158299,"name":"Ziyang","lat":28.6747471,"lng":112.3710144}]