[{"id":157614,"name":"Anlong","lat":25.2109136,"lng":105.3149496},{"id":19288,"name":"Anshun","lat":26.254911,"lng":105.9437773},{"id":19292,"name":"Aoshi","lat":26.40167,"lng":109.07111},{"id":19297,"name":"Bahuang","lat":27.71806,"lng":109.01889},{"id":19307,"name":"Baishi","lat":26.97361,"lng":109.44333},{"id":157558,"name":"Baiyun","lat":26.7383299,"lng":106.6756083},{"id":19313,"name":"Bangdong","lat":26.97556,"lng":109.18583},{"id":19337,"name":"Benchu","lat":26.77111,"lng":109.29056},{"id":157596,"name":"Bijiang","lat":27.8182643,"lng":109.2609112},{"id":19341,"name":"Bijie","lat":27.2150032,"lng":105.215166},{"id":157570,"name":"Bozhou","lat":27.5396316,"lng":106.8214413},{"id":157613,"name":"Ceheng","lat":24.96433,"lng":105.7943},{"id":157621,"name":"Cengong","lat":27.35551,"lng":108.69193},{"id":19360,"name":"Chadian","lat":27.58194,"lng":109.13278},{"id":19373,"name":"Changsha","lat":28.68778,"lng":105.98972},{"id":157641,"name":"Changshun","lat":25.9986951,"lng":106.3806126},{"id":157580,"name":"Chishui","lat":28.4877093,"lng":105.9095081},{"id":19408,"name":"Chumi","lat":28.23361,"lng":106.83278},{"id":157628,"name":"Congjiang","lat":25.7466615,"lng":108.7277142},{"id":19412,"name":"Dabachang","lat":27.7425,"lng":108.34333},{"id":157589,"name":"Dafang","lat":27.285132,"lng":105.664125},{"id":157631,"name":"Danzhai","lat":26.244187,"lng":107.895155},{"id":157574,"name":"Daozhen","lat":28.8695065,"lng":107.6069394},{"id":19431,"name":"Darong","lat":25.785,"lng":108.864},{"id":157603,"name":"Dejiang","lat":28.2664303,"lng":108.1114695},{"id":19484,"name":"Dundong","lat":26.0119,"lng":109.141},{"id":157638,"name":"Dushan","lat":25.7261906,"lng":107.5665558},{"id":19487,"name":"Duyun","lat":26.26667,"lng":107.51667},{"id":157633,"name":"Duyun","lat":26.1908679,"lng":107.4526239},{"id":149171,"name":"Fanzhuang","lat":39.19361111,"lng":117.335},{"id":157576,"name":"Fenggang","lat":27.932802,"lng":107.779757},{"id":157634,"name":"Fuquan","lat":26.8068033,"lng":107.4565621},{"id":19542,"name":"Gaoniang","lat":26.8425,"lng":109.17889},{"id":19545,"name":"Gaowu","lat":25.5625,"lng":108.908},{"id":19549,"name":"Gaozeng","lat":25.80167,"lng":108.9375},{"id":19558,"name":"Guandu","lat":28.56833,"lng":106.10255},{"id":157586,"name":"Guanling","lat":25.9481991,"lng":105.6319533},{"id":157559,"name":"Guanshanhu","lat":26.6196131,"lng":106.595038},{"id":157636,"name":"Guiding","lat":26.39759,"lng":107.187411},{"id":19575,"name":"Guiyang","lat":26.6499922,"lng":106.6246178},{"id":157594,"name":"Hezhang","lat":27.192859,"lng":104.630354},{"id":157568,"name":"Honghuagang","lat":27.6500812,"lng":106.8942254},{"id":157617,"name":"Huangping","lat":26.953575,"lng":107.845834},{"id":19666,"name":"Huaqiu","lat":28.11665,"lng":106.60225},{"id":157556,"name":"Huaxi","lat":26.438812,"lng":106.657623},{"id":157569,"name":"Huichuan","lat":27.753498,"lng":106.9300732},{"id":157643,"name":"Huishui","lat":26.0196756,"lng":106.7430503},{"id":157598,"name":"Jiangkou","lat":27.8036782,"lng":108.7689072},{"id":157624,"name":"Jianhe","lat":26.6739142,"lng":108.6856216},{"id":157623,"name":"Jinping","lat":26.6774641,"lng":109.1938575},{"id":157590,"name":"Jinsha","lat":27.4586013,"lng":106.2721365},{"id":157616,"name":"Kaili","lat":26.64678,"lng":107.950619},{"id":157560,"name":"Kaiyang","lat":27.103714,"lng":107.007557},{"id":19800,"name":"Lantian","lat":27.025,"lng":109.29472},{"id":157629,"name":"Leishan","lat":26.3825439,"lng":108.0753069},{"id":19813,"name":"Liangcunchang","lat":28.40667,"lng":106.42444},{"id":157635,"name":"Libo","lat":25.4270251,"lng":107.8949459},{"id":157626,"name":"Liping","lat":26.205997,"lng":109.039345},{"id":19861,"name":"Liupanshui","lat":26.5963778,"lng":104.8279652},{"id":157565,"name":"Liuzhi Special","lat":26.306247,"lng":105.323507},{"id":157642,"name":"Longli","lat":26.516296,"lng":106.954644},{"id":19869,"name":"Longlisuo","lat":26.41417,"lng":109.10222},{"id":19877,"name":"Loushanguan","lat":28.1368,"lng":106.822},{"id":157640,"name":"Luodian","lat":25.483333,"lng":106.65},{"id":157630,"name":"Majiang","lat":26.460601,"lng":107.643667},{"id":19906,"name":"Maoping","lat":26.73694,"lng":109.22111},{"id":157577,"name":"Meitan","lat":27.7379405,"lng":107.5068323},{"id":157554,"name":"Nanming","lat":26.5722545,"lng":106.7050549},{"id":157592,"name":"Nayong","lat":26.8591454,"lng":105.2539111},{"id":19970,"name":"Ouyang","lat":26.4191,"lng":109.216},{"id":157567,"name":"Panzhou","lat":25.8678,"lng":104.6031},{"id":157583,"name":"Pingba","lat":26.4100858,"lng":106.2532711},{"id":19979,"name":"Pingjiang","lat":25.97056,"lng":108.39528},{"id":157639,"name":"Pingtang","lat":25.801017,"lng":107.209266},{"id":157609,"name":"Pu'an","lat":25.7602213,"lng":104.9855973},{"id":157584,"name":"Puding","lat":26.3768929,"lng":105.7338679},{"id":157615,"name":"Qiandongnan","lat":26.5870883,"lng":107.978748},{"id":20007,"name":"Qiandongnan Miao and Dong Autonomous","lat":26.5738,"lng":108.59914},{"id":157632,"name":"Qiannan","lat":26.257011,"lng":107.5180339},{"id":157595,"name":"Qianxi","lat":27.088074,"lng":106.105158},{"id":157606,"name":"Qianxinan","lat":25.0925381,"lng":104.9019205},{"id":20009,"name":"Qianxinan Bouyeizu Miaozu Zizhizhou","lat":25.38808,"lng":105.3874},{"id":20014,"name":"Qimeng","lat":26.48472,"lng":108.99944},{"id":20019,"name":"Qinglang","lat":27.12472,"lng":108.73278},{"id":157610,"name":"Qinglong","lat":25.8377286,"lng":105.2159392},{"id":157563,"name":"Qingzhen","lat":26.732666,"lng":106.348323},{"id":157588,"name":"Qixingguan","lat":27.3016217,"lng":105.301895},{"id":157581,"name":"Renhuai","lat":27.885688,"lng":106.444535},{"id":157627,"name":"Rongjiang","lat":26.085855,"lng":108.450543},{"id":20046,"name":"Runsong","lat":26.87,"lng":109.097},{"id":20051,"name":"Sanchahe","lat":28.49528,"lng":106.42833},{"id":157644,"name":"Sandu","lat":25.90445,"lng":107.951003},{"id":20053,"name":"Sangmu","lat":28.21528,"lng":106.26889},{"id":157619,"name":"Sansui","lat":26.9607344,"lng":108.751655},{"id":157618,"name":"Shibing","lat":27.0850121,"lng":108.1114495},{"id":20104,"name":"Shiqian","lat":27.5225,"lng":108.22806},{"id":157600,"name":"Shiqian","lat":27.5096513,"lng":108.2148546},{"id":157566,"name":"Shuicheng","lat":26.5511613,"lng":104.9551167},{"id":157601,"name":"Sinan","lat":27.8954071,"lng":108.113086},{"id":20134,"name":"Songkan","lat":28.54972,"lng":106.85972},{"id":157605,"name":"Songtao","lat":28.1585224,"lng":109.1981804},{"id":157572,"name":"Suiyang","lat":28.095062,"lng":107.232375},{"id":157625,"name":"Taijiang","lat":26.609506,"lng":108.318147},{"id":157622,"name":"Tianzhu","lat":26.9317464,"lng":109.2619874},{"id":20185,"name":"Tingdong","lat":25.82444,"lng":108.6125},{"id":20189,"name":"Tonggu","lat":26.57222,"lng":109.30944},{"id":20193,"name":"Tongren","lat":27.952938,"lng":108.584018},{"id":20194,"name":"Tongren Diqu","lat":27.74188,"lng":109.19312},{"id":157571,"name":"Tongzi","lat":28.4189982,"lng":106.872259},{"id":157612,"name":"Wangmo","lat":25.1775663,"lng":106.0908081},{"id":157597,"name":"Wanshan","lat":27.6948488,"lng":109.1765603},{"id":20216,"name":"Weining","lat":26.85,"lng":104.23333},{"id":157593,"name":"Weining","lat":27.0349,"lng":104.067332},{"id":157637,"name":"Weng'an","lat":27.14594,"lng":107.406364},{"id":20224,"name":"Wenshui","lat":28.45056,"lng":106.52667},{"id":157575,"name":"Wuchuan","lat":28.5663348,"lng":107.8957142},{"id":157557,"name":"Wudang","lat":26.6336497,"lng":106.7493435},{"id":20250,"name":"Xiajiang","lat":25.75556,"lng":108.69194},{"id":20276,"name":"Xiaoweizhai","lat":26.19028,"lng":107.5125},{"id":157561,"name":"Xifeng","lat":27.149068,"lng":106.663488},{"id":157608,"name":"Xingren","lat":25.50503,"lng":105.19988},{"id":157607,"name":"Xingyi","lat":25.0947613,"lng":104.8935472},{"id":20315,"name":"Xinzhan","lat":28.38833,"lng":106.85667},{"id":20321,"name":"Xishan","lat":25.68528,"lng":108.96389},{"id":157579,"name":"Xishui","lat":28.3161993,"lng":106.2157148},{"id":157562,"name":"Xiuwen","lat":26.912912,"lng":106.582163},{"id":157582,"name":"Xixiu","lat":26.1841025,"lng":106.0620503},{"id":20334,"name":"Xujiaba","lat":27.88472,"lng":108.11361},{"id":20347,"name":"Yangtou","lat":27.68944,"lng":109.41389},{"id":157604,"name":"Yanhe","lat":28.5677313,"lng":108.4989684},{"id":157602,"name":"Yinjiang","lat":27.9691333,"lng":108.5004821},{"id":20390,"name":"Youyupu","lat":27.5517,"lng":109.135},{"id":157555,"name":"Yunyan","lat":26.6079969,"lng":106.7205994},{"id":157599,"name":"Yuping","lat":27.335178,"lng":109.01254},{"id":157578,"name":"Yuqing","lat":27.400864,"lng":107.664416},{"id":157611,"name":"Zhenfeng","lat":25.4549,"lng":105.6417},{"id":157573,"name":"Zheng'an","lat":28.556647,"lng":107.449628},{"id":157585,"name":"Zhenning","lat":25.9137457,"lng":105.8203997},{"id":157620,"name":"Zhenyuan","lat":27.134993,"lng":108.45421},{"id":157591,"name":"Zhijin","lat":26.6414506,"lng":105.7933078},{"id":20448,"name":"Zhongchao","lat":26.1375,"lng":109.22},{"id":157564,"name":"Zhongshan","lat":26.5778551,"lng":104.8406954},{"id":20468,"name":"Zhujiachang","lat":27.3575,"lng":108.93833},{"id":157587,"name":"Ziyun","lat":25.7537975,"lng":106.0806085},{"id":20483,"name":"Zunyi","lat":27.6912954,"lng":106.9155974}]