[{"id":159983,"name":"Central and Western","lat":22.28666,"lng":114.15497},{"id":159985,"name":"Eastern","lat":22.28411,"lng":114.22414},{"id":159982,"name":"Islands","lat":22.26114,"lng":113.94608},{"id":159989,"name":"Kowloon City","lat":22.3282,"lng":114.19155},{"id":159992,"name":"Kwai Tsing","lat":22.3634303,"lng":114.1229825},{"id":159991,"name":"Kwun Tong","lat":22.31326,"lng":114.22581},{"id":159994,"name":"North","lat":22.49471,"lng":114.13812},{"id":159981,"name":"Sai Kung","lat":21.6730519,"lng":108.3954313},{"id":159995,"name":"Sha Tin","lat":22.38715,"lng":114.19534},{"id":159988,"name":"Sham Shui Po","lat":22.2357383,"lng":114.1698162},{"id":159986,"name":"Southern","lat":22.24725,"lng":114.15884},{"id":159980,"name":"Tai Po","lat":22.45085,"lng":114.16422},{"id":159979,"name":"Tsuen Wan","lat":22.36281,"lng":114.12907},{"id":159993,"name":"Tuen Mun","lat":22.39163,"lng":113.9770885},{"id":159984,"name":"Wan Chai","lat":22.264499,"lng":114.1898216},{"id":159990,"name":"Wong Tai Sin","lat":22.33353,"lng":114.19686},{"id":159987,"name":"Yau Tsim Mong","lat":22.32138,"lng":114.1726},{"id":159978,"name":"Yuen Long","lat":22.4487051,"lng":114.0958704}]