[{"id":157380,"name":"Akesai","lat":39.1449161,"lng":94.3556942},{"id":157391,"name":"Anding","lat":35.638448,"lng":104.628177},{"id":157337,"name":"Anning","lat":36.1198836,"lng":103.6755664},{"id":19309,"name":"Baiyin","lat":36.536461,"lng":104.784953},{"id":19330,"name":"Beidao","lat":34.56861,"lng":105.89333},{"id":157343,"name":"Changcheng","lat":37.9111448,"lng":102.9017807},{"id":157334,"name":"Chengguan","lat":34.1902037,"lng":105.1775211},{"id":157399,"name":"Chengxian","lat":33.7413597,"lng":105.7269036},{"id":157372,"name":"Chongxin","lat":35.2452584,"lng":106.9879757},{"id":157418,"name":"Diebu","lat":33.9837983,"lng":103.5729227},{"id":19460,"name":"Dingxi","lat":35.1773165,"lng":104.59362},{"id":157413,"name":"Dongxiang","lat":35.692823,"lng":103.442724},{"id":157382,"name":"Dunhuang","lat":40.1411004,"lng":94.6607593},{"id":157356,"name":"Gangu","lat":34.7656528,"lng":105.291805},{"id":157328,"name":"Gannan","lat":34.3971917,"lng":102.7098994},{"id":157363,"name":"Ganzhou","lat":39.000167,"lng":100.51999},{"id":157340,"name":"Gaolan","lat":36.384141,"lng":103.889035},{"id":157367,"name":"Gaotai","lat":39.552986,"lng":99.70767},{"id":157411,"name":"Guanghe","lat":35.4721336,"lng":103.6101177},{"id":157378,"name":"Guazhou","lat":40.5187181,"lng":95.7810399},{"id":157361,"name":"Gulang","lat":37.5234607,"lng":103.3629573},{"id":157387,"name":"Heshui","lat":36.0154,"lng":108.269943},{"id":157412,"name":"Hezheng","lat":35.3063672,"lng":103.31814},{"id":19622,"name":"Hezuo","lat":34.98556,"lng":102.90944},{"id":157338,"name":"Honggu","lat":36.2790687,"lng":103.1009766},{"id":157386,"name":"Huachi","lat":36.4314109,"lng":108.0307314},{"id":157385,"name":"Huanxian","lat":36.5675857,"lng":107.3026311},{"id":157375,"name":"Huating","lat":35.2154458,"lng":106.5960843},{"id":157350,"name":"Huining","lat":35.8861213,"lng":105.0906157},{"id":157405,"name":"Huixian","lat":33.7675425,"lng":106.0800168},{"id":19716,"name":"Jiayuguan","lat":39.7722294,"lng":98.2885388},{"id":19728,"name":"Jinchang","lat":38.449693,"lng":102.058389},{"id":157345,"name":"Jinchuan","lat":38.6406625,"lng":102.1911782},{"id":157370,"name":"Jingchuan","lat":35.348094,"lng":107.431358},{"id":157374,"name":"Jingning","lat":35.415916,"lng":105.6925951},{"id":157351,"name":"Jingtai","lat":37.1056692,"lng":104.0552296},{"id":157344,"name":"Jingtie","lat":39.7935801,"lng":98.2758211},{"id":157349,"name":"Jingyuan","lat":36.498934,"lng":104.696337},{"id":157377,"name":"Jinta","lat":40.3552847,"lng":99.1644872},{"id":157414,"name":"Jishishan","lat":35.7016081,"lng":102.9229176},{"id":19758,"name":"Jiuquan","lat":40.2773513,"lng":96.4560478},{"id":157409,"name":"Kangle","lat":35.2453026,"lng":103.6238324},{"id":157402,"name":"Kangxian","lat":33.3312064,"lng":105.6050116},{"id":157369,"name":"Kongtong","lat":35.4816584,"lng":106.7744534},{"id":19803,"name":"Lanzhou","lat":36.474436,"lng":103.733224},{"id":19806,"name":"Laojunmiao","lat":39.83333,"lng":97.73333},{"id":157406,"name":"Liangdang","lat":33.8718307,"lng":106.3817727},{"id":157359,"name":"Liangzhou","lat":37.904466,"lng":102.776799},{"id":157371,"name":"Lingtai","lat":35.0759545,"lng":107.398731},{"id":157415,"name":"Lintan","lat":34.7148215,"lng":103.6227356},{"id":157395,"name":"Lintao","lat":35.446596,"lng":103.9799485},{"id":157327,"name":"Linxia","lat":35.7003215,"lng":103.2791334},{"id":19854,"name":"Linxia Chengguanzhen","lat":35.60028,"lng":103.20639},{"id":19855,"name":"Linxia Huizu Zizhizhou","lat":35.66597,"lng":103.2408},{"id":157366,"name":"Linze","lat":39.347318,"lng":100.188022},{"id":157404,"name":"Lixian","lat":34.1902037,"lng":105.1775211},{"id":19871,"name":"Longnan","lat":33.5363816,"lng":105.3513561},{"id":157393,"name":"Longxi","lat":35.1044218,"lng":104.6258144},{"id":157420,"name":"Luqu","lat":34.3955892,"lng":102.5020983},{"id":157353,"name":"Maiji","lat":34.3998174,"lng":106.2290488},{"id":157419,"name":"Maqu","lat":33.8679726,"lng":101.7112242},{"id":19908,"name":"Mawu","lat":34.42639,"lng":104.91472},{"id":157365,"name":"Minle","lat":38.5050225,"lng":100.7636526},{"id":157360,"name":"Minqin","lat":38.753616,"lng":103.168877},{"id":157397,"name":"Minxian","lat":34.4352469,"lng":104.2694097},{"id":157389,"name":"Ningxian","lat":35.5029128,"lng":107.9251481},{"id":157348,"name":"Pingchuan","lat":36.717366,"lng":104.96699},{"id":19980,"name":"Pingliang","lat":35.22678,"lng":106.495648},{"id":157335,"name":"Qilihe","lat":35.986124,"lng":103.744432},{"id":157355,"name":"Qin'an","lat":34.940555,"lng":105.70068},{"id":20015,"name":"Qincheng","lat":34.58028,"lng":105.72722},{"id":157384,"name":"Qingcheng","lat":36.037175,"lng":107.668179},{"id":157354,"name":"Qingshui","lat":34.729233,"lng":106.1177158},{"id":20026,"name":"Qingyang","lat":36.182368,"lng":107.6216357},{"id":157352,"name":"Qinzhou","lat":34.5797531,"lng":105.7062921},{"id":157368,"name":"Shandan","lat":38.530857,"lng":101.226025},{"id":157379,"name":"Subei","lat":39.7281239,"lng":96.455217},{"id":157364,"name":"Sunan","lat":39.054054,"lng":99.091892},{"id":157376,"name":"Suzhou","lat":39.578504,"lng":98.812274},{"id":157401,"name":"Tanchang","lat":33.9703822,"lng":104.4396459},{"id":20181,"name":"Tianshui","lat":34.6538841,"lng":105.8003895},{"id":157362,"name":"Tianzhu","lat":37.2521211,"lng":102.7459349},{"id":157392,"name":"Tongwei","lat":35.2106159,"lng":105.1870177},{"id":157394,"name":"Weiyuan","lat":35.1515208,"lng":104.1445423},{"id":157400,"name":"Wenxian","lat":32.9470007,"lng":104.6790425},{"id":157398,"name":"Wudu","lat":33.2170067,"lng":105.146142},{"id":157357,"name":"Wushan","lat":34.6824153,"lng":104.8919791},{"id":20237,"name":"Wuwei","lat":37.928881,"lng":102.6359886},{"id":157421,"name":"Xiahe","lat":34.9842192,"lng":102.4476724},{"id":157383,"name":"Xifeng","lat":35.6630834,"lng":107.6720418},{"id":157336,"name":"Xigu","lat":36.1300028,"lng":103.5418853},{"id":157403,"name":"Xihe","lat":33.910734,"lng":105.35607},{"id":157342,"name":"Xiongguan","lat":39.7829571,"lng":98.2745612},{"id":157346,"name":"Yongchang","lat":38.2471544,"lng":101.9713736},{"id":157339,"name":"Yongdeng","lat":36.7339512,"lng":103.2586357},{"id":157410,"name":"Yongjing","lat":35.997006,"lng":103.249578},{"id":157381,"name":"Yumen","lat":40.2355108,"lng":97.4322482},{"id":157341,"name":"Yuzhong","lat":35.983542,"lng":104.2485719},{"id":157358,"name":"Zhangjiachuan","lat":34.9948392,"lng":106.2721109},{"id":157396,"name":"Zhangxian","lat":34.8495896,"lng":104.4694444},{"id":20426,"name":"Zhangye","lat":39.121833,"lng":99.924947},{"id":157388,"name":"Zhengning","lat":35.411023,"lng":108.385619},{"id":157390,"name":"Zhenyuan","lat":35.770382,"lng":107.1671551},{"id":157417,"name":"Zhongqu","lat":35.1305,"lng":106.129},{"id":157373,"name":"Zhuanglang","lat":35.2579282,"lng":106.0619372},{"id":157416,"name":"Zhuoni","lat":34.5651009,"lng":103.359637}]