[{"id":19295,"name":"Babu","lat":24.41667,"lng":111.51667},{"id":159620,"name":"Babu","lat":24.3320844,"lng":111.7803928},{"id":19299,"name":"Baihe","lat":22.1343,"lng":107.232},{"id":19303,"name":"Baise","lat":23.9053605,"lng":106.6148824},{"id":19304,"name":"Baise","lat":23.9,"lng":106.61667},{"id":159633,"name":"Bama","lat":24.1437442,"lng":107.2558901},{"id":19331,"name":"Beihai","lat":21.6740808,"lng":109.3729721},{"id":159606,"name":"Beiliu","lat":22.4427933,"lng":110.5314264},{"id":159547,"name":"Binyang","lat":23.1729928,"lng":108.9397846},{"id":159604,"name":"Bobai","lat":22.1173477,"lng":109.8853482},{"id":159579,"name":"Cangwu","lat":23.7626311,"lng":111.2443602},{"id":159582,"name":"Cenxi","lat":22.9212029,"lng":110.9898501},{"id":159577,"name":"Changzhou","lat":23.4885963,"lng":111.270561},{"id":159549,"name":"Chengzhong","lat":24.3625789,"lng":109.4591902},{"id":19407,"name":"Chongzuo","lat":22.4910206,"lng":107.328244},{"id":159635,"name":"Dahua","lat":23.982268,"lng":107.675469},{"id":159646,"name":"Daxin","lat":22.8393146,"lng":107.2107083},{"id":19441,"name":"Dazhai","lat":25.8098,"lng":110.15},{"id":159610,"name":"Debao","lat":23.3265574,"lng":106.6119199},{"id":159560,"name":"Diecai","lat":25.3169103,"lng":110.2972181},{"id":159630,"name":"Donglan","lat":24.5135608,"lng":107.3699251},{"id":159590,"name":"Dongxing","lat":21.6058074,"lng":108.0698483},{"id":159634,"name":"Du'an","lat":24.1621831,"lng":108.1521593},{"id":159588,"name":"Fangcheng","lat":21.7334318,"lng":108.0526815},{"id":19498,"name":"Fangchenggang","lat":21.8615,"lng":108.0271898},{"id":159629,"name":"Fengshan","lat":24.5475515,"lng":107.0407246},{"id":159624,"name":"Fuchuan","lat":24.821618,"lng":111.2693007},{"id":159601,"name":"Fumian","lat":22.4840102,"lng":110.0224107},{"id":159643,"name":"Fusui","lat":22.5172522,"lng":107.8085335},{"id":159595,"name":"Gangbei","lat":23.2325135,"lng":109.6497338},{"id":159587,"name":"Gangkou","lat":21.6494511,"lng":108.4510228},{"id":159596,"name":"Gangnan","lat":23.0776475,"lng":109.5958935},{"id":159574,"name":"Gongcheng","lat":24.9574263,"lng":110.8726488},{"id":159570,"name":"Guanyang","lat":25.4537387,"lng":111.042336},{"id":19569,"name":"Guigang","lat":23.3594346,"lng":110.0412939},{"id":19570,"name":"Guilin","lat":25.2779894,"lng":110.2910622},{"id":19571,"name":"Guilin","lat":25.28333,"lng":110.28333},{"id":19572,"name":"Guiping","lat":23.39336,"lng":110.07437},{"id":159599,"name":"Guiping","lat":23.2817204,"lng":110.0967393},{"id":159583,"name":"Haicheng","lat":21.4767126,"lng":109.1139792},{"id":19603,"name":"Hechi","lat":24.7169004,"lng":107.8857367},{"id":159548,"name":"Hengzhou","lat":22.773994,"lng":109.171195},{"id":159586,"name":"Hepu","lat":21.7471247,"lng":109.3491272},{"id":159641,"name":"Heshan","lat":23.7965273,"lng":108.9291517},{"id":159619,"name":"Hezhou","lat":24.3705146,"lng":111.3590955},{"id":159632,"name":"Huanjiang","lat":25.01784,"lng":108.2572278},{"id":159539,"name":"Jiangnan","lat":22.7848277,"lng":108.2691257},{"id":159642,"name":"Jiangzhou","lat":22.5571351,"lng":107.4596528},{"id":159625,"name":"Jinchengjiang","lat":24.6694836,"lng":107.8541551},{"id":159617,"name":"Jingxi","lat":23.1371896,"lng":106.4138603},{"id":19743,"name":"Jinji","lat":23.22806,"lng":110.82611},{"id":159640,"name":"Jinxiu","lat":24.0823577,"lng":110.1302124},{"id":19789,"name":"Laibin","lat":23.7532648,"lng":109.2169807},{"id":159613,"name":"Leye","lat":24.7886823,"lng":106.5570754},{"id":159541,"name":"Liangqing","lat":22.4935273,"lng":108.3320604},{"id":19827,"name":"Lianzhou","lat":21.66621,"lng":109.20116},{"id":19840,"name":"Lingcheng","lat":22.70722,"lng":110.34917},{"id":159566,"name":"Lingchuan","lat":25.3635724,"lng":110.4064175},{"id":159593,"name":"Lingshan","lat":22.3029951,"lng":109.1799818},{"id":159564,"name":"Lingui","lat":25.317961,"lng":110.0500475},{"id":159612,"name":"Lingyun","lat":24.349261,"lng":106.5606981},{"id":159575,"name":"Lipu","lat":24.4914297,"lng":110.3904799},{"id":159552,"name":"Liubei","lat":24.4252701,"lng":109.394302},{"id":159554,"name":"Liucheng","lat":24.6530412,"lng":109.2403085},{"id":159553,"name":"Liujiang","lat":24.1880418,"lng":109.2157342},{"id":159551,"name":"Liunan","lat":24.3633613,"lng":109.2349999},{"id":19863,"name":"Liuzhou","lat":25.0009993,"lng":109.3414252},{"id":159544,"name":"Long'an","lat":23.1038568,"lng":107.6946613},{"id":159616,"name":"Longlin","lat":24.7013802,"lng":105.3291021},{"id":159571,"name":"Longsheng","lat":25.8691106,"lng":110.0061021},{"id":159578,"name":"Longxu","lat":23.2385082,"lng":111.2635217},{"id":159645,"name":"Longzhou","lat":22.4360306,"lng":106.8719711},{"id":159603,"name":"Luchuan","lat":22.2597918,"lng":110.2637329},{"id":159631,"name":"Luocheng","lat":24.876009,"lng":108.7904579},{"id":19887,"name":"Luorong","lat":24.40583,"lng":109.60861},{"id":159555,"name":"Luzhai","lat":24.5296348,"lng":109.8454271},{"id":159545,"name":"Mashan","lat":23.711318,"lng":108.1740267},{"id":159581,"name":"Mengshan","lat":24.1216889,"lng":110.5657193},{"id":159627,"name":"Nandan","lat":25.1527458,"lng":107.4050876},{"id":19938,"name":"Nandu","lat":22.8525,"lng":110.82333},{"id":19945,"name":"Nanning","lat":22.8193063,"lng":108.3627211},{"id":159611,"name":"Napo","lat":23.2590121,"lng":105.8161913},{"id":159644,"name":"Ningming","lat":22.0232738,"lng":107.2828661},{"id":159621,"name":"Pinggui","lat":24.2657466,"lng":111.4439378},{"id":159618,"name":"Pingguo","lat":23.5576943,"lng":107.5643907},{"id":159573,"name":"Pingle","lat":24.5646129,"lng":110.8153125},{"id":19981,"name":"Pingnan","lat":23.54218,"lng":110.38946},{"id":159598,"name":"Pingnan","lat":23.5422149,"lng":110.3878006},{"id":159648,"name":"Pingxiang","lat":22.0840478,"lng":106.8323785},{"id":159594,"name":"Pubei","lat":22.2559843,"lng":109.4791784},{"id":19995,"name":"Pumiao","lat":22.75867,"lng":108.48111},{"id":159592,"name":"Qinbei","lat":22.1769151,"lng":108.5239778},{"id":159538,"name":"Qingxiu","lat":22.8093017,"lng":108.6559132},{"id":159591,"name":"Qinnan","lat":21.9009245,"lng":108.7695404},{"id":159597,"name":"Qintang","lat":23.1302575,"lng":109.448547},{"id":20031,"name":"Qinzhou","lat":21.9647835,"lng":108.620787},{"id":159562,"name":"Qixing","lat":25.265694,"lng":110.3398776},{"id":159567,"name":"Quanzhou","lat":25.9302709,"lng":111.0684754},{"id":159556,"name":"Rong'an","lat":25.161779,"lng":109.4979799},{"id":159557,"name":"Rongshui","lat":25.3241772,"lng":109.0220474},{"id":159602,"name":"Rongxian","lat":22.8621872,"lng":110.5271387},{"id":159558,"name":"Sanjiang","lat":25.7870306,"lng":109.6031323},{"id":159546,"name":"Shanglin","lat":23.512383,"lng":108.6408325},{"id":159589,"name":"Shangsi","lat":22.0729154,"lng":107.9049669},{"id":159580,"name":"Tengxian","lat":23.3367345,"lng":110.9822827},{"id":159628,"name":"Tian'e","lat":25.0059739,"lng":106.9972215},{"id":159647,"name":"Tiandeng","lat":23.083333,"lng":107.066667},{"id":159609,"name":"Tiandong","lat":23.5995314,"lng":107.1272702},{"id":159614,"name":"Tianlin","lat":24.2974811,"lng":106.2256982},{"id":159608,"name":"Tianyang","lat":23.7380833,"lng":106.9125394},{"id":159585,"name":"Tieshangang","lat":21.5622693,"lng":109.4793176},{"id":159576,"name":"Wanxiu","lat":23.5576937,"lng":111.3079827},{"id":159543,"name":"Wuming","lat":23.2716283,"lng":108.2496629},{"id":159639,"name":"Wuxuan","lat":23.5965829,"lng":109.6583496},{"id":20247,"name":"Wuzhou","lat":23.5715402,"lng":111.0139268},{"id":159561,"name":"Xiangshan","lat":25.2095621,"lng":110.2787873},{"id":159638,"name":"Xiangzhou","lat":24.0402845,"lng":109.7653662},{"id":159615,"name":"Xilin","lat":24.4949232,"lng":105.0931728},{"id":159637,"name":"Xincheng","lat":24.0000548,"lng":108.7509142},{"id":159568,"name":"Xing'an","lat":25.6144075,"lng":110.6682355},{"id":159636,"name":"Xingbin","lat":23.6628439,"lng":109.2161165},{"id":159537,"name":"Xingning","lat":22.9450369,"lng":108.5291283},{"id":159605,"name":"Xingye","lat":22.7936964,"lng":109.9310517},{"id":159559,"name":"Xiufeng","lat":25.2763793,"lng":110.2596116},{"id":159540,"name":"Xixiangtang","lat":22.9008465,"lng":108.1233208},{"id":20346,"name":"Yangshuo","lat":24.78081,"lng":110.48967},{"id":159565,"name":"Yangshuo","lat":24.8630286,"lng":110.4871831},{"id":159563,"name":"Yanshan","lat":25.1179329,"lng":110.3519147},{"id":20361,"name":"Yashan","lat":22.1975,"lng":109.94194},{"id":159584,"name":"Yinhai","lat":21.5109737,"lng":109.261189},{"id":159626,"name":"Yizhou","lat":24.503824,"lng":108.6074648},{"id":159569,"name":"Yongfu","lat":24.9835232,"lng":109.9783989},{"id":159542,"name":"Yongning","lat":22.5907161,"lng":108.6185632},{"id":159607,"name":"Youjiang","lat":23.9724514,"lng":106.5083299},{"id":159550,"name":"Yufeng","lat":24.3051585,"lng":109.435671},{"id":20398,"name":"Yulin","lat":22.4199189,"lng":110.2143149},{"id":159649,"name":"Yulin,","lat":22.4199189,"lng":110.2143149},{"id":159600,"name":"Yuzhou","lat":22.6314632,"lng":110.1461735},{"id":159622,"name":"Zhaoping","lat":24.12362,"lng":110.96062},{"id":159623,"name":"Zhongshan","lat":24.5284691,"lng":111.2989334},{"id":159572,"name":"Ziyuan","lat":26.0457974,"lng":110.64816}]