[{"id":19278,"name":"Anbu","lat":23.44895,"lng":116.68092},{"id":157426,"name":"Baiyun","lat":23.1606324,"lng":113.267895},{"id":157446,"name":"Bao'an","lat":22.5598573,"lng":113.8790404},{"id":157535,"name":"Binhai","lat":23.2524539,"lng":116.6853685},{"id":157498,"name":"Boluo","lat":23.3366924,"lng":114.3214778},{"id":157462,"name":"Chancheng","lat":23.0120197,"lng":113.1173438},{"id":157542,"name":"Chao'an","lat":23.4659435,"lng":116.6729801},{"id":157459,"name":"Chaonan","lat":23.2423708,"lng":116.434165},{"id":157458,"name":"Chaoyang","lat":23.268449,"lng":116.5969864},{"id":19383,"name":"Chaozhou","lat":23.656593,"lng":116.6204223},{"id":157460,"name":"Chenghai","lat":23.4694075,"lng":116.7515585},{"id":19389,"name":"Chenghua","lat":23.46132,"lng":116.77007},{"id":157509,"name":"Chengqu","lat":22.7817608,"lng":115.3599642},{"id":157474,"name":"Chikan","lat":21.2686886,"lng":110.3621143},{"id":157431,"name":"Conghua","lat":23.670764,"lng":113.6934958},{"id":157503,"name":"Dabu","lat":24.3505527,"lng":116.6902216},{"id":19422,"name":"Daliang","lat":22.84067,"lng":113.2503},{"id":19426,"name":"Danshui","lat":22.7984,"lng":114.46716},{"id":19432,"name":"Dasha","lat":23.11037,"lng":113.4418},{"id":157494,"name":"Deqing","lat":23.2868522,"lng":111.9695802},{"id":157484,"name":"Dianbai","lat":21.6855679,"lng":111.1614359},{"id":157489,"name":"Dinghu","lat":23.1618953,"lng":112.5625362},{"id":157539,"name":"Dongbei","lat":24.991957,"lng":112.295975},{"id":157533,"name":"Dongbu","lat":0.0,"lng":0.0},{"id":19467,"name":"Dongguan","lat":23.0183568,"lng":113.7452332},{"id":19468,"name":"Donghai","lat":22.94593,"lng":115.64204},{"id":157534,"name":"Dongnan","lat":24.233374,"lng":112.035975},{"id":157518,"name":"Dongyuan","lat":23.9661771,"lng":114.8428331},{"id":157453,"name":"Doumen","lat":22.2119876,"lng":113.2909793},{"id":157488,"name":"Duanzhou","lat":23.1018396,"lng":112.4594872},{"id":19483,"name":"Ducheng","lat":23.24212,"lng":111.5284},{"id":19490,"name":"Encheng","lat":22.18659,"lng":112.30424},{"id":157473,"name":"Enping","lat":22.2525211,"lng":112.2876964},{"id":157493,"name":"Fengkai","lat":23.521183,"lng":111.6979967},{"id":157504,"name":"Fengshun","lat":23.8972166,"lng":116.2476093},{"id":157525,"name":"Fogang","lat":23.8825802,"lng":113.5262764},{"id":19514,"name":"Foshan","lat":23.0239788,"lng":113.1159558},{"id":19515,"name":"Foshan Shi","lat":23.02264,"lng":112.96302},{"id":157444,"name":"Futian","lat":22.5243632,"lng":114.049894},{"id":157466,"name":"Gaoming","lat":22.9032867,"lng":112.8866883},{"id":19546,"name":"Gaoyao","lat":23.02432,"lng":112.44555},{"id":157490,"name":"Gaoyao","lat":23.0279783,"lng":112.452589},{"id":19550,"name":"Gaozhou","lat":21.93924,"lng":110.84607},{"id":157485,"name":"Gaozhou","lat":22.0461477,"lng":110.9644447},{"id":157451,"name":"Guangming","lat":22.7516872,"lng":113.9300061},{"id":157491,"name":"Guangning","lat":23.6348923,"lng":112.4317972},{"id":19562,"name":"Guangzhou","lat":23.1301964,"lng":113.2592945},{"id":19563,"name":"Guangzhou Shi","lat":23.37327,"lng":113.51219},{"id":157510,"name":"Haifeng","lat":23.0267537,"lng":115.3414869},{"id":19590,"name":"Haimen","lat":23.19346,"lng":116.61219},{"id":157424,"name":"Haizhu","lat":23.0859958,"lng":113.3119935},{"id":157457,"name":"Haojiang","lat":23.2851927,"lng":116.7218033},{"id":157517,"name":"Heping","lat":24.4400445,"lng":115.0082784},{"id":19617,"name":"Hepo","lat":23.43077,"lng":115.82991},{"id":157472,"name":"Heshan","lat":22.663757,"lng":112.8065463},{"id":19620,"name":"Heyuan","lat":23.746777,"lng":114.6954482},{"id":157429,"name":"Huadu","lat":23.4612392,"lng":113.2141965},{"id":19637,"name":"Huaicheng","lat":23.91952,"lng":112.17629},{"id":157492,"name":"Huaiji","lat":23.9228747,"lng":112.1616895},{"id":19646,"name":"Huanggang","lat":23.67704,"lng":116.99961},{"id":157427,"name":"Huangpu","lat":23.1829981,"lng":113.4748416},{"id":19669,"name":"Huazhou","lat":21.63333,"lng":110.58333},{"id":157486,"name":"Huazhou","lat":21.8302699,"lng":110.5300134},{"id":19672,"name":"Huicheng","lat":23.03845,"lng":116.28988},{"id":157496,"name":"Huicheng","lat":23.1509763,"lng":114.4895969},{"id":157499,"name":"Huidong","lat":23.1315213,"lng":115.0337206},{"id":157547,"name":"Huilai","lat":23.0325965,"lng":116.225746},{"id":157497,"name":"Huiyang","lat":22.8937884,"lng":114.4604579},{"id":19675,"name":"Huizhou","lat":23.1125153,"lng":114.4127007},{"id":157519,"name":"Jiangcheng","lat":21.7795872,"lng":111.8908375},{"id":157468,"name":"Jianghai","lat":22.5513033,"lng":113.1249948},{"id":19699,"name":"Jiangmen","lat":22.5816619,"lng":113.0761073},{"id":157507,"name":"Jiaoling","lat":24.6613582,"lng":116.1665092},{"id":19717,"name":"Jiazi","lat":22.87932,"lng":116.07318},{"id":157545,"name":"Jiedong","lat":23.5691604,"lng":116.4071625},{"id":19720,"name":"Jieshi","lat":22.81027,"lng":115.83058},{"id":157546,"name":"Jiexi","lat":23.4337991,"lng":115.8378454},{"id":19723,"name":"Jieyang","lat":23.553156,"lng":116.3680354},{"id":157456,"name":"Jinping","lat":23.3685403,"lng":116.6989182},{"id":157454,"name":"Jinwan","lat":22.1176731,"lng":113.3575196},{"id":157471,"name":"Kaiping","lat":22.3474568,"lng":112.5344174},{"id":157441,"name":"Lechang","lat":25.2546339,"lng":113.256682},{"id":19807,"name":"Lecheng","lat":25.128,"lng":113.35041},{"id":157481,"name":"Leizhou","lat":20.7610912,"lng":110.027989},{"id":19821,"name":"Lianjiang","lat":21.64673,"lng":110.28172},{"id":157480,"name":"Lianjiang","lat":21.6567913,"lng":110.148109},{"id":157528,"name":"Liannan","lat":24.577962,"lng":112.264317},{"id":157516,"name":"Lianping","lat":24.3761422,"lng":114.4885135},{"id":157527,"name":"Lianshan","lat":24.5730213,"lng":112.0885277},{"id":157530,"name":"Lianzhou","lat":24.9377373,"lng":112.4818454},{"id":19826,"name":"Lianzhou","lat":24.78186,"lng":112.3712},{"id":19833,"name":"Licheng","lat":23.29549,"lng":113.82465},{"id":157422,"name":"Liwan","lat":23.1100378,"lng":113.2136488},{"id":157447,"name":"Longgang","lat":22.7230369,"lng":114.2426561},{"id":157455,"name":"Longhu","lat":23.3740077,"lng":116.7120999},{"id":157449,"name":"Longhua","lat":22.6994309,"lng":114.0398603},{"id":157500,"name":"Longmen","lat":23.6671676,"lng":114.1328416},{"id":19879,"name":"Lubu","lat":23.17233,"lng":112.28298},{"id":157512,"name":"Lufeng","lat":22.9729159,"lng":115.7946525},{"id":157511,"name":"Luhe","lat":23.2812462,"lng":115.6153317},{"id":157515,"name":"Lungchuan","lat":0.0,"lng":0.0},{"id":19881,"name":"Luocheng","lat":22.76953,"lng":111.56882},{"id":157553,"name":"Luoding","lat":22.6925875,"lng":111.4851366},{"id":157443,"name":"Luohu","lat":22.5506391,"lng":114.1261389},{"id":19888,"name":"Luoyang","lat":23.16244,"lng":114.27342},{"id":19898,"name":"Maba","lat":24.68413,"lng":113.59839},{"id":19904,"name":"Maoming","lat":21.6656961,"lng":110.9209511},{"id":157483,"name":"Maonan","lat":21.6442556,"lng":110.9139827},{"id":157477,"name":"Mazhang","lat":21.1290003,"lng":110.2984428},{"id":157501,"name":"Meijiang","lat":24.3132062,"lng":116.1119122},{"id":157502,"name":"Meixian","lat":24.4146228,"lng":116.2342558},{"id":19913,"name":"Meizhou","lat":24.2918414,"lng":116.1171428},{"id":157461,"name":"Nan'ao","lat":23.4240181,"lng":117.0189654},{"id":157540,"name":"Nanbu","lat":22.7015606,"lng":114.3632037},{"id":19939,"name":"Nanfeng","lat":23.72695,"lng":111.79723},{"id":157463,"name":"Nanhai","lat":23.0314096,"lng":113.1375151},{"id":157430,"name":"Nansha","lat":22.8043913,"lng":113.5198188},{"id":157445,"name":"Nanshan","lat":22.5360142,"lng":113.9256222},{"id":157442,"name":"Nanxiong","lat":25.2127803,"lng":114.4450823},{"id":157428,"name":"Panyu","lat":22.9387253,"lng":113.3785422},{"id":157467,"name":"Pengjiang","lat":22.6466774,"lng":113.0513579},{"id":19982,"name":"Pingshan","lat":22.99376,"lng":114.71311},{"id":157450,"name":"Pingshan","lat":22.7113827,"lng":114.3461882},{"id":157506,"name":"Pingyuan","lat":24.660628,"lng":115.910067},{"id":157476,"name":"Potou","lat":21.2511115,"lng":110.4950611},{"id":19996,"name":"Puning","lat":23.31072,"lng":116.16869},{"id":157548,"name":"Puning","lat":23.3000453,"lng":116.160937},{"id":157523,"name":"Qingcheng","lat":23.6999044,"lng":113.0571911},{"id":157524,"name":"Qingxin","lat":23.8887571,"lng":112.8486756},{"id":20027,"name":"Qingyuan","lat":23.6832984,"lng":113.0505994},{"id":157435,"name":"Qujiang","lat":24.6457696,"lng":113.6103909},{"id":157543,"name":"Raoping","lat":23.6660886,"lng":116.9995994},{"id":157437,"name":"Renhua","lat":25.1493297,"lng":113.7958621},{"id":157544,"name":"Rongcheng","lat":23.5278913,"lng":116.3623373},{"id":157439,"name":"Ruyuan","lat":24.8188361,"lng":113.175057},{"id":20057,"name":"Sanshui","lat":23.15486,"lng":112.89161},{"id":157465,"name":"Sanshui","lat":23.1719966,"lng":112.8848344},{"id":20076,"name":"Shantou","lat":23.3563921,"lng":116.6775856},{"id":20077,"name":"Shanwei","lat":23.0123639,"lng":115.5099937},{"id":20080,"name":"Shaoguan","lat":24.8309489,"lng":113.8155263},{"id":20083,"name":"Shaping","lat":22.77019,"lng":112.95776},{"id":20091,"name":"Shenzhen","lat":22.5445741,"lng":114.0545429},{"id":20101,"name":"Shilong","lat":23.11444,"lng":113.84722},{"id":20103,"name":"Shiqi","lat":22.51682,"lng":113.38521},{"id":20105,"name":"Shiqiao","lat":22.9464,"lng":113.35769},{"id":20107,"name":"Shiwan","lat":23.00107,"lng":113.077},{"id":20108,"name":"Shixing","lat":24.94824,"lng":114.06572},{"id":157436,"name":"Shixing","lat":24.9563552,"lng":114.0566468},{"id":157536,"name":"Shuixiang","lat":21.6258278,"lng":111.9707428},{"id":157464,"name":"Shunde","lat":22.8545655,"lng":113.1865161},{"id":157495,"name":"Sihui","lat":23.4423808,"lng":112.6997273},{"id":157532,"name":"Songshanhu","lat":22.9250491,"lng":113.8812979},{"id":157478,"name":"Suixi","lat":21.289356,"lng":110.0089281},{"id":20160,"name":"Taishan","lat":22.25135,"lng":112.7799},{"id":157470,"name":"Taishan","lat":22.0638475,"lng":112.7128587},{"id":20170,"name":"Tangping","lat":22.03177,"lng":111.93537},{"id":157425,"name":"Tianhe","lat":23.12712,"lng":113.356424},{"id":157438,"name":"Wengyuan","lat":24.4115224,"lng":114.0540261},{"id":20230,"name":"Wuchuan","lat":21.45713,"lng":110.76591},{"id":157482,"name":"Wuchuan","lat":21.4413258,"lng":110.6942289},{"id":157505,"name":"Wuhua","lat":23.7927287,"lng":115.634192},{"id":157433,"name":"Wujiang","lat":24.7034405,"lng":113.3810784},{"id":157541,"name":"Xiangqiao","lat":23.6775227,"lng":116.6240731},{"id":157452,"name":"Xiangzhou","lat":22.2694222,"lng":113.5382573},{"id":157475,"name":"Xiashan","lat":21.1941363,"lng":110.3933516},{"id":157538,"name":"Xibei","lat":22.2277428,"lng":113.505016},{"id":157440,"name":"Xinfeng","lat":24.0624063,"lng":114.2018789},{"id":20296,"name":"Xingning","lat":24.1483,"lng":115.72272},{"id":157508,"name":"Xingning","lat":24.2579216,"lng":115.7531534},{"id":20299,"name":"Xinhui","lat":22.456,"lng":113.0482},{"id":157469,"name":"Xinhui","lat":22.3836907,"lng":113.0328366},{"id":157551,"name":"Xinxing","lat":22.6350852,"lng":112.1968457},{"id":20312,"name":"Xinyi","lat":22.37303,"lng":110.94746},{"id":157487,"name":"Xinyi","lat":22.3580316,"lng":110.942291},{"id":20319,"name":"Xiongzhou","lat":25.11667,"lng":114.3},{"id":20333,"name":"Xucheng","lat":20.32917,"lng":110.16712},{"id":157479,"name":"Xuwen","lat":20.4407244,"lng":110.2226484},{"id":20341,"name":"Yangchun","lat":22.16667,"lng":111.78333},{"id":157522,"name":"Yangchun","lat":22.2518472,"lng":111.6936609},{"id":157520,"name":"Yangdong","lat":22.0203937,"lng":112.0561249},{"id":20344,"name":"Yangjiang","lat":22.0958223,"lng":111.7831393},{"id":157526,"name":"Yangshan","lat":24.468328,"lng":112.6360737},{"id":157521,"name":"Yangxi","lat":21.6929117,"lng":111.6030819},{"id":157448,"name":"Yantian","lat":22.5590503,"lng":114.2324407},{"id":20375,"name":"Yingcheng","lat":24.16588,"lng":113.41267},{"id":157529,"name":"Yingde","lat":24.2079886,"lng":113.3962832},{"id":157513,"name":"Yuancheng","lat":23.7046594,"lng":114.6422046},{"id":157423,"name":"Yuexiu","lat":23.1312782,"lng":113.2614717},{"id":157550,"name":"Yun'an","lat":22.8458064,"lng":111.9218431},{"id":157552,"name":"Yunan","lat":23.0405628,"lng":111.59088},{"id":157549,"name":"Yuncheng","lat":22.8919909,"lng":112.1525567},{"id":20401,"name":"Yunfu","lat":22.8546663,"lng":111.8078586},{"id":157432,"name":"Zengcheng","lat":23.3473006,"lng":113.7702928},{"id":20429,"name":"Zhanjiang","lat":21.2737079,"lng":110.3548318},{"id":20433,"name":"Zhaoqing","lat":23.0501661,"lng":112.4603629},{"id":157434,"name":"Zhenjiang","lat":24.9032539,"lng":113.581466},{"id":20451,"name":"Zhongshan","lat":22.5197073,"lng":113.3872302},{"id":20452,"name":"Zhongshan Prefecture","lat":22.55358,"lng":113.3755},{"id":157537,"name":"Zhongxin","lat":23.2881831,"lng":113.6078885},{"id":20466,"name":"Zhuhai","lat":22.273734,"lng":113.5721327},{"id":157514,"name":"Zijin","lat":23.5539178,"lng":115.0419603}]