[{"id":65931,"name":"Ain Ebel","lat":33.11023,"lng":35.40251},{"id":65942,"name":"Caza de Bent Jbaïl","lat":33.15964,"lng":35.41137},{"id":65943,"name":"Caza de Nabatîyé","lat":33.39435,"lng":35.44483},{"id":65946,"name":"Habboûch","lat":33.40729,"lng":35.48169},{"id":65949,"name":"Marjayoûn","lat":33.36028,"lng":35.59111},{"id":65950,"name":"Nabatîyé et Tahta","lat":33.37889,"lng":35.48389}]