[{"id":48649,"name":"Brading","lat":50.6799,"lng":-1.14571},{"id":48693,"name":"Brighstone","lat":50.64263,"lng":-1.39479},{"id":49131,"name":"Cowes","lat":50.76306,"lng":-1.29772},{"id":49391,"name":"East Cowes","lat":50.75774,"lng":-1.28815},{"id":49606,"name":"Freshwater","lat":50.68365,"lng":-1.52616},{"id":49672,"name":"Godshill","lat":50.63308,"lng":-1.25476},{"id":50082,"name":"Isle of Wight","lat":50.66667,"lng":-1.33333},{"id":50447,"name":"Lymington","lat":50.75767,"lng":-1.5443},{"id":50583,"name":"Milford on Sea","lat":50.72561,"lng":-1.59004},{"id":50711,"name":"Newchurch","lat":50.66744,"lng":-1.20828},{"id":50721,"name":"Newport","lat":50.70146,"lng":-1.29124},{"id":50744,"name":"Niton","lat":50.58702,"lng":-1.28489},{"id":51194,"name":"Sandown","lat":50.65158,"lng":-1.16103},{"id":51246,"name":"Shalfleet","lat":50.70113,"lng":-1.42007},{"id":51247,"name":"Shanklin","lat":50.62613,"lng":-1.1785},{"id":51715,"name":"Ventnor","lat":50.59449,"lng":-1.20672},{"id":52012,"name":"Yarmouth","lat":50.70529,"lng":-1.49929}]