[{"id":48233,"name":"Altrincham","lat":53.38752,"lng":-2.34848},{"id":48635,"name":"Bowdon","lat":53.37644,"lng":-2.36532},{"id":49653,"name":"Glazebury","lat":53.47078,"lng":-2.49823},{"id":49781,"name":"Hale","lat":53.37831,"lng":-2.33271},{"id":49928,"name":"High Legh","lat":53.35139,"lng":-2.4538},{"id":50069,"name":"Irlam","lat":53.44253,"lng":-2.42323},{"id":50223,"name":"Knutsford","lat":53.30289,"lng":-2.37482},{"id":50608,"name":"Mobberley","lat":53.31667,"lng":-2.31667},{"id":50856,"name":"Partington","lat":53.41884,"lng":-2.42815},{"id":51180,"name":"Sale","lat":53.42519,"lng":-2.32443},{"id":51499,"name":"Stretford","lat":53.45,"lng":-2.31667},{"id":51625,"name":"Timperley","lat":53.4,"lng":-2.33333},{"id":51657,"name":"Trafford","lat":53.41667,"lng":-2.33333},{"id":51708,"name":"Urmston","lat":53.44852,"lng":-2.35419}]