[{"id":48389,"name":"Barlborough","lat":53.28795,"lng":-1.28815},{"id":48455,"name":"Beighton","lat":53.33333,"lng":-1.33333},{"id":48774,"name":"Burngreave","lat":53.39302,"lng":-1.45789},{"id":49040,"name":"Clowne","lat":53.27449,"lng":-1.26406},{"id":49329,"name":"Dronfield","lat":53.30221,"lng":-1.47507},{"id":49842,"name":"Hathersage","lat":53.3303,"lng":-1.65398},{"id":49984,"name":"Hope Valley","lat":53.34819,"lng":-1.74485},{"id":50146,"name":"Killamarsh","lat":53.32395,"lng":-1.31688},{"id":50829,"name":"Oughtibridge","lat":53.43612,"lng":-1.53902},{"id":51255,"name":"Sheffield","lat":53.38297,"lng":-1.4659},{"id":51434,"name":"Staveley","lat":53.26667,"lng":-1.35}]