[{"id":48283,"name":"Arundel","lat":50.85423,"lng":-0.55393},{"id":48298,"name":"Ashurst","lat":50.93236,"lng":-0.32375},{"id":48399,"name":"Barnham","lat":50.8312,"lng":-0.63789},{"id":48508,"name":"Billingshurst","lat":51.02312,"lng":-0.45359},{"id":48584,"name":"Bognor Regis","lat":50.78206,"lng":-0.67978},{"id":48638,"name":"Boxgrove","lat":50.85884,"lng":-0.7136},{"id":48960,"name":"Chichester","lat":50.83673,"lng":-0.78003},{"id":48963,"name":"Chiddingfold","lat":51.11866,"lng":-0.62262},{"id":48998,"name":"Churt","lat":51.13603,"lng":-0.77534},{"id":49549,"name":"Fernhurst","lat":51.04873,"lng":-0.71789},{"id":49557,"name":"Findon","lat":50.86816,"lng":-0.40735},{"id":49582,"name":"Fontwell","lat":50.8552,"lng":-0.64831},{"id":49682,"name":"Goring-by-Sea","lat":50.81239,"lng":-0.42194},{"id":49831,"name":"Haslemere","lat":51.09015,"lng":-0.70785},{"id":49945,"name":"Hindhead","lat":51.11381,"lng":-0.73351},{"id":49998,"name":"Horsham","lat":51.06314,"lng":-0.32757},{"id":50316,"name":"Liphook","lat":51.07673,"lng":-0.8032},{"id":50335,"name":"Littlehampton","lat":50.81137,"lng":-0.54078},{"id":50575,"name":"Midhurst","lat":50.98559,"lng":-0.74003},{"id":50857,"name":"Partridge Green","lat":50.9594,"lng":-0.30796},{"id":50905,"name":"Petworth","lat":50.98669,"lng":-0.61},{"id":51002,"name":"Pulborough","lat":50.95753,"lng":-0.5128},{"id":51139,"name":"Rudgwick","lat":51.08735,"lng":-0.45164},{"id":51148,"name":"Rustington","lat":50.81027,"lng":-0.50674},{"id":51331,"name":"Slinfold","lat":51.07209,"lng":-0.40658},{"id":51380,"name":"Southwater","lat":51.02369,"lng":-0.35173},{"id":51480,"name":"Storrington","lat":50.91765,"lng":-0.45473},{"id":51555,"name":"Tangmere","lat":50.85131,"lng":-0.71633},{"id":51727,"name":"Walberton","lat":50.84475,"lng":-0.62013},{"id":51831,"name":"West Sussex","lat":51.0,"lng":-0.41667},{"id":51839,"name":"Westergate","lat":50.83988,"lng":-0.67123},{"id":51947,"name":"Witley","lat":51.14993,"lng":-0.64768},{"id":51990,"name":"Wormley","lat":51.13622,"lng":-0.64673},{"id":52010,"name":"Yapton","lat":50.8209,"lng":-0.613}]