[{"id":48413,"name":"Barry","lat":51.39979,"lng":-3.2838},{"id":48448,"name":"Beddau","lat":51.55398,"lng":-3.35814},{"id":49129,"name":"Cowbridge","lat":51.46028,"lng":-3.44167},{"id":50363,"name":"Llanharry","lat":51.51422,"lng":-3.4324},{"id":50371,"name":"Llantrisant","lat":51.54028,"lng":-3.37389},{"id":50372,"name":"Llantwit Fardre","lat":51.5546,"lng":-3.33241},{"id":50373,"name":"Llantwit Major","lat":51.4107,"lng":-3.48632},{"id":50944,"name":"Pontyclun","lat":51.52162,"lng":-3.39145},{"id":51069,"name":"Rhoose","lat":51.38818,"lng":-3.3543},{"id":51712,"name":"Vale of Glamorgan","lat":51.41667,"lng":-3.41667}]