[{"id":48469,"name":"Bembridge","lat":50.68634,"lng":-1.08275},{"id":48518,"name":"Birdham","lat":50.79606,"lng":-0.83067},{"id":48614,"name":"Bosham","lat":50.83088,"lng":-0.85384},{"id":49112,"name":"Cosham","lat":50.84654,"lng":-1.06344},{"id":49135,"name":"Cowplain","lat":50.89411,"lng":-1.01824},{"id":49264,"name":"Denmead","lat":50.90395,"lng":-1.06744},{"id":49415,"name":"East Wittering","lat":50.76969,"lng":-0.87444},{"id":49474,"name":"Emsworth","lat":50.84779,"lng":-0.93697},{"id":49526,"name":"Fareham","lat":50.85162,"lng":-1.17929},{"id":49688,"name":"Gosport","lat":50.79509,"lng":-1.12902},{"id":49846,"name":"Havant","lat":50.8567,"lng":-0.98559},{"id":49864,"name":"Hayling Island","lat":50.7838,"lng":-0.96869},{"id":50269,"name":"Lee-on-the-Solent","lat":50.80169,"lng":-1.20174},{"id":50971,"name":"Portsmouth","lat":50.8,"lng":-1.06667},{"id":51152,"name":"Ryde","lat":50.72999,"lng":-1.1621},{"id":51227,"name":"Seaview","lat":50.71956,"lng":-1.11164},{"id":51236,"name":"Selsey","lat":50.73501,"lng":-0.78979},{"id":51354,"name":"South Harting","lat":50.96924,"lng":-0.88388},{"id":51355,"name":"South Hayling","lat":50.78773,"lng":-0.97697},{"id":51379,"name":"Southsea","lat":50.79205,"lng":-1.08593},{"id":51404,"name":"St. Helens","lat":50.69688,"lng":-1.11159},{"id":51772,"name":"Waterlooville","lat":50.88067,"lng":-1.0304},{"id":51892,"name":"Wickham","lat":50.89924,"lng":-1.18815}]