[{"id":49466,"name":"Elwick","lat":54.68455,"lng":-1.29559},{"id":49561,"name":"Fishburn","lat":54.68296,"lng":-1.43631},{"id":49739,"name":"Greatham","lat":54.64183,"lng":-1.23806},{"id":49823,"name":"Hartlepool","lat":54.66667,"lng":-1.25},{"id":50107,"name":"Kelloe","lat":54.71894,"lng":-1.47495},{"id":50903,"name":"Peterlee","lat":54.76032,"lng":-1.33649},{"id":51601,"name":"Thornley","lat":54.75,"lng":-1.43333},{"id":51669,"name":"Trimdon","lat":54.69878,"lng":-1.42881},{"id":51670,"name":"Trimdon Grange","lat":54.71414,"lng":-1.42611},{"id":51929,"name":"Wingate","lat":54.73242,"lng":-1.37896}]