[{"id":48540,"name":"Blaby","lat":52.57577,"lng":-1.16403},{"id":48731,"name":"Broughton Astley","lat":52.52787,"lng":-1.21768},{"id":49010,"name":"City of Leicester","lat":52.63333,"lng":-1.13333},{"id":49111,"name":"Cosby","lat":52.55127,"lng":-1.19395},{"id":49120,"name":"Countesthorpe","lat":52.55379,"lng":-1.14526},{"id":49163,"name":"Croft","lat":52.55668,"lng":-1.24643},{"id":49377,"name":"Earl Shilton","lat":52.57682,"lng":-1.31536},{"id":49475,"name":"Enderby","lat":52.58778,"lng":-1.20619},{"id":49568,"name":"Fleckney","lat":52.53497,"lng":-1.04598},{"id":49658,"name":"Glenfield","lat":52.6466,"lng":-1.19493},{"id":49717,"name":"Great Glen","lat":52.57548,"lng":-1.0349},{"id":50007,"name":"Houghton on the Hill","lat":52.62663,"lng":-0.99546},{"id":50134,"name":"Kibworth Harcourt","lat":52.54439,"lng":-0.99491},{"id":50193,"name":"Kirby Muxloe","lat":52.63025,"lng":-1.22755},{"id":50274,"name":"Leicester","lat":52.6386,"lng":-1.13169},{"id":50275,"name":"Leicestershire","lat":52.66667,"lng":-1.0},{"id":50665,"name":"Narborough","lat":52.56667,"lng":-1.2},{"id":50790,"name":"Oadby","lat":52.60621,"lng":-1.08354},{"id":51200,"name":"Sapcote","lat":52.53707,"lng":-1.279},{"id":51477,"name":"Stoney Stanton","lat":52.54839,"lng":-1.2793},{"id":51541,"name":"Syston","lat":52.68333,"lng":-1.06667},{"id":51900,"name":"Wigston Magna","lat":52.58128,"lng":-1.09248}]