[{"id":48406,"name":"Barra","lat":56.98035,"lng":-7.45731},{"id":48471,"name":"Benbecula","lat":57.44737,"lng":-7.34273},{"id":49449,"name":"Eilean Siar","lat":57.66667,"lng":-7.16667},{"id":50079,"name":"Isle of Lewis","lat":58.21901,"lng":-6.38803},{"id":50080,"name":"Isle of North Uist","lat":57.60581,"lng":-7.34024},{"id":50081,"name":"Isle of South Uist","lat":57.24562,"lng":-7.33337},{"id":50967,"name":"Portree","lat":57.41288,"lng":-6.19418},{"id":51479,"name":"Stornoway","lat":58.20925,"lng":-6.38649}]