[{"id":48217,"name":"Alford","lat":53.25943,"lng":0.17625},{"id":48248,"name":"Ancaster","lat":52.98276,"lng":-0.53593},{"id":48381,"name":"Bardney","lat":53.21005,"lng":-0.32371},{"id":48504,"name":"Billingborough","lat":52.89384,"lng":-0.34186},{"id":48507,"name":"Billinghay","lat":53.07959,"lng":-0.27689},{"id":48615,"name":"Boston","lat":52.97633,"lng":-0.02664},{"id":48642,"name":"Bracebridge Heath","lat":53.19647,"lng":-0.53421},{"id":48663,"name":"Branston","lat":53.19544,"lng":-0.47482},{"id":48767,"name":"Burgh le Marsh","lat":53.16158,"lng":0.24484},{"id":48788,"name":"Burton","lat":53.26667,"lng":-0.56667},{"id":48803,"name":"Butterwick","lat":52.98333,"lng":0.06667},{"id":48900,"name":"Caythorpe","lat":53.01667,"lng":-0.6},{"id":48915,"name":"Chapel Saint Leonards","lat":53.21667,"lng":0.31667},{"id":49088,"name":"Coningsby","lat":53.10598,"lng":-0.17595},{"id":49146,"name":"Cranwell","lat":53.03681,"lng":-0.46176},{"id":49304,"name":"Donington","lat":52.90461,"lng":-0.20505},{"id":49355,"name":"Dunholme","lat":53.30067,"lng":-0.46541},{"id":49563,"name":"Fishtoft","lat":52.96095,"lng":0.02702},{"id":49685,"name":"Gosberton","lat":52.86913,"lng":-0.16102},{"id":49882,"name":"Heckington","lat":52.98183,"lng":-0.29903},{"id":49887,"name":"Heighington","lat":53.21241,"lng":-0.45902},{"id":49990,"name":"Horncastle","lat":53.20775,"lng":-0.1172},{"id":50053,"name":"Ingoldmells","lat":53.19414,"lng":0.33358},{"id":50212,"name":"Kirton","lat":52.92774,"lng":-0.06008},{"id":50263,"name":"Leasingham","lat":53.02573,"lng":-0.42606},{"id":50306,"name":"Lincoln","lat":53.22683,"lng":-0.53792},{"id":50307,"name":"Lincolnshire","lat":53.16667,"lng":-0.25},{"id":50557,"name":"Metheringham","lat":53.14015,"lng":-0.40368},{"id":50666,"name":"Navenby","lat":53.1068,"lng":-0.52494},{"id":50684,"name":"Nettleham","lat":53.26603,"lng":-0.48866},{"id":50804,"name":"Old Leake","lat":53.03108,"lng":0.09873},{"id":51146,"name":"Ruskington","lat":53.04544,"lng":-0.38692},{"id":51301,"name":"Sibsey","lat":53.03858,"lng":0.01579},{"id":51318,"name":"Skegness","lat":53.14362,"lng":0.3363},{"id":51329,"name":"Sleaford","lat":52.99826,"lng":-0.40941},{"id":51388,"name":"Spilsby","lat":53.17363,"lng":0.09373},{"id":51449,"name":"Stickney","lat":53.08949,"lng":0.00545},{"id":51508,"name":"Sudbrooke","lat":53.26667,"lng":-0.45},{"id":51516,"name":"Sutterton","lat":52.90269,"lng":-0.09235},{"id":51538,"name":"Swineshead","lat":52.94543,"lng":-0.15947},{"id":51721,"name":"Waddington","lat":53.16667,"lng":-0.53333},{"id":51725,"name":"Wainfleet All Saints","lat":53.1057,"lng":0.23583},{"id":51762,"name":"Washingborough","lat":53.22425,"lng":-0.47485},{"id":51975,"name":"Woodhall Spa","lat":53.15215,"lng":-0.21453},{"id":51995,"name":"Wragby","lat":53.28333,"lng":-0.3}]