[{"id":48281,"name":"Arnold","lat":53.0,"lng":-1.13333},{"id":48302,"name":"Aslockton","lat":52.95299,"lng":-0.897},{"id":48306,"name":"Aston-on-Trent","lat":52.86172,"lng":-1.38642},{"id":48321,"name":"Awsworth","lat":52.98912,"lng":-1.28354},{"id":48419,"name":"Basford","lat":52.96667,"lng":-1.18333},{"id":48514,"name":"Bingham","lat":52.94978,"lng":-0.95907},{"id":48612,"name":"Borrowash","lat":52.90673,"lng":-1.38411},{"id":48620,"name":"Bottesford","lat":52.94131,"lng":-0.8006},{"id":48789,"name":"Burton Joyce","lat":52.98825,"lng":-1.03407},{"id":48828,"name":"Calverton","lat":53.03728,"lng":-1.08263},{"id":48877,"name":"Castle Donington","lat":52.84291,"lng":-1.34188},{"id":49114,"name":"Cotgrave","lat":52.90859,"lng":-1.03752},{"id":49170,"name":"Cropwell Bishop","lat":52.9148,"lng":-0.98482},{"id":49269,"name":"Derby","lat":52.92277,"lng":-1.47663},{"id":49388,"name":"East Bridgford","lat":52.97954,"lng":-0.96563},{"id":49402,"name":"East Leake","lat":52.83015,"lng":-1.18103},{"id":49427,"name":"Eastwood","lat":53.0,"lng":-1.3},{"id":49555,"name":"Findern","lat":52.87037,"lng":-1.54409},{"id":49690,"name":"Gotham","lat":52.86799,"lng":-1.20558},{"id":49875,"name":"Heanor","lat":53.01372,"lng":-1.35383},{"id":50017,"name":"Hucknall","lat":53.03333,"lng":-1.2},{"id":50042,"name":"Ilkeston","lat":52.97055,"lng":-1.30951},{"id":50104,"name":"Kegworth","lat":52.83482,"lng":-1.28042},{"id":50133,"name":"Keyworth","lat":52.87122,"lng":-1.08991},{"id":50156,"name":"Kimberley","lat":52.98333,"lng":-1.26667},{"id":50393,"name":"Long Clawson","lat":52.83725,"lng":-0.9288},{"id":50395,"name":"Long Eaton","lat":52.89855,"lng":-1.27136},{"id":50423,"name":"Lowdham","lat":53.01205,"lng":-1.00483},{"id":50686,"name":"New Basford","lat":52.97336,"lng":-1.16564},{"id":50786,"name":"Nottingham","lat":52.9536,"lng":-1.15047},{"id":51017,"name":"Radcliffe on Trent","lat":52.94802,"lng":-1.03855},{"id":51063,"name":"Repton","lat":52.83983,"lng":-1.55061},{"id":51138,"name":"Ruddington","lat":52.89254,"lng":-1.14953},{"id":51313,"name":"Sinfin","lat":52.88157,"lng":-1.48681},{"id":51807,"name":"West Bridgford","lat":52.92979,"lng":-1.12537},{"id":51819,"name":"West Hallam","lat":52.97093,"lng":-1.35846}]