[{"id":48199,"name":"Adwick le Street","lat":53.57077,"lng":-1.18454},{"id":48280,"name":"Armthorpe","lat":53.53518,"lng":-1.05341},{"id":48301,"name":"Askern","lat":53.61639,"lng":-1.15237},{"id":48315,"name":"Auckley","lat":53.50386,"lng":-1.02174},{"id":48396,"name":"Barnburgh","lat":53.52408,"lng":-1.273},{"id":48432,"name":"Bawtry","lat":53.43146,"lng":-1.01878},{"id":48445,"name":"Beckingham","lat":53.4,"lng":-0.83333},{"id":48474,"name":"Bentley","lat":53.53333,"lng":-1.15},{"id":48517,"name":"Bircotes","lat":53.41933,"lng":-1.04905},{"id":48831,"name":"Camblesforth","lat":53.7268,"lng":-1.01998},{"id":48841,"name":"Campsall","lat":53.61917,"lng":-1.18002},{"id":48852,"name":"Carcroft","lat":53.58282,"lng":-1.17648},{"id":49089,"name":"Conisbrough","lat":53.48188,"lng":-1.23214},{"id":49303,"name":"Doncaster","lat":53.5,"lng":-1.08333},{"id":49559,"name":"Finningley","lat":53.48696,"lng":-0.99083},{"id":50195,"name":"Kirk Sandall","lat":53.56211,"lng":-1.06876},{"id":50515,"name":"Marr","lat":53.54296,"lng":-1.22051},{"id":50604,"name":"Misterton","lat":53.44492,"lng":-0.85032},{"id":50633,"name":"Moss","lat":53.61667,"lng":-1.1},{"id":50783,"name":"Norton","lat":53.63333,"lng":-1.18333},{"id":50932,"name":"Pollington","lat":53.67093,"lng":-1.07237},{"id":51031,"name":"Ranskill","lat":53.38281,"lng":-1.01402},{"id":51040,"name":"Rawcliffe","lat":53.69777,"lng":-0.96319},{"id":51335,"name":"Snaith","lat":53.69112,"lng":-1.02859},{"id":51352,"name":"South Elmsall","lat":53.59709,"lng":-1.28034},{"id":51411,"name":"Stainforth","lat":53.6,"lng":-1.03333},{"id":51596,"name":"Thorne","lat":53.61122,"lng":-0.96308},{"id":51619,"name":"Tickhill","lat":53.43194,"lng":-1.10859},{"id":51704,"name":"Upton","lat":53.61466,"lng":-1.28677},{"id":51724,"name":"Wadworth","lat":53.46726,"lng":-1.14261}]