[{"id":48347,"name":"Ballinamallard","lat":54.4228702,"lng":-7.5950403},{"id":49328,"name":"Dromore","lat":54.51331,"lng":-7.45886},{"id":49477,"name":"Enniskillen","lat":54.3448538,"lng":-7.6389365},{"id":49545,"name":"Fermanagh and Omagh","lat":54.44257,"lng":-7.50299},{"id":49560,"name":"Fintona","lat":54.5,"lng":-7.31667},{"id":49566,"name":"Fivemiletown","lat":54.38333,"lng":-7.3},{"id":50073,"name":"Irvinestown","lat":54.4720106,"lng":-7.6334809},{"id":50320,"name":"Lisnaskea","lat":54.25,"lng":-7.45},{"id":50811,"name":"Omagh","lat":54.6,"lng":-7.3}]