[{"id":48299,"name":"Ashwell","lat":52.03866,"lng":-0.15398},{"id":48342,"name":"Baldock","lat":51.98781,"lng":-0.18835},{"id":48423,"name":"Bassingbourn","lat":52.07821,"lng":-0.0539},{"id":48529,"name":"Bishops Stortford","lat":51.87113,"lng":0.15868},{"id":48762,"name":"Buntingford","lat":51.94612,"lng":-0.01841},{"id":49055,"name":"Codicote","lat":51.85052,"lng":-0.2367},{"id":49245,"name":"Datchworth","lat":51.85126,"lng":-0.15956},{"id":49706,"name":"Great Amwell","lat":51.79014,"lng":-0.01669},{"id":49810,"name":"Harlow","lat":51.77655,"lng":0.11158},{"id":49837,"name":"Hatfield","lat":51.76338,"lng":-0.22419},{"id":49913,"name":"Hertford","lat":51.79588,"lng":-0.07854},{"id":49914,"name":"Hertfordshire","lat":51.83333,"lng":-0.25},{"id":49957,"name":"Hoddesdon","lat":51.76148,"lng":-0.01144},{"id":50158,"name":"Kimpton","lat":51.85089,"lng":-0.2998},{"id":50218,"name":"Knebworth","lat":51.86674,"lng":-0.18394},{"id":50323,"name":"Little Amwell","lat":51.78333,"lng":-0.03333},{"id":50328,"name":"Little Hallingbury","lat":51.83324,"lng":0.18151},{"id":50537,"name":"Melbourn","lat":52.08128,"lng":0.01514},{"id":50645,"name":"Much Hadham","lat":51.85407,"lng":0.07188},{"id":50802,"name":"Old Harlow","lat":51.78353,"lng":0.13381},{"id":50998,"name":"Puckeridge","lat":51.89013,"lng":0.01309},{"id":51133,"name":"Roydon","lat":51.7718,"lng":0.0403},{"id":51134,"name":"Royston","lat":52.04832,"lng":-0.02438},{"id":51161,"name":"Saffron Walden","lat":52.02337,"lng":0.24234},{"id":51203,"name":"Sawbridgeworth","lat":51.81667,"lng":0.15},{"id":51429,"name":"Stansted Mountfitchet","lat":51.9,"lng":0.2},{"id":51440,"name":"Stevenage","lat":51.90224,"lng":-0.20256},{"id":51730,"name":"Walkern","lat":51.91888,"lng":-0.12758},{"id":51748,"name":"Ware","lat":51.81058,"lng":-0.02875},{"id":51778,"name":"Watton at Stone","lat":51.85842,"lng":-0.11381},{"id":51795,"name":"Welwyn","lat":51.8331,"lng":-0.21359},{"id":51796,"name":"Welwyn Garden City","lat":51.80174,"lng":-0.20691},{"id":51860,"name":"Wheathampstead","lat":51.81148,"lng":-0.29371}]