[{"id":48312,"name":"Auchinleck","lat":55.47157,"lng":-4.29337},{"id":48892,"name":"Catrine","lat":55.50422,"lng":-4.33026},{"id":49208,"name":"Cumnock","lat":55.45445,"lng":-4.26644},{"id":49242,"name":"Darvel","lat":55.60976,"lng":-4.28142},{"id":49330,"name":"Drongan","lat":55.43498,"lng":-4.45551},{"id":49384,"name":"East Ayrshire","lat":55.5,"lng":-4.25},{"id":49624,"name":"Galston","lat":55.60093,"lng":-4.38172},{"id":50203,"name":"Kirkconnel","lat":55.38561,"lng":-3.99836},{"id":50387,"name":"Logan","lat":55.45466,"lng":-4.23514},{"id":50528,"name":"Mauchline","lat":55.51604,"lng":-4.37928},{"id":50634,"name":"Mossblown","lat":55.48941,"lng":-4.52787},{"id":50649,"name":"Muirkirk","lat":55.52272,"lng":-4.06551},{"id":50687,"name":"New Cumnock","lat":55.39563,"lng":-4.18458},{"id":50719,"name":"Newmilns","lat":55.60751,"lng":-4.32416},{"id":50797,"name":"Ochiltree","lat":55.45981,"lng":-4.36782},{"id":51540,"name":"Symington","lat":55.55176,"lng":-4.55835},{"id":51559,"name":"Tarbolton","lat":55.51292,"lng":-4.48648}]