[{"id":48225,"name":"Alness","lat":57.69596,"lng":-4.2551},{"id":48440,"name":"Beauly","lat":57.48345,"lng":-4.46144},{"id":49091,"name":"Conon Bridge","lat":57.5663,"lng":-4.43678},{"id":49200,"name":"Culloden","lat":57.48699,"lng":-4.1415},{"id":49286,"name":"Dingwall","lat":57.59531,"lng":-4.42721},{"id":49332,"name":"Drumnadrochit","lat":57.33438,"lng":-4.47989},{"id":49493,"name":"Evanton","lat":57.66385,"lng":-4.34004},{"id":49592,"name":"Fortrose","lat":57.58087,"lng":-4.13263},{"id":49936,"name":"Highland","lat":57.5,"lng":-5.0},{"id":50060,"name":"Invergordon","lat":57.6886,"lng":-4.16745},{"id":50064,"name":"Inverness","lat":57.47908,"lng":-4.22398},{"id":50523,"name":"Maryburgh","lat":57.5742,"lng":-4.44178},{"id":50595,"name":"Milton of Leys","lat":57.45125,"lng":-4.17592},{"id":50647,"name":"Muir of Ord","lat":57.51976,"lng":-4.45939},{"id":51334,"name":"Smithton","lat":57.47956,"lng":-4.15141},{"id":51493,"name":"Strathpeffer","lat":57.58522,"lng":-4.54195},{"id":51693,"name":"Ullapool","lat":57.89872,"lng":-5.16039}]