[{"id":48819,"name":"Caistor","lat":53.49673,"lng":-0.31538},{"id":49028,"name":"Cleethorpes","lat":53.56047,"lng":-0.03225},{"id":49753,"name":"Grimsby","lat":53.56539,"lng":-0.07553},{"id":49874,"name":"Healing","lat":53.58101,"lng":-0.16202},{"id":49963,"name":"Hollym","lat":53.70402,"lng":0.04008},{"id":49970,"name":"Holton le Clay","lat":53.5052,"lng":-0.063},{"id":50021,"name":"Humberston","lat":53.53036,"lng":-0.02465},{"id":50045,"name":"Immingham","lat":53.61239,"lng":-0.22219},{"id":50102,"name":"Keelby","lat":53.5758,"lng":-0.24701},{"id":50224,"name":"Laceby","lat":53.54092,"lng":-0.1683},{"id":50419,"name":"Louth","lat":53.36664,"lng":-0.00438},{"id":50457,"name":"Mablethorpe","lat":53.3409,"lng":0.26102},{"id":50480,"name":"Manby","lat":53.36291,"lng":0.09653},{"id":50503,"name":"Market Rasen","lat":53.38764,"lng":-0.33781},{"id":50569,"name":"Middle Rasen","lat":53.38722,"lng":-0.36202},{"id":50753,"name":"North East Lincolnshire","lat":53.53333,"lng":-0.08333},{"id":50764,"name":"North Somercotes","lat":53.44573,"lng":0.14103},{"id":50768,"name":"North Thoresby","lat":53.46651,"lng":-0.05575},{"id":50860,"name":"Patrington","lat":53.68395,"lng":-0.0133},{"id":51415,"name":"Stallingborough","lat":53.58675,"lng":-0.18489},{"id":51581,"name":"Tetney","lat":53.49239,"lng":-0.02106},{"id":51737,"name":"Waltham","lat":53.51667,"lng":-0.1},{"id":51946,"name":"Withernsea","lat":53.7311,"lng":0.03347}]