[{"id":48271,"name":"Ardrishaig","lat":56.01566,"lng":-5.44806},{"id":48274,"name":"Argyll and Bute","lat":56.03693,"lng":-5.43679},{"id":49361,"name":"Dunoon","lat":55.95031,"lng":-4.92734},{"id":49626,"name":"Garelochhead","lat":56.08203,"lng":-4.82909},{"id":49692,"name":"Gourock","lat":55.96157,"lng":-4.81789},{"id":49747,"name":"Greenock","lat":55.94838,"lng":-4.76121},{"id":49888,"name":"Helensburgh","lat":56.00614,"lng":-4.72648},{"id":50059,"name":"Inverclyde","lat":55.9,"lng":-4.75},{"id":50063,"name":"Inverkip","lat":55.90831,"lng":-4.87051},{"id":50076,"name":"Isle of Bute","lat":55.83663,"lng":-5.05586},{"id":50142,"name":"Kilcreggan","lat":55.9846,"lng":-4.821},{"id":50149,"name":"Kilmacolm","lat":55.8947,"lng":-4.62643},{"id":50378,"name":"Lochgilphead","lat":56.03796,"lng":-5.43206},{"id":50952,"name":"Port Bannatyne","lat":55.8566,"lng":-5.06503},{"id":50954,"name":"Port Glasgow","lat":55.93464,"lng":-4.6895},{"id":51072,"name":"Rhu","lat":56.01667,"lng":-4.76667},{"id":51109,"name":"Rosneath","lat":56.00985,"lng":-4.80151},{"id":51119,"name":"Rothesay","lat":55.83648,"lng":-5.05508},{"id":51192,"name":"Sandbank","lat":55.98203,"lng":-4.94973},{"id":51321,"name":"Skelmorlie","lat":55.8695,"lng":-4.88475},{"id":51558,"name":"Tarbert","lat":55.86277,"lng":-5.41622},{"id":51800,"name":"Wemyss Bay","lat":55.87614,"lng":-4.8895}]