[{"id":48244,"name":"Amesbury","lat":51.17509,"lng":-1.78064},{"id":48664,"name":"Bratton","lat":51.27056,"lng":-2.12444},{"id":48757,"name":"Bulford","lat":51.1893,"lng":-1.76009},{"id":48758,"name":"Bulkington","lat":51.32361,"lng":-2.08361},{"id":48763,"name":"Burbage","lat":51.35184,"lng":-1.67087},{"id":48827,"name":"Calne","lat":51.43879,"lng":-2.00571},{"id":48971,"name":"Chippenham","lat":51.46,"lng":-2.12472},{"id":49071,"name":"Collingbourne Kingston","lat":51.30105,"lng":-1.65876},{"id":49277,"name":"Devizes","lat":51.35084,"lng":-1.99421},{"id":49288,"name":"Dinton","lat":51.08333,"lng":-1.98333},{"id":49442,"name":"Edington","lat":51.27583,"lng":-2.10639},{"id":49711,"name":"Great Bedwyn","lat":51.3795,"lng":-1.60151},{"id":49947,"name":"Hindon","lat":51.09222,"lng":-2.12583},{"id":50225,"name":"Lacock","lat":51.41528,"lng":-2.12194},{"id":50250,"name":"Lark Hill","lat":51.2,"lng":-1.81667},{"id":50433,"name":"Ludgershall","lat":51.25558,"lng":-1.6222},{"id":50501,"name":"Market Lavington","lat":51.28756,"lng":-1.97729},{"id":50540,"name":"Melksham","lat":51.37281,"lng":-2.14002},{"id":50680,"name":"Netheravon","lat":51.23613,"lng":-1.79083},{"id":50908,"name":"Pewsey","lat":51.33855,"lng":-1.76545},{"id":50974,"name":"Potterne","lat":51.32917,"lng":-2.00519},{"id":51124,"name":"Rowde","lat":51.36325,"lng":-2.03098},{"id":51184,"name":"Salisbury","lat":51.06931,"lng":-1.79569},{"id":51230,"name":"Seend","lat":51.34806,"lng":-2.08472},{"id":51296,"name":"Shrewton","lat":51.19194,"lng":-1.90264},{"id":51622,"name":"Tidworth","lat":51.23142,"lng":-1.66324},{"id":51632,"name":"Tisbury","lat":51.06283,"lng":-2.08058},{"id":51705,"name":"Upton Scudamore","lat":51.23,"lng":-2.19333},{"id":51754,"name":"Warminster","lat":51.20434,"lng":-2.17873},{"id":51836,"name":"Westbury","lat":51.26,"lng":-2.1875},{"id":51878,"name":"Whitley","lat":51.39528,"lng":-2.16444},{"id":51914,"name":"Wilton","lat":51.07926,"lng":-1.8621},{"id":51915,"name":"Wiltshire","lat":51.25,"lng":-1.91667},{"id":51968,"name":"Woodborough","lat":51.33852,"lng":-1.83976},{"id":51992,"name":"Worton","lat":51.31611,"lng":-2.04111}]