[{"id":48305,"name":"Aston Clinton","lat":51.8002,"lng":-0.7254},{"id":48324,"name":"Aylesbury","lat":51.81665,"lng":-0.81458},{"id":48699,"name":"Brill","lat":51.81667,"lng":-1.05},{"id":48749,"name":"Buckinghamshire","lat":51.75,"lng":-0.75},{"id":48912,"name":"Chalgrove","lat":51.66476,"lng":-1.0764},{"id":48970,"name":"Chinnor","lat":51.70177,"lng":-0.91161},{"id":49729,"name":"Great Missenden","lat":51.70419,"lng":-0.70797},{"id":49771,"name":"Haddenham","lat":51.77326,"lng":-0.92628},{"id":50037,"name":"Hyde Heath","lat":51.69336,"lng":-0.65437},{"id":50394,"name":"Long Crendon","lat":51.77294,"lng":-0.99684},{"id":50414,"name":"Longwick","lat":51.73607,"lng":-0.85676},{"id":50992,"name":"Princes Risborough","lat":51.72549,"lng":-0.83144},{"id":51436,"name":"Steeple Claydon","lat":51.93643,"lng":-0.98328},{"id":51470,"name":"Stokenchurch","lat":51.65831,"lng":-0.8974},{"id":51584,"name":"Thame","lat":51.7484,"lng":-0.97624},{"id":51720,"name":"Waddesdon","lat":51.84675,"lng":-0.92105},{"id":51775,"name":"Watlington","lat":51.64327,"lng":-1.00448},{"id":51801,"name":"Wendover","lat":51.76194,"lng":-0.73986},{"id":51846,"name":"Weston Turville","lat":51.79168,"lng":-0.75767},{"id":51932,"name":"Wingrave","lat":51.86494,"lng":-0.74244}]