[{"id":48418,"name":"Baschurch","lat":52.78848,"lng":-2.85284},{"id":48434,"name":"Bayston Hill","lat":52.6755,"lng":-2.76156},{"id":48493,"name":"Bicton","lat":52.72829,"lng":-2.81649},{"id":48525,"name":"Bishop's Castle","lat":52.49208,"lng":-3.0021},{"id":48995,"name":"Church Stretton","lat":52.53778,"lng":-2.80149},{"id":49147,"name":"Craven Arms","lat":52.44308,"lng":-2.83562},{"id":49455,"name":"Ellesmere","lat":52.90838,"lng":-2.89806},{"id":49583,"name":"Ford","lat":52.71693,"lng":-2.86881},{"id":49669,"name":"Gobowen","lat":52.89615,"lng":-3.03686},{"id":49720,"name":"Great Hanwood","lat":52.68333,"lng":-2.81667},{"id":50434,"name":"Ludlow","lat":52.37431,"lng":-2.71311},{"id":50601,"name":"Minsterley","lat":52.63989,"lng":-2.92807},{"id":50822,"name":"Oswestry","lat":52.86195,"lng":-3.05497},{"id":50851,"name":"Pant","lat":52.79005,"lng":-3.08031},{"id":50940,"name":"Pontesbury","lat":52.64826,"lng":-2.89035},{"id":51151,"name":"Ruyton-XI-Towns","lat":52.79555,"lng":-2.90318},{"id":51295,"name":"Shrewsbury","lat":52.71009,"lng":-2.75208},{"id":51298,"name":"Shropshire","lat":52.66667,"lng":-2.75}]