[{"id":48259,"name":"Antrim","lat":54.7,"lng":-6.2},{"id":48260,"name":"Antrim and Newtownabbey","lat":54.70177,"lng":-6.1977},{"id":48352,"name":"Ballyclare","lat":54.75089,"lng":-5.99944},{"id":49188,"name":"Crumlin","lat":54.62054,"lng":-6.21414},{"id":49296,"name":"Doagh","lat":54.75,"lng":-6.08333},{"id":49656,"name":"Glenavy","lat":54.59231,"lng":-6.21371},{"id":51030,"name":"Randalstown","lat":54.75,"lng":-6.3},{"id":51572,"name":"Templepatrick","lat":54.68333,"lng":-6.08333}]