[{"id":49168,"name":"Crondall","lat":51.23285,"lng":-0.86329},{"id":49497,"name":"Eversley","lat":51.35387,"lng":-0.88888},{"id":49554,"name":"Finchampstead","lat":51.36149,"lng":-0.85728},{"id":49569,"name":"Fleet","lat":51.28333,"lng":-0.83333},{"id":49825,"name":"Hartley Wintney","lat":51.30379,"lng":-0.90019},{"id":50031,"name":"Hurst","lat":51.45791,"lng":-0.85196},{"id":50400,"name":"Long Sutton","lat":51.21978,"lng":-0.94293},{"id":50798,"name":"Odiham","lat":51.25407,"lng":-0.93933},{"id":51683,"name":"Twyford","lat":51.47518,"lng":-0.86037},{"id":51957,"name":"Wokingham","lat":51.41667,"lng":-0.91667},{"id":52015,"name":"Yateley","lat":51.34305,"lng":-0.82985}]