[{"id":48200,"name":"Ahoghill","lat":54.86667,"lng":-6.36667},{"id":48355,"name":"Ballymena","lat":54.86357,"lng":-6.27628},{"id":48728,"name":"Broughshane","lat":54.8926,"lng":-6.20899},{"id":48866,"name":"Carnlough","lat":54.99185,"lng":-5.99038},{"id":49090,"name":"Connor","lat":54.8,"lng":-6.2},{"id":49202,"name":"Cullybackey","lat":54.88875,"lng":-6.34701},{"id":49213,"name":"Cushendall","lat":55.08033,"lng":-6.06291},{"id":49655,"name":"Glenariff","lat":55.05,"lng":-6.06667},{"id":50253,"name":"Larne","lat":54.85,"lng":-5.81667},{"id":50568,"name":"Mid and East Antrim","lat":54.87436,"lng":-6.10141}]