[{"id":48246,"name":"Ammanford","lat":51.79279,"lng":-3.98833},{"id":48533,"name":"Bishopston","lat":51.5775,"lng":-4.04806},{"id":48784,"name":"Burry Port","lat":51.68435,"lng":-4.24687},{"id":49005,"name":"City and County of Swansea","lat":51.58333,"lng":-4.0},{"id":49042,"name":"Clydach","lat":51.68333,"lng":-3.9},{"id":49165,"name":"Crofty","lat":51.63448,"lng":-4.12937},{"id":49647,"name":"Glanamman","lat":51.8,"lng":-3.93333},{"id":49684,"name":"Gorseinon","lat":51.66931,"lng":-4.04163},{"id":49759,"name":"Grovesend","lat":51.68472,"lng":-4.03833},{"id":50350,"name":"Llanelli","lat":51.68195,"lng":-4.16191},{"id":50875,"name":"Pen-clawdd","lat":51.64028,"lng":-4.09917},{"id":50937,"name":"Pontarddulais","lat":51.71423,"lng":-4.03859},{"id":50941,"name":"Pontlliw","lat":51.69139,"lng":-4.01056},{"id":51375,"name":"Southgate","lat":51.56944,"lng":-4.08972},{"id":51532,"name":"Swansea","lat":51.62079,"lng":-3.94323},{"id":51611,"name":"Three Crosses","lat":51.62865,"lng":-4.06263},{"id":51684,"name":"Tycroes","lat":51.77806,"lng":-4.02}]