[{"id":48161,"name":"Abbotts Ann","lat":51.19016,"lng":-1.53234},{"id":48232,"name":"Alton","lat":51.14931,"lng":-0.97469},{"id":48249,"name":"Andover","lat":51.21135,"lng":-1.49393},{"id":48252,"name":"Anna Valley","lat":51.19317,"lng":-1.50719},{"id":153926,"name":"Basingstoke and Deane","lat":51.2586964,"lng":-1.5471401},{"id":48530,"name":"Bishops Waltham","lat":50.95595,"lng":-1.21476},{"id":48595,"name":"Bordon","lat":51.11357,"lng":-0.86245},{"id":153933,"name":"Borough of Eastleigh","lat":50.923293,"lng":-1.4937205},{"id":153934,"name":"Borough of Fareham","lat":50.8541516,"lng":-1.2950036},{"id":153937,"name":"Borough of Havant","lat":50.8405437,"lng":-1.1554927},{"id":153929,"name":"City of Winchester","lat":51.0260266,"lng":-1.5748633},{"id":49064,"name":"Colden Common","lat":50.99483,"lng":-1.31143},{"id":49083,"name":"Compton","lat":51.02385,"lng":-1.33713},{"id":153930,"name":"East Hampshire","lat":51.0399683,"lng":-1.2679128},{"id":49598,"name":"Four Marks","lat":51.10735,"lng":-1.04945},{"id":153935,"name":"Gosport","lat":50.8068466,"lng":-1.2329815},{"id":49796,"name":"Hampshire","lat":51.0,"lng":-1.25},{"id":153927,"name":"Hart","lat":51.2762621,"lng":-1.0474184},{"id":50168,"name":"Kings Worthy","lat":51.08862,"lng":-1.2978},{"id":50321,"name":"Liss","lat":51.04277,"lng":-0.89238},{"id":50685,"name":"New Alresford","lat":51.08624,"lng":-1.17011},{"id":153931,"name":"New Forest","lat":50.857555,"lng":-1.9589262},{"id":50835,"name":"Overton","lat":51.24389,"lng":-1.26154},{"id":50904,"name":"Petersfield","lat":51.00495,"lng":-0.93375},{"id":153936,"name":"Portsmouth","lat":50.8048152,"lng":-1.1791316},{"id":153928,"name":"Rushmoor","lat":51.2753495,"lng":-0.8508439},{"id":153932,"name":"Southampton","lat":50.9863663,"lng":-1.9430019},{"id":51530,"name":"Swanmore","lat":50.94404,"lng":-1.18021},{"id":153925,"name":"Test Valley","lat":51.1337556,"lng":-1.8311295},{"id":51922,"name":"Winchester","lat":51.06513,"lng":-1.3187}]