[{"id":48475,"name":"Benwell","lat":54.97296,"lng":-1.66926},{"id":48563,"name":"Blaydon-on-Tyne","lat":54.96461,"lng":-1.71392},{"id":48983,"name":"Chopwell","lat":54.91797,"lng":-1.82013},{"id":49687,"name":"Gosforth","lat":55.0,"lng":-1.61667},{"id":49884,"name":"Heddon on the Wall","lat":54.99692,"lng":-1.79386},{"id":50705,"name":"Newburn","lat":54.9876,"lng":-1.74415},{"id":50710,"name":"Newcastle upon Tyne","lat":55.0,"lng":-1.66667}]