[{"id":48178,"name":"Aberlady","lat":56.00884,"lng":-2.85851},{"id":48220,"name":"Allanton","lat":55.78333,"lng":-2.21667},{"id":48977,"name":"Chirnside","lat":55.80215,"lng":-2.20927},{"id":49343,"name":"Dunbar","lat":56.00062,"lng":-2.51418},{"id":49362,"name":"Duns","lat":55.77704,"lng":-2.34575},{"id":49403,"name":"East Linton","lat":55.98737,"lng":-2.65682},{"id":49404,"name":"East Lothian","lat":55.91667,"lng":-2.75},{"id":49510,"name":"Eyemouth","lat":55.8713,"lng":-2.0901},{"id":49766,"name":"Gullane","lat":56.03652,"lng":-2.82829},{"id":49772,"name":"Haddington","lat":55.95612,"lng":-2.78332},{"id":50408,"name":"Longniddry","lat":55.97543,"lng":-2.89593},{"id":50462,"name":"Macmerry","lat":55.94045,"lng":-2.90503},{"id":50749,"name":"North Berwick","lat":56.05825,"lng":-2.7229},{"id":50816,"name":"Ormiston","lat":55.91302,"lng":-2.93985},{"id":50879,"name":"Pencaitland","lat":55.90727,"lng":-2.8949},{"id":51659,"name":"Tranent","lat":55.94439,"lng":-2.95412}]