[{"id":48168,"name":"Aberdeen","lat":57.14369,"lng":-2.09814},{"id":48360,"name":"Balmedie","lat":57.25052,"lng":-2.06163},{"id":48579,"name":"Boddam","lat":57.47076,"lng":-1.78009},{"id":49125,"name":"Cove","lat":57.1,"lng":-2.08333},{"id":49187,"name":"Cruden Bay","lat":57.41797,"lng":-1.85313},{"id":49204,"name":"Cults","lat":57.11667,"lng":-2.16667},{"id":49369,"name":"Dyce","lat":57.20522,"lng":-2.17676},{"id":49457,"name":"Ellon","lat":57.36405,"lng":-2.07313},{"id":49603,"name":"Fraserburgh","lat":57.68744,"lng":-2.01844},{"id":50058,"name":"Inverbervie","lat":56.84463,"lng":-2.27997},{"id":50181,"name":"Kingswells","lat":57.15798,"lng":-2.22426},{"id":50189,"name":"Kintore","lat":57.23721,"lng":-2.3454},{"id":50588,"name":"Milltimber","lat":57.10424,"lng":-2.24099},{"id":50602,"name":"Mintlaw","lat":57.52414,"lng":-2.00099},{"id":50693,"name":"New Pitsligo","lat":57.59019,"lng":-2.19535},{"id":50716,"name":"Newmacher","lat":57.26667,"lng":-2.18333},{"id":50735,"name":"Newtonhill","lat":57.03333,"lng":-2.15},{"id":50808,"name":"Oldmeldrum","lat":57.33492,"lng":-2.3199},{"id":50901,"name":"Peterculter","lat":57.09929,"lng":-2.26588},{"id":50902,"name":"Peterhead","lat":57.50584,"lng":-1.79806},{"id":50918,"name":"Pitmedden","lat":57.33691,"lng":-2.18022},{"id":50953,"name":"Port Erroll","lat":57.41427,"lng":-1.84596},{"id":50966,"name":"Portlethen","lat":57.06942,"lng":-2.13246},{"id":51106,"name":"Rosehearty","lat":57.697,"lng":-2.11322},{"id":51473,"name":"Stonehaven","lat":56.96365,"lng":-2.21177},{"id":51843,"name":"Westhill","lat":57.15263,"lng":-2.27966}]