[{"id":48192,"name":"Acomb","lat":54.99229,"lng":-2.11229},{"id":48230,"name":"Alston","lat":54.809,"lng":-2.43931},{"id":49102,"name":"Corbridge","lat":54.97365,"lng":-2.01798},{"id":49791,"name":"Haltwhistle","lat":54.97101,"lng":-2.45682},{"id":49860,"name":"Haydon Bridge","lat":54.97486,"lng":-2.2468},{"id":49918,"name":"Hexham","lat":54.96986,"lng":-2.104},{"id":50996,"name":"Prudhoe","lat":54.96154,"lng":-1.85168},{"id":51327,"name":"Slaley","lat":54.91368,"lng":-2.03711},{"id":51457,"name":"Stocksfield","lat":54.94026,"lng":-1.90398},{"id":52006,"name":"Wylam","lat":54.97654,"lng":-1.82187}]