[{"id":48191,"name":"Acocks Green","lat":52.45,"lng":-1.81667},{"id":48235,"name":"Alvechurch","lat":52.35173,"lng":-1.96531},{"id":48362,"name":"Balsall Common","lat":52.39186,"lng":-1.6504},{"id":48945,"name":"Chelmsley Wood","lat":52.4781,"lng":-1.73813},{"id":49280,"name":"Dickens Heath","lat":52.38568,"lng":-1.83935},{"id":49311,"name":"Dorridge","lat":52.37259,"lng":-1.75318},{"id":49798,"name":"Hampton in Arden","lat":52.4254,"lng":-1.70271},{"id":49903,"name":"Henley in Arden","lat":52.29032,"lng":-1.77807},{"id":49954,"name":"Hockley Heath","lat":52.35294,"lng":-1.77816},{"id":50221,"name":"Knowle","lat":52.38333,"lng":-1.73333},{"id":51052,"name":"Redditch","lat":52.3065,"lng":-1.94569},{"id":51290,"name":"Shirley","lat":52.41074,"lng":-1.81952},{"id":51339,"name":"Solihull","lat":52.41667,"lng":-1.75},{"id":51504,"name":"Studley","lat":52.27026,"lng":-1.89188}]