[{"id":49785,"name":"Halkirk","lat":58.51227,"lng":-3.49155},{"id":50210,"name":"Kirkwall","lat":58.9816049,"lng":-2.960369},{"id":50812,"name":"Orkney","lat":58.9418231,"lng":-3.1296944},{"id":51197,"name":"Sandwick","lat":58.7876452,"lng":-2.9763807},{"id":51501,"name":"Stromness","lat":58.9614356,"lng":-3.2993767},{"id":51615,"name":"Thurso","lat":58.59271,"lng":-3.52594},{"id":51890,"name":"Wick","lat":58.43906,"lng":-3.09424}]