[{"id":48603,"name":"Borough of Oldham","lat":53.55,"lng":-2.08333},{"id":49258,"name":"Delph","lat":53.56667,"lng":-2.01667},{"id":49284,"name":"Diggle","lat":53.56744,"lng":-1.99723},{"id":49515,"name":"Failsworth","lat":53.50484,"lng":-2.16568},{"id":50573,"name":"Middleton","lat":53.55,"lng":-2.2},{"id":50807,"name":"Oldham","lat":53.54051,"lng":-2.1183},{"id":51135,"name":"Royton","lat":53.56507,"lng":-2.12267},{"id":51252,"name":"Shaw","lat":53.56667,"lng":-2.08333}]