[{"id":48204,"name":"Albrighton","lat":52.6364,"lng":-2.27966},{"id":48236,"name":"Alveley","lat":52.45709,"lng":-2.35434},{"id":48512,"name":"Bilston","lat":52.56568,"lng":-2.07367},{"id":48678,"name":"Brewood","lat":52.67712,"lng":-2.17414},{"id":48685,"name":"Bridgnorth","lat":52.53661,"lng":-2.42033},{"id":49056,"name":"Codsall","lat":52.62989,"lng":-2.20148},{"id":49126,"name":"Coven","lat":52.65587,"lng":-2.1353},{"id":49487,"name":"Essington","lat":52.6291,"lng":-2.0577},{"id":49537,"name":"Featherstone","lat":52.64483,"lng":-2.09315},{"id":49937,"name":"Highley","lat":52.44866,"lng":-2.38251},{"id":50182,"name":"Kingswinford","lat":52.49755,"lng":-2.16889},{"id":50861,"name":"Pattingham","lat":52.5891,"lng":-2.26538},{"id":51157,"name":"Ryton","lat":52.61667,"lng":-2.35},{"id":51782,"name":"Wednesfield","lat":52.5963,"lng":-2.08508},{"id":51862,"name":"Wheaton Aston","lat":52.71145,"lng":-2.22064},{"id":51906,"name":"Willenhall","lat":52.58514,"lng":-2.05934},{"id":51964,"name":"Wolverhampton","lat":52.58333,"lng":-2.11667},{"id":51965,"name":"Wombourn","lat":52.53333,"lng":-2.18333}]