[{"id":49003,"name":"City and Borough of Salford","lat":53.5,"lng":-2.33333},{"id":49432,"name":"Eccles","lat":53.48333,"lng":-2.33333},{"id":50100,"name":"Kearsley","lat":53.53333,"lng":-2.38333},{"id":50329,"name":"Little Hulton","lat":53.53333,"lng":-2.41667},{"id":50989,"name":"Prestwich","lat":53.53333,"lng":-2.28333},{"id":51181,"name":"Salford","lat":53.48771,"lng":-2.29042},{"id":51539,"name":"Swinton","lat":53.5,"lng":-2.35},{"id":51658,"name":"Trafford Park","lat":53.46879,"lng":-2.31194},{"id":51729,"name":"Walkden","lat":53.51667,"lng":-2.4}]