[{"id":48205,"name":"Alcester","lat":52.21667,"lng":-1.86667},{"id":48307,"name":"Astwood Bank","lat":52.25993,"lng":-1.93754},{"id":48333,"name":"Badsey","lat":52.08819,"lng":-1.89925},{"id":48488,"name":"Bewdley","lat":52.3757,"lng":-2.31833},{"id":48498,"name":"Bidford-on-Avon","lat":52.16964,"lng":-1.85955},{"id":48672,"name":"Bredon","lat":52.03008,"lng":-2.11671},{"id":48715,"name":"Broadway","lat":52.03825,"lng":-1.86079},{"id":48721,"name":"Bromsgrove","lat":52.33574,"lng":-2.05983},{"id":48972,"name":"Chipping Campden","lat":52.04964,"lng":-1.7767},{"id":49031,"name":"Cleobury Mortimer","lat":52.37853,"lng":-2.48196},{"id":49327,"name":"Droitwich","lat":52.26667,"lng":-2.15},{"id":49435,"name":"Eckington","lat":52.06667,"lng":-2.11667},{"id":49499,"name":"Evesham","lat":52.09237,"lng":-1.94887},{"id":49548,"name":"Fernhill Heath","lat":52.23002,"lng":-2.19659},{"id":49727,"name":"Great Malvern","lat":52.11161,"lng":-2.32515},{"id":49788,"name":"Hallow","lat":52.22344,"lng":-2.25468},{"id":49822,"name":"Hartlebury","lat":52.33333,"lng":-2.23333},{"id":49828,"name":"Harvington","lat":52.14095,"lng":-1.92313},{"id":49976,"name":"Honeybourne","lat":52.09513,"lng":-1.83129},{"id":50055,"name":"Inkberrow","lat":52.21284,"lng":-1.98093},{"id":50114,"name":"Kempsey","lat":52.13936,"lng":-2.21751},{"id":50135,"name":"Kidderminster","lat":52.38819,"lng":-2.25},{"id":50184,"name":"Kington","lat":52.2,"lng":-2.01667},{"id":50425,"name":"Lower Broadheath","lat":52.21379,"lng":-2.27724},{"id":50897,"name":"Pershore","lat":52.11163,"lng":-2.07586},{"id":51358,"name":"South Littleton","lat":52.11416,"lng":-1.89014},{"id":51467,"name":"Stoke Prior","lat":52.29978,"lng":-2.08034},{"id":51483,"name":"Stourport-on-Severn","lat":52.33976,"lng":-2.28034},{"id":51706,"name":"Upton upon Severn","lat":52.06258,"lng":-2.21802},{"id":51984,"name":"Worcester","lat":52.18935,"lng":-2.22001},{"id":51986,"name":"Worcestershire","lat":52.16667,"lng":-2.16667},{"id":52004,"name":"Wychbold","lat":52.29045,"lng":-2.11555}]