[{"id":48560,"name":"Blairgowrie","lat":56.59157,"lng":-3.34045},{"id":48868,"name":"Carnoustie","lat":56.50263,"lng":-2.7053},{"id":49124,"name":"Coupar Angus","lat":56.54552,"lng":-3.26774},{"id":49346,"name":"Dundee","lat":56.46913,"lng":-2.97489},{"id":50049,"name":"Inchture","lat":56.44551,"lng":-3.16956},{"id":50061,"name":"Invergowrie","lat":56.46111,"lng":-3.06158},{"id":50404,"name":"Longforgan","lat":56.45732,"lng":-3.11437},{"id":50617,"name":"Monifieth","lat":56.48227,"lng":-2.81732},{"id":50648,"name":"Muirhead","lat":56.5,"lng":-3.06667},{"id":50723,"name":"Newport-on-Tay","lat":56.43911,"lng":-2.9367},{"id":51566,"name":"Tayport","lat":56.44699,"lng":-2.87966}]