[{"id":48257,"name":"Anstey","lat":52.67368,"lng":-1.18841},{"id":48285,"name":"Asfordby","lat":52.76331,"lng":-0.95856},{"id":48289,"name":"Ashby de la Zouch","lat":52.74632,"lng":-1.4732},{"id":48337,"name":"Bagworth","lat":52.67265,"lng":-1.34274},{"id":48391,"name":"Barlestone","lat":52.64718,"lng":-1.37013},{"id":48410,"name":"Barrow upon Soar","lat":52.75178,"lng":-1.14601},{"id":48792,"name":"Burton on the Wolds","lat":52.78574,"lng":-1.12988},{"id":49047,"name":"Coalville","lat":52.72247,"lng":-1.3702},{"id":49276,"name":"Desford","lat":52.62598,"lng":-1.29395},{"id":49305,"name":"Donisthorpe","lat":52.72401,"lng":-1.538},{"id":49841,"name":"Hathern","lat":52.79548,"lng":-1.25644},{"id":50039,"name":"Ibstock","lat":52.68554,"lng":-1.39965},{"id":50401,"name":"Long Whatton","lat":52.80577,"lng":-1.28506},{"id":50418,"name":"Loughborough","lat":52.76667,"lng":-1.2},{"id":50497,"name":"Market Bosworth","lat":52.62428,"lng":-1.40174},{"id":50506,"name":"Markfield","lat":52.68747,"lng":-1.27476},{"id":50535,"name":"Measham","lat":52.70644,"lng":-1.50637},{"id":50538,"name":"Melbourne","lat":52.8219,"lng":-1.42522},{"id":50613,"name":"Moira","lat":52.73698,"lng":-1.53496},{"id":50643,"name":"Mountsorrel","lat":52.71667,"lng":-1.15},{"id":50701,"name":"Newbold Verdon","lat":52.62959,"lng":-1.3422},{"id":51013,"name":"Queniborough","lat":52.70591,"lng":-1.04749},{"id":51014,"name":"Quorndon","lat":52.74461,"lng":-1.17348},{"id":51033,"name":"Ratby","lat":52.64989,"lng":-1.24137},{"id":51039,"name":"Ravenstone","lat":52.72111,"lng":-1.40582},{"id":51121,"name":"Rothley","lat":52.70916,"lng":-1.13739},{"id":51263,"name":"Shepshed","lat":52.7657,"lng":-1.29021},{"id":51304,"name":"Sileby","lat":52.73286,"lng":-1.10773},{"id":51519,"name":"Sutton Bonington","lat":52.82144,"lng":-1.24969},{"id":51526,"name":"Swadlincote","lat":52.774,"lng":-1.55744},{"id":52007,"name":"Wymeswold","lat":52.80536,"lng":-1.11288}]