[{"id":48513,"name":"Bilston","lat":55.8703,"lng":-3.17814},{"id":48592,"name":"Bonnyrigg","lat":55.87329,"lng":-3.1051},{"id":49222,"name":"Dalkeith","lat":55.89317,"lng":-3.06806},{"id":49680,"name":"Gorebridge","lat":55.84594,"lng":-3.04563},{"id":50375,"name":"Loanhead","lat":55.87945,"lng":-3.15874},{"id":50533,"name":"Mayfield","lat":55.87172,"lng":-3.03875},{"id":50576,"name":"Midlothian","lat":55.82347,"lng":-3.09334},{"id":50867,"name":"Peebles","lat":55.6519,"lng":-3.1888},{"id":50881,"name":"Penicuik","lat":55.83116,"lng":-3.22608},{"id":51107,"name":"Rosewell","lat":55.85075,"lng":-3.13625},{"id":51108,"name":"Roslin","lat":55.85749,"lng":-3.16895},{"id":51825,"name":"West Linton","lat":55.74972,"lng":-3.35607}]