[{"id":48330,"name":"Backworth","lat":55.04229,"lng":-1.52779},{"id":48602,"name":"Borough of North Tyneside","lat":55.03333,"lng":-1.5},{"id":50763,"name":"North Shields","lat":55.01646,"lng":-1.44925},{"id":51288,"name":"Shiremoor","lat":55.03535,"lng":-1.5095},{"id":51686,"name":"Tynemouth","lat":55.01788,"lng":-1.42559},{"id":51734,"name":"Wallsend","lat":54.99111,"lng":-1.53397},{"id":51879,"name":"Whitley Bay","lat":55.03973,"lng":-1.44713}]