[{"id":48273,"name":"Ards and North Down","lat":54.53439,"lng":-5.62947},{"id":48359,"name":"Ballywalter","lat":54.54329,"lng":-5.48475},{"id":48371,"name":"Bangor","lat":54.65338,"lng":-5.66895},{"id":49302,"name":"Donaghadee","lat":54.64126,"lng":-5.53591},{"id":49751,"name":"Greyabbey","lat":54.53483,"lng":-5.56028},{"id":50194,"name":"Kircubbin","lat":54.48739,"lng":-5.53385},{"id":50585,"name":"Millisle","lat":54.60638,"lng":-5.52973},{"id":50740,"name":"Newtownards","lat":54.59236,"lng":-5.69092},{"id":50957,"name":"Portaferry","lat":54.38086,"lng":-5.54569},{"id":50958,"name":"Portavogie","lat":54.45916,"lng":-5.44304},{"id":51874,"name":"Whitehead","lat":54.75371,"lng":-5.70933}]