[{"id":48181,"name":"Abertillery","lat":51.72981,"lng":-3.13432},{"id":48555,"name":"Blaenau Gwent","lat":51.75,"lng":-3.16667},{"id":48557,"name":"Blaenavon","lat":51.77402,"lng":-3.08537},{"id":48740,"name":"Brynmawr","lat":51.8,"lng":-3.18333},{"id":49158,"name":"Crickhowell","lat":51.85992,"lng":-3.13771},{"id":49215,"name":"Cwm","lat":51.74,"lng":-3.18028},{"id":49431,"name":"Ebbw Vale","lat":51.77714,"lng":-3.20792},{"id":49644,"name":"Gilwern","lat":51.82475,"lng":-3.09355},{"id":49693,"name":"Govilon","lat":51.81928,"lng":-3.06295},{"id":50361,"name":"Llangynidr","lat":51.8673,"lng":-3.22762},{"id":50697,"name":"New Tredegar","lat":51.72051,"lng":-3.2413},{"id":51550,"name":"Talgarth","lat":51.99588,"lng":-3.23205},{"id":51661,"name":"Tredegar","lat":51.77251,"lng":-3.24679},{"id":51717,"name":"Victoria","lat":51.75,"lng":-3.2}]