[{"id":129905,"name":"Boghot Tumani","lat":41.31495,"lng":60.85327},{"id":129929,"name":"Gurlan","lat":41.84472,"lng":60.39194},{"id":129934,"name":"Hazorasp","lat":41.31944,"lng":61.07417},{"id":129945,"name":"Khiwa","lat":41.37833,"lng":60.36389},{"id":129991,"name":"Qŭshkŭpir","lat":41.535,"lng":60.34556},{"id":130001,"name":"Showot","lat":41.65583,"lng":60.3025},{"id":130013,"name":"Urganch","lat":41.55,"lng":60.63333}]