[{"id":67589,"name":"Bandiagara","lat":14.35005,"lng":-3.61038},{"id":67598,"name":"Djénné","lat":13.90608,"lng":-4.55332},{"id":67599,"name":"Douentza","lat":15.00155,"lng":-2.94978},{"id":67600,"name":"Douentza Cercle","lat":15.06947,"lng":-2.40875},{"id":67620,"name":"Mopti","lat":14.4843,"lng":-4.18296},{"id":67629,"name":"Ténenkou","lat":14.45722,"lng":-4.9169}]