[{"id":106915,"name":"Ariana","lat":36.86012,"lng":10.19337},{"id":153381,"name":"Ettadhamen-Mnihla","lat":36.8625,"lng":10.1703},{"id":106955,"name":"Kalaat el-Andalous","lat":36.8811,"lng":10.2622},{"id":153380,"name":"La Soukra","lat":36.8535,"lng":10.2525},{"id":153382,"name":"Mnihla","lat":36.8369,"lng":10.2002},{"id":153378,"name":"Raoued","lat":36.885,"lng":10.2465},{"id":153379,"name":"Sidi Thabet","lat":36.8399,"lng":10.0403}]