[{"id":106913,"name":"Al Matlīn","lat":37.24516,"lng":10.05},{"id":106926,"name":"Bizerte","lat":37.27442,"lng":9.87391},{"id":106927,"name":"Bizerte Sud","lat":37.25528,"lng":9.67915},{"id":106938,"name":"Douar Tindja","lat":37.16667,"lng":9.75},{"id":106941,"name":"El Alia","lat":37.16911,"lng":10.03478},{"id":106983,"name":"Mateur","lat":37.04045,"lng":9.66557},{"id":106988,"name":"Menzel Abderhaman","lat":37.23737,"lng":9.86313},{"id":106989,"name":"Menzel Bourguiba","lat":37.15368,"lng":9.78594},{"id":106990,"name":"Menzel Jemil","lat":37.23618,"lng":9.91448},{"id":107008,"name":"Rafrāf","lat":37.19043,"lng":10.18365},{"id":107010,"name":"Rhar el Melah","lat":37.16939,"lng":10.19064},{"id":107017,"name":"Sejenane","lat":37.05722,"lng":9.23806},{"id":107041,"name":"Zahānah","lat":37.03959,"lng":10.03876}]