[{"id":106910,"name":"Agareb","lat":34.74406,"lng":10.4611},{"id":106924,"name":"Bir Ali Ben Khalifa","lat":34.73592,"lng":10.0924},{"id":106936,"name":"Djebeniana","lat":35.035,"lng":10.90809},{"id":106957,"name":"Gremda","lat":34.75,"lng":10.78333},{"id":107019,"name":"Sfax","lat":34.74056,"lng":10.76028},{"id":107028,"name":"Skhira","lat":34.2992,"lng":10.06999}]