[{"id":106928,"name":"Bou Arada","lat":36.35251,"lng":9.62175},{"id":106953,"name":"Gafour","lat":36.32045,"lng":9.32424},{"id":106971,"name":"Kesra","lat":35.81363,"lng":9.36434},{"id":106978,"name":"Le Krib","lat":36.32802,"lng":9.13613},{"id":106981,"name":"Maktar","lat":35.85798,"lng":9.20072},{"id":107026,"name":"Siliana","lat":36.08497,"lng":9.37082}]