[{"id":106925,"name":"Bir el Hafey","lat":34.93212,"lng":9.19321},{"id":106949,"name":"Er Regueb","lat":34.85932,"lng":9.78654},{"id":106967,"name":"Jilma","lat":35.27311,"lng":9.42385},{"id":106995,"name":"Mezzouna","lat":34.57758,"lng":9.84193},{"id":107024,"name":"Sidi Bouzid","lat":35.03823,"lng":9.48494}]