[{"id":106933,"name":"Chebika","lat":34.31909,"lng":7.93519},{"id":106935,"name":"Degache","lat":33.97606,"lng":8.2081},{"id":107001,"name":"Nefta","lat":33.87309,"lng":7.87765},{"id":107033,"name":"Tamaghzah","lat":34.38849,"lng":7.94313},{"id":107038,"name":"Tozeur","lat":33.91968,"lng":8.13352}]