[{"id":67584,"name":"Ansongo","lat":15.6597,"lng":0.5022},{"id":67592,"name":"Cercle de Bourem","lat":17.71192,"lng":-0.34284},{"id":67601,"name":"Gao","lat":16.27167,"lng":-0.04472},{"id":67602,"name":"Gao Cercle","lat":16.72237,"lng":0.43984},{"id":67605,"name":"Inékar","lat":15.95944,"lng":3.14111}]