[{"id":77314,"name":"Abcoude","lat":52.2725,"lng":4.96944},{"id":77334,"name":"Amerongen","lat":52.0025,"lng":5.45972},{"id":77335,"name":"Amersfoort","lat":52.155,"lng":5.3875},{"id":77360,"name":"Austerlitz","lat":52.08,"lng":5.31528},{"id":77364,"name":"Baambrugge","lat":52.24583,"lng":4.98889},{"id":77368,"name":"Baarn","lat":52.21167,"lng":5.2875},{"id":77461,"name":"Bosch en Duin","lat":52.11667,"lng":5.24167},{"id":77479,"name":"Breukelen","lat":52.17417,"lng":5.00139},{"id":77503,"name":"Bunnik","lat":52.06667,"lng":5.19861},{"id":77504,"name":"Bunschoten","lat":52.24304,"lng":5.37884},{"id":77524,"name":"Cothen","lat":51.99667,"lng":5.30833},{"id":77532,"name":"De Bilt","lat":52.11,"lng":5.18056},{"id":77542,"name":"De Hagen","lat":51.99381,"lng":5.10263},{"id":77560,"name":"De Uithof","lat":52.08526,"lng":5.17456},{"id":77595,"name":"Doorn","lat":52.03343,"lng":5.34571},{"id":77604,"name":"Driebergen-Rijsenburg","lat":52.05333,"lng":5.28056},{"id":78058,"name":"Groenekan","lat":52.12333,"lng":5.15278},{"id":78169,"name":"Hollandsche Rading","lat":52.175,"lng":5.17778},{"id":78189,"name":"Houten","lat":52.02833,"lng":5.16806},{"id":78201,"name":"IJsselstein","lat":52.02,"lng":5.04306},{"id":78219,"name":"Kedichem","lat":51.86,"lng":5.05},{"id":78223,"name":"Kerckebosch","lat":52.07844,"lng":5.26584},{"id":78271,"name":"Langenoord","lat":52.18768,"lng":5.38034},{"id":78279,"name":"Leerdam","lat":51.89333,"lng":5.09167},{"id":78280,"name":"Leersum","lat":52.01167,"lng":5.42778},{"id":78294,"name":"Leusden","lat":52.1325,"lng":5.43194},{"id":78311,"name":"Linschoten","lat":52.0625,"lng":4.91528},{"id":78321,"name":"Lopik","lat":51.9725,"lng":4.94861},{"id":78326,"name":"Lunetten","lat":52.06178,"lng":5.13474},{"id":78331,"name":"Maarn","lat":52.06417,"lng":5.37083},{"id":78332,"name":"Maarssen","lat":52.13917,"lng":5.04167},{"id":78333,"name":"Maartensdijk","lat":52.155,"lng":5.175},{"id":78399,"name":"Mijdrecht","lat":52.20667,"lng":4.8625},{"id":78409,"name":"Montfoort","lat":52.04583,"lng":4.95278},{"id":78441,"name":"Nieuwegein","lat":52.02917,"lng":5.08056},{"id":78451,"name":"Nijenheim","lat":52.08689,"lng":5.21852},{"id":78482,"name":"Odijk","lat":52.0525,"lng":5.23611},{"id":78504,"name":"Oog in Al","lat":52.08636,"lng":5.0847},{"id":78567,"name":"Oudewater","lat":52.025,"lng":4.86806},{"id":78570,"name":"Overberg","lat":52.04,"lng":5.49444},{"id":78608,"name":"Randenbroek","lat":52.14863,"lng":5.4012},{"id":78615,"name":"Renswoude","lat":52.07333,"lng":5.54028},{"id":78619,"name":"Rhenen","lat":51.95917,"lng":5.56806},{"id":78682,"name":"Schoonrewoerd","lat":51.92083,"lng":5.11667},{"id":78719,"name":"Soest","lat":52.17333,"lng":5.29167},{"id":78720,"name":"Soestdijk","lat":52.19083,"lng":5.28472},{"id":78725,"name":"Spakenburg","lat":52.25,"lng":5.36667},{"id":78728,"name":"Spechtenkamp","lat":52.13926,"lng":5.01758},{"id":78758,"name":"Stichtse Vecht","lat":52.17679,"lng":5.01259},{"id":78822,"name":"Utrecht","lat":52.09083,"lng":5.12222},{"id":78837,"name":"Veenendaal","lat":52.02863,"lng":5.55891},{"id":78841,"name":"Veldhuizen","lat":52.07537,"lng":5.01234},{"id":78849,"name":"Vianen","lat":51.9925,"lng":5.09167},{"id":78854,"name":"Vinkeveen","lat":52.21507,"lng":4.93372},{"id":78858,"name":"Vleuten","lat":52.10583,"lng":5.01528},{"id":78882,"name":"Vreeswijk","lat":52.01088,"lng":5.09285},{"id":78925,"name":"Werkhoven","lat":52.025,"lng":5.24444},{"id":78954,"name":"Wijk bij Duurstede","lat":51.97417,"lng":5.34167},{"id":78960,"name":"Wilnis","lat":52.19667,"lng":4.89722},{"id":78973,"name":"Woerden","lat":52.085,"lng":4.88333},{"id":78984,"name":"Woudenberg","lat":52.08083,"lng":5.41667},{"id":79005,"name":"Zeist","lat":52.09,"lng":5.23333}]