[{"id":77298,"name":"'s-Gravenland","lat":51.92336,"lng":4.55315},{"id":77299,"name":"'s-Gravenzande","lat":52.00167,"lng":4.16528},{"id":77317,"name":"Adegeest","lat":52.13621,"lng":4.45249},{"id":77322,"name":"Alblasserdam","lat":51.86583,"lng":4.66111},{"id":77330,"name":"Alphen aan den Rijn","lat":52.12917,"lng":4.65546},{"id":77336,"name":"Ammerstol","lat":51.9275,"lng":4.80833},{"id":77354,"name":"Arkel","lat":51.86417,"lng":4.99444},{"id":77379,"name":"Barendrecht","lat":51.85667,"lng":4.53472},{"id":77403,"name":"Benthuizen","lat":52.0775,"lng":4.54444},{"id":77411,"name":"Bergschenhoek","lat":51.99,"lng":4.49861},{"id":77412,"name":"Bergstoep","lat":51.9225,"lng":4.78472},{"id":77414,"name":"Berkel en Rodenrijs","lat":51.99313,"lng":4.47865},{"id":77416,"name":"Berkenwoude","lat":51.945,"lng":4.70694},{"id":77432,"name":"Binnenhof","lat":52.16418,"lng":4.53644},{"id":77439,"name":"Bleiswijk","lat":52.01083,"lng":4.53194},{"id":77440,"name":"Bleskensgraaf","lat":51.8725,"lng":4.78333},{"id":77444,"name":"Bloemendaal","lat":52.02878,"lng":4.6944},{"id":77445,"name":"Bloemhof","lat":51.89723,"lng":4.49943},{"id":77448,"name":"Bodegraven","lat":52.0825,"lng":4.75},{"id":77449,"name":"Bodegraven-Reeuwijk","lat":52.06541,"lng":4.76634},{"id":77451,"name":"Bolnes","lat":51.895,"lng":4.57917},{"id":77463,"name":"Boskoop","lat":52.075,"lng":4.65556},{"id":77465,"name":"Boven-Hardinxveld","lat":51.82333,"lng":4.88194},{"id":77480,"name":"Brielle","lat":51.90167,"lng":4.1625},{"id":77511,"name":"Capelle aan den IJssel","lat":51.92917,"lng":4.57778},{"id":77512,"name":"Capelle-West","lat":51.91667,"lng":4.56667},{"id":77513,"name":"Carnisse","lat":51.88932,"lng":4.47758},{"id":77547,"name":"De Kieviet","lat":52.12333,"lng":4.35839},{"id":77551,"name":"De Lier","lat":51.975,"lng":4.24861},{"id":77556,"name":"De Peulen","lat":51.82362,"lng":4.82165},{"id":77567,"name":"Delfshaven","lat":51.90488,"lng":4.45315},{"id":77568,"name":"Delft","lat":52.00667,"lng":4.35556},{"id":77584,"name":"Dirksland","lat":51.74917,"lng":4.1},{"id":77600,"name":"Dordrecht","lat":51.81,"lng":4.67361},{"id":77605,"name":"Driebruggen","lat":52.04417,"lng":4.8},{"id":77608,"name":"Driemanspolder","lat":52.05176,"lng":4.48504},{"id":77615,"name":"Duindorp","lat":52.09078,"lng":4.26038},{"id":77616,"name":"Duinzigt","lat":52.10485,"lng":4.32494},{"id":77669,"name":"Essesteijn","lat":52.08534,"lng":4.37263},{"id":77674,"name":"Feijenoord","lat":51.91169,"lng":4.50645},{"id":78029,"name":"Giessenburg","lat":51.85083,"lng":4.89028},{"id":78030,"name":"Giessendam","lat":51.83257,"lng":4.83583},{"id":78036,"name":"Goedereede","lat":51.8175,"lng":3.98056},{"id":78041,"name":"Gorinchem","lat":51.83652,"lng":4.97243},{"id":78044,"name":"Gouda","lat":52.01667,"lng":4.70833},{"id":78045,"name":"Gouderak","lat":51.98417,"lng":4.67778},{"id":78046,"name":"Goudswaard","lat":51.79417,"lng":4.27639},{"id":78048,"name":"Gouwsluis","lat":52.11943,"lng":4.66899},{"id":78060,"name":"Groenswaard","lat":52.05154,"lng":4.64541},{"id":78065,"name":"Groot IJsselmonde","lat":51.88264,"lng":4.54937},{"id":78066,"name":"Groot-Ammers","lat":51.92333,"lng":4.82361},{"id":78083,"name":"Haastrecht","lat":52.00074,"lng":4.77639},{"id":78117,"name":"Heerjansdam","lat":51.83583,"lng":4.56389},{"id":78128,"name":"Heijplaat","lat":51.89333,"lng":4.42083},{"id":78134,"name":"Hellevoetsluis","lat":51.83333,"lng":4.13333},{"id":78139,"name":"Hendrik-Ido-Ambacht","lat":51.84417,"lng":4.63889},{"id":78157,"name":"Hillegom","lat":52.29083,"lng":4.58333},{"id":78163,"name":"Hoek van Holland","lat":51.9775,"lng":4.13333},{"id":78167,"name":"Hoge Mors","lat":52.15616,"lng":4.46025},{"id":78174,"name":"Honselersdijk","lat":52.00665,"lng":4.22441},{"id":78176,"name":"Hoogblokland","lat":51.875,"lng":4.97639},{"id":78184,"name":"Hoogmade","lat":52.16917,"lng":4.58194},{"id":78216,"name":"Katendrecht","lat":51.90074,"lng":4.48254},{"id":78218,"name":"Katwijk aan den Rijn","lat":52.19417,"lng":4.42222},{"id":78217,"name":"Katwijk aan Zee","lat":52.20333,"lng":4.39861},{"id":78226,"name":"Kerkehout","lat":52.11018,"lng":4.37957},{"id":78232,"name":"Kijkduin","lat":52.06765,"lng":4.22188},{"id":78233,"name":"Klaaswaal","lat":51.77,"lng":4.44583},{"id":78249,"name":"Kop van Zuid","lat":51.90553,"lng":4.48706},{"id":78256,"name":"Krimpen aan den IJssel","lat":51.91667,"lng":4.60278},{"id":78257,"name":"Krimpenerwaard","lat":51.98171,"lng":4.77828},{"id":78263,"name":"Kwintsheul","lat":52.01333,"lng":4.25556},{"id":78285,"name":"Leiden","lat":52.15833,"lng":4.49306},{"id":78286,"name":"Leiderdorp","lat":52.15833,"lng":4.52917},{"id":78287,"name":"Leimuiden","lat":52.22417,"lng":4.66944},{"id":78303,"name":"Liesveld","lat":51.9325,"lng":4.83194},{"id":78312,"name":"Lisse","lat":52.26,"lng":4.55694},{"id":78318,"name":"Lombardijen","lat":51.8738,"lng":4.52192},{"id":78336,"name":"Maasdijk","lat":51.95917,"lng":4.21389},{"id":78338,"name":"Maasland","lat":51.93417,"lng":4.27222},{"id":78339,"name":"Maassluis","lat":51.92333,"lng":4.25},{"id":78382,"name":"Merenwijk","lat":52.17655,"lng":4.50885},{"id":78389,"name":"Middelharnis","lat":51.7575,"lng":4.16528},{"id":78391,"name":"Middelsluis","lat":51.7425,"lng":4.44167},{"id":78400,"name":"Mijnsheerenland","lat":51.79667,"lng":4.4875},{"id":78408,"name":"Monster","lat":52.02583,"lng":4.175},{"id":78416,"name":"Naaldwijk","lat":51.99417,"lng":4.20972},{"id":78419,"name":"Neder-Hardinxveld","lat":51.82879,"lng":4.85489},{"id":78430,"name":"Nieuw-Beijerland","lat":51.8125,"lng":4.34306},{"id":78433,"name":"Nieuw-Lekkerland","lat":51.88915,"lng":4.68653},{"id":78443,"name":"Nieuwenhoorn","lat":51.85417,"lng":4.14306},{"id":78445,"name":"Nieuwkoop","lat":52.15083,"lng":4.77639},{"id":78449,"name":"Nieuwpoort","lat":51.93583,"lng":4.86806},{"id":78450,"name":"Nieuwveen","lat":52.19667,"lng":4.75694},{"id":78458,"name":"Nissewaard","lat":51.83716,"lng":4.2754},{"id":78461,"name":"Noord-Hofland","lat":52.14059,"lng":4.45864},{"id":78465,"name":"Noordeinde","lat":52.01667,"lng":4.48333},{"id":78466,"name":"Noordeloos","lat":51.90333,"lng":4.94167},{"id":78470,"name":"Noordwijk-Binnen","lat":52.234,"lng":4.44474},{"id":78471,"name":"Noordwijkerhout","lat":52.26167,"lng":4.49306},{"id":78475,"name":"Numansdorp","lat":51.73167,"lng":4.4375},{"id":78485,"name":"Oegstgeest","lat":52.18,"lng":4.46944},{"id":78501,"name":"Ommoord","lat":51.95951,"lng":4.54533},{"id":78509,"name":"Oostdorp","lat":52.14994,"lng":4.39319},{"id":78529,"name":"Oostvoorne","lat":51.9125,"lng":4.09861},{"id":78541,"name":"Oranjewijk","lat":52.04922,"lng":4.65374},{"id":78552,"name":"Oud-Beijerland","lat":51.82417,"lng":4.4125},{"id":78556,"name":"Ouddorp","lat":51.81167,"lng":3.93472},{"id":78559,"name":"Oude Wetering","lat":52.21417,"lng":4.64444},{"id":78564,"name":"Ouderkerk aan den IJssel","lat":51.93417,"lng":4.63611},{"id":78573,"name":"Overschie","lat":51.93863,"lng":4.42766},{"id":78575,"name":"Palenstein","lat":52.05579,"lng":4.50869},{"id":78578,"name":"Papendrecht","lat":51.83167,"lng":4.6875},{"id":78579,"name":"Papenveer","lat":52.185,"lng":4.725},{"id":78586,"name":"Pendrecht","lat":51.87152,"lng":4.46901},{"id":78587,"name":"Pernis","lat":51.88833,"lng":4.38889},{"id":78590,"name":"Piershil","lat":51.79333,"lng":4.31389},{"id":78591,"name":"Pijnacker","lat":52.01954,"lng":4.42946},{"id":78592,"name":"Poeldijk","lat":52.02417,"lng":4.21944},{"id":78611,"name":"Reeuwijk","lat":52.04667,"lng":4.725},{"id":78620,"name":"Rhoon","lat":51.8575,"lng":4.42222},{"id":78621,"name":"Ridderkerk","lat":51.8725,"lng":4.60278},{"id":78624,"name":"Rijnsaterwoude","lat":52.19583,"lng":4.67083},{"id":78625,"name":"Rijnsburg","lat":52.19,"lng":4.44167},{"id":78626,"name":"Rijpwetering","lat":52.1925,"lng":4.58333},{"id":78628,"name":"Rijsoord","lat":51.85083,"lng":4.59583},{"id":78630,"name":"Rijswijk","lat":52.03634,"lng":4.32501},{"id":78632,"name":"Rockanje","lat":51.87167,"lng":4.07083},{"id":78634,"name":"Roelofarendsveen","lat":52.20333,"lng":4.63333},{"id":78642,"name":"Rotterdam","lat":51.9225,"lng":4.47917},{"id":78644,"name":"Rozenburg","lat":51.90417,"lng":4.24861},{"id":78647,"name":"Rugge","lat":51.89921,"lng":4.15231},{"id":78654,"name":"Sassenheim","lat":52.225,"lng":4.52222},{"id":78663,"name":"Schelluinen","lat":51.84333,"lng":4.92639},{"id":78667,"name":"Scheveningen","lat":52.10461,"lng":4.27557},{"id":78668,"name":"Schiebroek","lat":51.95838,"lng":4.47124},{"id":78669,"name":"Schiedam","lat":51.91917,"lng":4.38889},{"id":78677,"name":"Schipluiden","lat":51.97583,"lng":4.31389},{"id":78680,"name":"Schoonhoven","lat":51.9475,"lng":4.84861},{"id":78710,"name":"Sliedrecht","lat":51.82083,"lng":4.77639},{"id":78711,"name":"Slikkerveer","lat":51.88531,"lng":4.60494},{"id":78726,"name":"Spangen","lat":51.91688,"lng":4.43539},{"id":78733,"name":"Spijkenisse","lat":51.845,"lng":4.32917},{"id":78734,"name":"Spoorwijk","lat":52.05347,"lng":4.31339},{"id":78746,"name":"Statenkwartier","lat":52.09311,"lng":4.27577},{"id":78755,"name":"Stein","lat":52.00333,"lng":4.78194},{"id":78760,"name":"Stolwijk","lat":51.9725,"lng":4.77361},{"id":78763,"name":"Strijen","lat":51.74521,"lng":4.55083},{"id":78764,"name":"Strijp","lat":52.03083,"lng":4.30139},{"id":78771,"name":"Terbregge","lat":51.95328,"lng":4.51537},{"id":78779,"name":"The Hague","lat":52.07667,"lng":4.29861},{"id":78794,"name":"Tuindorp","lat":51.93032,"lng":4.3784},{"id":78828,"name":"Valkenburg","lat":52.18,"lng":4.43194},{"id":78850,"name":"Vierpolders","lat":51.87917,"lng":4.17917},{"id":78855,"name":"Vlaardingen","lat":51.9125,"lng":4.34167},{"id":78861,"name":"Vlietwijk","lat":52.12436,"lng":4.45736},{"id":78868,"name":"Vogelwijk","lat":52.07631,"lng":4.2479},{"id":78873,"name":"Vondelwijk","lat":52.05497,"lng":4.65314},{"id":78874,"name":"Voorburg","lat":52.07417,"lng":4.35972},{"id":78875,"name":"Voorhout","lat":52.22167,"lng":4.48472},{"id":78876,"name":"Voorschoten","lat":52.1275,"lng":4.44861},{"id":78883,"name":"Vreewijk","lat":51.88428,"lng":4.51967},{"id":78895,"name":"Waarder","lat":52.06083,"lng":4.82083},{"id":78897,"name":"Waddinxveen","lat":52.045,"lng":4.65139},{"id":78906,"name":"Warmond","lat":52.19667,"lng":4.50278},{"id":78909,"name":"Wassenaar","lat":52.14583,"lng":4.40278},{"id":78913,"name":"Weerestein","lat":52.30381,"lng":4.58861},{"id":78916,"name":"Weijpoort","lat":52.08167,"lng":4.80278},{"id":78944,"name":"Westmaas","lat":51.78667,"lng":4.475},{"id":78983,"name":"Woubrugge","lat":52.17,"lng":4.63611},{"id":78990,"name":"Ypenburg","lat":52.04098,"lng":4.36981},{"id":79011,"name":"Zevenhoven","lat":52.18167,"lng":4.77917},{"id":79016,"name":"Zoetermeer","lat":52.0575,"lng":4.49306},{"id":79017,"name":"Zoeterwoude-Dorp","lat":52.12,"lng":4.49583},{"id":79022,"name":"Zuid-Beijerland","lat":51.75083,"lng":4.36806},{"id":79029,"name":"Zuidwijk","lat":51.87532,"lng":4.48514},{"id":79035,"name":"Zwijndrecht","lat":51.8175,"lng":4.63333}]