[{"id":77327,"name":"Almere Stad","lat":52.37025,"lng":5.21413},{"id":77427,"name":"Biddinghuizen","lat":52.455,"lng":5.69306},{"id":77612,"name":"Dronten","lat":52.525,"lng":5.71806},{"id":77652,"name":"Emmeloord","lat":52.71083,"lng":5.74861},{"id":77661,"name":"Ens","lat":52.63667,"lng":5.82778},{"id":78288,"name":"Lelystad","lat":52.50833,"lng":5.475},{"id":78819,"name":"Urk","lat":52.6625,"lng":5.60139},{"id":79002,"name":"Zeewolde","lat":52.33,"lng":5.54167}]