[{"id":18871,"name":"Arrah","lat":6.67342,"lng":-3.96938},{"id":18886,"name":"Bélier","lat":7.02582,"lng":-5.06744},{"id":18877,"name":"Bocanda","lat":7.06264,"lng":-4.49948},{"id":18879,"name":"Bongouanou","lat":6.65175,"lng":-4.20406},{"id":18894,"name":"Daoukro","lat":7.0591,"lng":-3.9631},{"id":18895,"name":"Dimbokro","lat":6.64678,"lng":-4.70519},{"id":18912,"name":"Iffou","lat":7.11509,"lng":-3.95027},{"id":18922,"name":"Moronou","lat":6.6683,"lng":-4.13155},{"id":18923,"name":"N'Zi","lat":6.82803,"lng":-4.5813},{"id":18939,"name":"Toumodi","lat":6.55799,"lng":-5.01769},{"id":18942,"name":"Yamoussoukro","lat":6.82055,"lng":-5.27674}]