[{"id":18896,"name":"Divo","lat":5.83739,"lng":-5.35723},{"id":18899,"name":"Gagnoa","lat":6.13193,"lng":-5.9506},{"id":18909,"name":"Gôh","lat":6.14459,"lng":-5.92644},{"id":18906,"name":"Guibéroua","lat":6.23869,"lng":-6.17147},{"id":18917,"name":"Lakota","lat":5.84752,"lng":-5.682},{"id":18918,"name":"Lôh-Djiboua","lat":5.82483,"lng":-5.47668},{"id":18926,"name":"Oumé","lat":6.38309,"lng":-5.41759}]