[{"id":52218,"name":"Bakadagy","lat":13.3,"lng":-14.38333},{"id":52225,"name":"Basse Santa Su","lat":13.30995,"lng":-14.21373},{"id":52226,"name":"Brifu","lat":13.5,"lng":-13.93333},{"id":52232,"name":"Daba Kunda","lat":13.31667,"lng":-14.3},{"id":52235,"name":"Demba Kunda","lat":13.25,"lng":-14.26667},{"id":52237,"name":"Diabugu","lat":13.38333,"lng":-14.4},{"id":52238,"name":"Diabugu Basilla","lat":13.33333,"lng":-13.95},{"id":52245,"name":"Fulladu East","lat":13.33333,"lng":-14.25},{"id":52251,"name":"Gunjur Kuta","lat":13.53333,"lng":-14.11667},{"id":52263,"name":"Kantora","lat":13.41667,"lng":-13.91667},{"id":52273,"name":"Koina","lat":13.48333,"lng":-13.86667},{"id":52279,"name":"Kumbija","lat":13.26667,"lng":-14.18333},{"id":52293,"name":"Nyamanari","lat":13.33333,"lng":-13.86667},{"id":52295,"name":"Perai","lat":13.38333,"lng":-14.03333},{"id":52297,"name":"Sabi","lat":13.23333,"lng":-14.2},{"id":52300,"name":"Sandu","lat":13.41667,"lng":-14.36667},{"id":52308,"name":"Sudowol","lat":13.36667,"lng":-13.96667},{"id":52311,"name":"Sun Kunda","lat":13.38333,"lng":-13.85},{"id":52312,"name":"Sutukoba","lat":13.5,"lng":-14.01667},{"id":52320,"name":"Wuli","lat":13.5,"lng":-14.08333}]