[{"id":52223,"name":"Baro Kunda","lat":13.48333,"lng":-15.26667},{"id":52229,"name":"Bureng","lat":13.41667,"lng":-15.28333},{"id":52253,"name":"Jali","lat":13.35,"lng":-15.96667},{"id":52255,"name":"Jarra Central","lat":13.41667,"lng":-15.41667},{"id":52256,"name":"Jarra East","lat":13.41667,"lng":-15.25},{"id":52257,"name":"Jarra West","lat":13.41667,"lng":-15.53333},{"id":52259,"name":"Jenoi","lat":13.48333,"lng":-15.56667},{"id":52260,"name":"Jifarong","lat":13.3,"lng":-15.86667},{"id":52262,"name":"Kaiaf","lat":13.4,"lng":-15.61667},{"id":52264,"name":"Karantaba","lat":13.43333,"lng":-15.51667},{"id":52268,"name":"Keneba","lat":13.32889,"lng":-16.015},{"id":52270,"name":"Kiang Central","lat":13.4,"lng":-15.75},{"id":52271,"name":"Kiang East","lat":13.41667,"lng":-15.63333},{"id":52272,"name":"Kiang West","lat":13.33333,"lng":-16.0},{"id":52286,"name":"Mansa Konko","lat":13.44325,"lng":-15.5357},{"id":52291,"name":"Nioro","lat":13.35,"lng":-15.75},{"id":52301,"name":"Sankwia","lat":13.46667,"lng":-15.51667},{"id":52305,"name":"Si Kunda","lat":13.43333,"lng":-15.56667},{"id":52306,"name":"Soma","lat":13.43333,"lng":-15.53333},{"id":52313,"name":"Sutukung","lat":13.46667,"lng":-15.26667},{"id":52314,"name":"Toniataba","lat":13.43333,"lng":-15.58333},{"id":52319,"name":"Wellingara Ba","lat":13.41667,"lng":-15.4}]