[{"id":52321,"name":"Beyla","lat":8.69011,"lng":-8.64869},{"id":52322,"name":"Beyla Prefecture","lat":8.91667,"lng":-8.41667},{"id":52335,"name":"Gueckedou","lat":8.56744,"lng":-10.1336},{"id":52349,"name":"Lola","lat":7.83333,"lng":-8.33333},{"id":52351,"name":"Macenta","lat":8.5,"lng":-9.41667},{"id":52359,"name":"Nzérékoré","lat":7.75624,"lng":-8.8179},{"id":52358,"name":"Nzerekore Prefecture","lat":7.945,"lng":-8.783},{"id":52363,"name":"Préfecture de Guékédou","lat":8.66667,"lng":-10.25},{"id":52373,"name":"Yomou","lat":7.5,"lng":-9.16667}]