[{"id":52336,"name":"Kankan","lat":10.38542,"lng":-9.30568},{"id":52337,"name":"Kankan Prefecture","lat":10.271,"lng":-9.178},{"id":52345,"name":"Kérouané","lat":9.26667,"lng":-9.01667},{"id":52338,"name":"Kerouane Prefecture","lat":9.16667,"lng":-9.08333},{"id":52344,"name":"Kouroussa","lat":10.66667,"lng":-9.91667},{"id":52356,"name":"Mandiana","lat":10.62577,"lng":-8.69413},{"id":52357,"name":"Mandiana Prefecture","lat":10.658,"lng":-8.615},{"id":52365,"name":"Siguiri","lat":11.42282,"lng":-9.16852},{"id":52366,"name":"Siguiri Prefecture","lat":11.66667,"lng":-9.5},{"id":52368,"name":"Tokonou","lat":9.65,"lng":-9.78333}]