[{"id":89716,"name":"Abaí","lat":-26.03333,"lng":-55.93333},{"id":89728,"name":"Buena Vista","lat":-26.18387,"lng":-56.08171},{"id":89732,"name":"Caazapá","lat":-26.19583,"lng":-56.36806},{"id":89772,"name":"General Higinio Morínigo","lat":-25.95,"lng":-55.91667},{"id":89826,"name":"San Juan Nepomuceno","lat":-26.11229,"lng":-55.93861},{"id":89850,"name":"Yegros","lat":-26.45,"lng":-56.4},{"id":89855,"name":"Yuty","lat":-26.61471,"lng":-56.24607}]