[{"id":89721,"name":"Arquitecto Tomás Romero Pereira","lat":-26.48333,"lng":-55.25},{"id":89724,"name":"Bella Vista","lat":-27.05,"lng":-55.55},{"id":89735,"name":"Capitán Miranda","lat":-27.2,"lng":-55.8},{"id":89741,"name":"Carmen del Paraná","lat":-27.22232,"lng":-56.15243},{"id":89746,"name":"Colonia Carlos Antonio López","lat":-26.39853,"lng":-54.7569},{"id":89754,"name":"Colonia San Lorenzo","lat":-26.49324,"lng":-54.79989},{"id":89761,"name":"Edelira","lat":-26.76734,"lng":-55.27872},{"id":89763,"name":"Encarnación","lat":-27.33056,"lng":-55.86667},{"id":89767,"name":"Fram","lat":-26.98333,"lng":-55.88333},{"id":89769,"name":"General Artigas","lat":-26.93522,"lng":-56.22168},{"id":89770,"name":"General Delgado","lat":-27.09046,"lng":-56.52474},{"id":89776,"name":"Hohenau","lat":-27.07315,"lng":-55.64247},{"id":89787,"name":"Jesús","lat":-27.05598,"lng":-55.7413},{"id":89801,"name":"Natalio","lat":-26.75702,"lng":-55.13777},{"id":89805,"name":"Obligado","lat":-27.03333,"lng":-55.63333},{"id":89809,"name":"Pirapó","lat":-26.86012,"lng":-55.54357},{"id":89813,"name":"Puerto Mayor Otaño","lat":-26.4,"lng":-54.7},{"id":89821,"name":"San Cosme y Damián","lat":-27.31741,"lng":-56.33087},{"id":89827,"name":"San Juan del Paraná","lat":-27.30168,"lng":-55.96509},{"id":89832,"name":"San Pedro del Paraná","lat":-26.83268,"lng":-56.20575},{"id":89841,"name":"Trinidad","lat":-27.11667,"lng":-55.78333}]