[{"id":146174,"name":"Akurana","lat":7.365,"lng":80.617222},{"id":146150,"name":"Alawatugoda","lat":7.41048962,"lng":80.60918933},{"id":146149,"name":"Ambatenna","lat":7.35252855,"lng":80.61378113},{"id":146148,"name":"Daskara","lat":7.20902217,"lng":80.57764643},{"id":146147,"name":"Daulagala","lat":7.22882494,"lng":80.57756073},{"id":146173,"name":"Delthota","lat":7.18491721,"lng":80.70488697},{"id":146172,"name":"Doluwa","lat":7.18518536,"lng":80.6057345},{"id":146146,"name":"Galagedara","lat":7.368333,"lng":80.5275},{"id":146145,"name":"Galhinna","lat":7.416142,"lng":80.568842},{"id":66472,"name":"Gampola","lat":7.1643,"lng":80.5696},{"id":146171,"name":"Ganga Ihala Korale","lat":7.11455516,"lng":80.5144881},{"id":146144,"name":"Hanguranketa","lat":7.166667,"lng":80.783333},{"id":146143,"name":"Hapugastalawa","lat":7.05872498,"lng":80.57137014},{"id":146170,"name":"Harispattuwa","lat":7.33016007,"lng":80.58765149},{"id":146169,"name":"Hatharaliyadda","lat":7.33032982,"lng":80.47875881},{"id":66485,"name":"Kadugannawa","lat":7.2547,"lng":80.5242},{"id":146168,"name":"Kandy Four Gravets","lat":7.28318748,"lng":80.63527585},{"id":146153,"name":"Katugastota","lat":7.333333,"lng":80.616667},{"id":146167,"name":"Kundasale","lat":7.30391594,"lng":80.71230408},{"id":146142,"name":"Madawala","lat":7.328331,"lng":80.673552},{"id":146166,"name":"Medadumbara","lat":7.30425996,"lng":80.77519844},{"id":146141,"name":"Menikdiwela","lat":7.083333,"lng":80.733333},{"id":146165,"name":"Minipe","lat":7.22638754,"lng":81.00116732},{"id":146151,"name":"Nawalapitiya","lat":7.03696481,"lng":80.51626688},{"id":146152,"name":"Pallekele","lat":7.283333,"lng":80.7},{"id":146164,"name":"Panvila","lat":7.4092975,"lng":80.73966228},{"id":146163,"name":"Pasbage Korale","lat":7.0151045,"lng":80.54078073},{"id":146162,"name":"Pathadumbara","lat":7.34931196,"lng":80.66303689},{"id":146161,"name":"Pathahewaheta","lat":7.23139207,"lng":80.70848937},{"id":146154,"name":"Peradeniya","lat":7.266667,"lng":80.6},{"id":146140,"name":"Pilimathalawa","lat":7.27,"lng":80.57},{"id":146160,"name":"Poojapitiya","lat":7.38093796,"lng":80.58913708},{"id":146139,"name":"Pussellawa","lat":7.105333,"lng":80.636667},{"id":146138,"name":"Talatuoya","lat":7.25,"lng":80.683333},{"id":146137,"name":"Teldeniya","lat":7.3,"lng":80.766667},{"id":146159,"name":"Thumpane","lat":7.36616728,"lng":80.51587048},{"id":146133,"name":"Udadumbara","lat":7.35,"lng":80.833333},{"id":146158,"name":"Udapalatha","lat":7.11515526,"lng":80.6024834},{"id":146157,"name":"Ududumbara","lat":7.31434839,"lng":80.87707756},{"id":146156,"name":"Udunuwara","lat":7.22777866,"lng":80.55894578},{"id":146136,"name":"Ulapane","lat":7.102778,"lng":80.561111},{"id":146135,"name":"Watadeniya","lat":7.195011,"lng":80.552494},{"id":66542,"name":"Wattegama","lat":7.350278,"lng":80.6825},{"id":146134,"name":"Welamboda","lat":7.2,"lng":80.55},{"id":146155,"name":"Yatinuwara","lat":7.28584509,"lng":80.53516168}]