[{"id":66463,"name":"Dambulla","lat":7.86,"lng":80.65167},{"id":66476,"name":"Hatton","lat":6.8916,"lng":80.5955},{"id":66489,"name":"Kandy","lat":7.2906,"lng":80.6336},{"id":66490,"name":"Kandy District","lat":7.3044,"lng":80.7073},{"id":66505,"name":"Matale","lat":7.4698,"lng":80.6217},{"id":66506,"name":"Matale District","lat":7.6598,"lng":80.7073},{"id":66517,"name":"Nuwara Eliya","lat":6.97078,"lng":80.78286},{"id":66518,"name":"Nuwara Eliya District","lat":6.9785,"lng":80.7133},{"id":66529,"name":"Sigiriya","lat":7.94946,"lng":80.75037},{"id":66531,"name":"Talawakele","lat":6.9371,"lng":80.6581}]