[{"id":21805,"name":"Amancio","lat":20.81914,"lng":-77.57958},{"id":21837,"name":"Colombia","lat":20.98812,"lng":-77.42598},{"id":21874,"name":"Jesús Menéndez","lat":21.16139,"lng":-76.47919},{"id":21878,"name":"Jobabo","lat":20.90748,"lng":-77.28194},{"id":21884,"name":"Las Tunas","lat":20.96167,"lng":-76.95111},{"id":21890,"name":"Manatí","lat":21.3107,"lng":-76.93403},{"id":21947,"name":"Puerto Padre","lat":21.19517,"lng":-76.60358}]