[{"id":66460,"name":"Chilaw","lat":7.57583,"lng":79.79528},{"id":66501,"name":"Kuliyapitiya","lat":7.4688,"lng":80.0401},{"id":66502,"name":"Kurunegala","lat":7.4839,"lng":80.3683},{"id":66503,"name":"Kurunegala District","lat":7.75,"lng":80.25},{"id":66525,"name":"Puttalam","lat":8.0362,"lng":79.8283},{"id":66526,"name":"Puttalam District","lat":8.0454,"lng":79.9319}]