[{"id":148352,"name":"Andacollo","lat":-30.21666667,"lng":-71.08333333},{"id":148353,"name":"Canela","lat":-31.4,"lng":-71.45},{"id":148354,"name":"Combarbalá","lat":-31.16666667,"lng":-71.05},{"id":18973,"name":"Coquimbo","lat":-29.95332,"lng":-71.33947},{"id":18988,"name":"Illapel","lat":-31.63349,"lng":-71.16967},{"id":148355,"name":"La Higuera","lat":-29.5,"lng":-71.26666667},{"id":18994,"name":"La Serena","lat":-29.90453,"lng":-71.24894},{"id":148356,"name":"Los Vilos","lat":-31.9,"lng":-71.51666667},{"id":19014,"name":"Monte Patria","lat":-30.69496,"lng":-70.9577},{"id":19019,"name":"Ovalle","lat":-30.60106,"lng":-71.19901},{"id":148357,"name":"Paihuano","lat":-30.02884,"lng":-70.51708},{"id":148358,"name":"Punitaqui","lat":-30.9,"lng":-71.26666667},{"id":148359,"name":"Río Hurtado","lat":-30.26666667,"lng":-70.7},{"id":19099,"name":"Salamanca","lat":-31.77922,"lng":-70.96389},{"id":19125,"name":"Vicuña","lat":-30.03541,"lng":-70.71274}]