[{"id":18945,"name":"Angol","lat":-37.79519,"lng":-72.71636},{"id":18954,"name":"Carahue","lat":-38.71122,"lng":-73.16101},{"id":148360,"name":"Cholchol","lat":-38.6,"lng":-72.85},{"id":18969,"name":"Collipulli","lat":-37.95453,"lng":-72.43438},{"id":148361,"name":"Cunco","lat":-38.91666667,"lng":-72.03333333},{"id":148362,"name":"Curacautín","lat":-38.4404921,"lng":-71.905396},{"id":148363,"name":"Curarrehue","lat":-39.35,"lng":-71.58333333},{"id":148364,"name":"Ercilla","lat":-38.05,"lng":-72.38333333},{"id":18983,"name":"Freire","lat":-38.95252,"lng":-72.62653},{"id":148365,"name":"Galvarino","lat":-38.4,"lng":-72.78333333},{"id":148366,"name":"Gorbea","lat":-39.1,"lng":-72.68333333},{"id":19000,"name":"Lautaro","lat":-38.53066,"lng":-72.43652},{"id":19006,"name":"Loncoche","lat":-39.36708,"lng":-72.63087},{"id":148367,"name":"Lonquimay","lat":-38.43333333,"lng":-71.23333333},{"id":148368,"name":"Los Sauces","lat":-37.96666667,"lng":-72.83333333},{"id":148369,"name":"Lumaco","lat":-38.15,"lng":-72.91666667},{"id":148370,"name":"Melipeuco","lat":-38.85,"lng":-71.7},{"id":19017,"name":"Nueva Imperial","lat":-38.74451,"lng":-72.95025},{"id":148371,"name":"Padre Las Casas","lat":-38.76666667,"lng":-72.6},{"id":148372,"name":"Perquenco","lat":-38.41666667,"lng":-72.38333333},{"id":19027,"name":"Pitrufquén","lat":-38.98635,"lng":-72.63721},{"id":19080,"name":"Pucón","lat":-39.28223,"lng":-71.95427},{"id":148373,"name":"Purén","lat":-38.01666667,"lng":-73.08333333},{"id":148374,"name":"Renaico","lat":-37.71779,"lng":-72.5757},{"id":148375,"name":"Saavedra","lat":-38.78333333,"lng":-73.4},{"id":19116,"name":"Temuco","lat":-38.73965,"lng":-72.59842},{"id":148376,"name":"Teodoro Schmidt","lat":-38.96666667,"lng":-73.05},{"id":148377,"name":"Toltén","lat":-39.17852,"lng":-73.16448},{"id":19120,"name":"Traiguén","lat":-38.2496,"lng":-72.67027},{"id":19124,"name":"Victoria","lat":-38.23291,"lng":-72.33292},{"id":19126,"name":"Vilcún","lat":-38.66875,"lng":-72.22565},{"id":19129,"name":"Villarrica","lat":-39.28569,"lng":-72.2279}]