[{"id":18946,"name":"Antofagasta","lat":-23.65236,"lng":-70.3954},{"id":18952,"name":"Calama","lat":-22.45667,"lng":-68.92371},{"id":148326,"name":"María Elena","lat":-22.35,"lng":-69.66666667},{"id":19033,"name":"Mejillones","lat":-23.1,"lng":-70.45},{"id":19074,"name":"Ollagüe","lat":-21.22496,"lng":-68.25352},{"id":19107,"name":"San Pedro de Atacama","lat":-22.9111,"lng":-68.20113},{"id":19051,"name":"Sierra Gorda","lat":-22.88333333,"lng":-69.31666667},{"id":19115,"name":"Taltal","lat":-25.40713,"lng":-70.48554},{"id":19118,"name":"Tocopilla","lat":-22.09198,"lng":-70.19792}]