[{"id":148412,"name":"Alto Hospicio","lat":-20.25,"lng":-70.11666667},{"id":148413,"name":"Camiña","lat":-19.3,"lng":-69.41666667},{"id":148414,"name":"Colchane","lat":-19.275411,"lng":-68.639646},{"id":148415,"name":"Huara","lat":-19.96666667,"lng":-69.76666667},{"id":18989,"name":"Iquique","lat":-20.21326,"lng":-70.15027},{"id":148416,"name":"Pica","lat":-20.5,"lng":-69.33333333},{"id":148417,"name":"Pozo Almonte","lat":-20.2597,"lng":-69.7862}]