[{"id":21810,"name":"Baracoa","lat":20.34711,"lng":-74.49624},{"id":21860,"name":"Guantánamo","lat":20.14444,"lng":-75.20917},{"id":21889,"name":"Maisí","lat":20.24673,"lng":-74.15181},{"id":21916,"name":"Municipio de Guantánamo","lat":20.26723,"lng":-75.15546},{"id":21955,"name":"Río Guayabal de Yateras","lat":20.36667,"lng":-75.01667},{"id":21958,"name":"San Antonio del Sur","lat":20.05564,"lng":-74.8075}]