[{"id":102806,"name":"Abū ‘Arīsh","lat":16.96887,"lng":42.83251},{"id":148745,"name":"Abu Radif","lat":16.6186,"lng":43.1311},{"id":102807,"name":"Ad Darb","lat":17.72285,"lng":42.25261},{"id":148746,"name":"Ad Dur`iyah","lat":16.5842,"lng":42.8431},{"id":148747,"name":"Adh Dhagharir","lat":16.6778,"lng":42.9592},{"id":148775,"name":"Al `Ulayin","lat":17.15,"lng":43.1708},{"id":148776,"name":"Al `Usaylah","lat":16.9203,"lng":42.7353},{"id":148748,"name":"Al Badawi","lat":16.6333,"lng":42.865},{"id":148749,"name":"Al Hadrur","lat":16.5436,"lng":42.8672},{"id":148750,"name":"Al Hanashah","lat":16.5581,"lng":42.7653},{"id":148751,"name":"Al Harani","lat":16.775,"lng":42.9097},{"id":148752,"name":"Al Hasamah","lat":16.68333333,"lng":42.92694444},{"id":148753,"name":"Al Hijfar","lat":16.5444,"lng":42.8472},{"id":148754,"name":"Al Jadi","lat":16.645,"lng":42.9947},{"id":102822,"name":"Al Jarādīyah","lat":16.57946,"lng":42.9124},{"id":148755,"name":"Al Jawah","lat":16.9567,"lng":43.0297},{"id":148756,"name":"Al Jirbah","lat":16.9264,"lng":42.8861},{"id":148757,"name":"Al Karbus","lat":16.8733,"lng":42.6317},{"id":148758,"name":"Al Kawahilah","lat":16.9614,"lng":42.6725},{"id":148759,"name":"Al Khadra' Jizan","lat":16.58583333,"lng":42.96333333},{"id":148760,"name":"Al Kharabah Jizan","lat":16.7558,"lng":42.9547},{"id":148761,"name":"Al Kharadilah","lat":16.9272,"lng":42.6264},{"id":148762,"name":"Al Khashabiyah","lat":16.9403,"lng":42.6431},{"id":148763,"name":"Al Khubah","lat":16.7886,"lng":43.2219},{"id":148764,"name":"Al Kirs","lat":16.5772,"lng":42.9475},{"id":148765,"name":"Al Luqiyah","lat":16.6606,"lng":43.04},{"id":148766,"name":"Al Ma`ayin","lat":16.6108,"lng":43.1472},{"id":148767,"name":"Al Madaya","lat":16.7697,"lng":42.7311},{"id":148768,"name":"Al Mali","lat":16.7953,"lng":42.9536},{"id":148769,"name":"Al Mayasam","lat":16.9478,"lng":42.7211},{"id":148770,"name":"Al Qa'im","lat":16.71944444,"lng":42.97666667},{"id":148771,"name":"Al Quful","lat":16.6733,"lng":43.0789},{"id":148772,"name":"Al Qurayb","lat":16.975,"lng":42.7253},{"id":148773,"name":"Al Quwah","lat":16.7994,"lng":43.225},{"id":148774,"name":"Al Wasili","lat":16.9469,"lng":42.6903},{"id":148777,"name":"An Najamiyah","lat":16.5647,"lng":42.9439},{"id":148778,"name":"Ar Rukubah","lat":16.6222,"lng":42.9675},{"id":148779,"name":"Ash Shuqayq","lat":17.70305556,"lng":42.02944444},{"id":148780,"name":"Bakhshat Yamani","lat":16.8986,"lng":42.5989},{"id":102854,"name":"Farasān","lat":16.70222,"lng":42.11833},{"id":148781,"name":"Ghawiyah","lat":16.565,"lng":43.1108},{"id":148782,"name":"Hamayyah","lat":16.9894,"lng":43.1603},{"id":148783,"name":"Hamdah","lat":16.7619,"lng":42.9222},{"id":102859,"name":"Jizan","lat":16.88917,"lng":42.55111},{"id":148784,"name":"Juha Saudi Arabia","lat":16.6694,"lng":42.8922},{"id":148785,"name":"Ka`lul","lat":16.8975,"lng":42.8467},{"id":148786,"name":"Khabath Sa`id","lat":16.9978,"lng":42.7322},{"id":148787,"name":"Khalfah","lat":16.5547,"lng":43.0894},{"id":148788,"name":"Khatib Saudi Arabia","lat":16.8961,"lng":41.8575},{"id":148789,"name":"Khumsiyah","lat":16.7714,"lng":42.8019},{"id":148790,"name":"Khushaym","lat":16.88,"lng":43.1372},{"id":148791,"name":"Mahatah","lat":16.8333,"lng":43.1667},{"id":148792,"name":"Malgocta","lat":16.99777778,"lng":42.67388889},{"id":102866,"name":"Mislīyah","lat":17.45988,"lng":42.5572},{"id":102867,"name":"Mizhirah","lat":16.82611,"lng":42.73333},{"id":148793,"name":"Mukambal","lat":16.5936,"lng":43.0328},{"id":148794,"name":"Mundaraq","lat":16.7542,"lng":43.1489},{"id":148795,"name":"Muwassam","lat":16.4167,"lng":42.8258},{"id":148796,"name":"Qitabir","lat":17.3333,"lng":43.25},{"id":148797,"name":"Quwayda'","lat":16.73333333,"lng":42.89027778},{"id":148798,"name":"Rahwan","lat":16.8333,"lng":43.2167},{"id":148799,"name":"Rawkhah","lat":16.9478,"lng":42.7933},{"id":102894,"name":"Şabyā","lat":17.1495,"lng":42.62537},{"id":148800,"name":"Sadiliyah","lat":16.9264,"lng":42.83},{"id":148801,"name":"Salamah","lat":16.9753,"lng":42.7564},{"id":102897,"name":"Şāmitah","lat":16.59601,"lng":42.94435}]