[{"id":157030,"name":"Badr Al Janub","lat":18.02056,"lng":42.94972},{"id":157027,"name":"Habona","lat":17.36667,"lng":45.21667},{"id":157031,"name":"Khubash","lat":17.58194,"lng":44.27389},{"id":102869,"name":"Najrān","lat":17.49326,"lng":44.12766},{"id":157026,"name":"Sharurah","lat":17.47048,"lng":47.11101},{"id":157028,"name":"Thar","lat":17.42083,"lng":44.83111},{"id":157029,"name":"Yadamah","lat":17.36528,"lng":44.32639}]