[{"id":21800,"name":"Abreus","lat":22.27797,"lng":-80.56931},{"id":21801,"name":"Aguada de Pasajeros","lat":22.3852,"lng":-80.84792},{"id":21834,"name":"Cienfuegos","lat":22.14957,"lng":-80.44662},{"id":21843,"name":"Cruces","lat":22.34203,"lng":-80.27021},{"id":21845,"name":"Cumanayagua","lat":22.15247,"lng":-80.20354},{"id":21883,"name":"Lajas","lat":22.41479,"lng":-80.2931},{"id":21903,"name":"Municipio de Abreus","lat":22.19229,"lng":-80.71465},{"id":21910,"name":"Municipio de Cienfuegos","lat":22.15,"lng":-80.45},{"id":21940,"name":"Palmira","lat":22.24126,"lng":-80.3911},{"id":21953,"name":"Rodas","lat":22.34184,"lng":-80.55596}]