[{"id":20531,"name":"Apía","lat":5.10658,"lng":-75.94244},{"id":20563,"name":"Balboa","lat":4.92284,"lng":-75.9403},{"id":20585,"name":"Belén de Umbría","lat":5.20087,"lng":-75.86865},{"id":20782,"name":"Dosquebradas","lat":4.83916,"lng":-75.66727},{"id":20926,"name":"Guática","lat":5.31569,"lng":-75.79826},{"id":20975,"name":"La Celia","lat":5.00332,"lng":-76.00355},{"id":21016,"name":"La Virginia","lat":4.89972,"lng":-75.8825},{"id":21070,"name":"Marsella","lat":4.95238,"lng":-75.75265},{"id":21087,"name":"Mistrató","lat":5.29622,"lng":-75.8839},{"id":21195,"name":"Pereira","lat":4.76896,"lng":-75.72222},{"id":21226,"name":"Pueblo Rico","lat":5.29453,"lng":-76.06702},{"id":21274,"name":"Quinchía","lat":5.33957,"lng":-75.73018},{"id":21424,"name":"Santa Rosa de Cabal","lat":4.86806,"lng":-75.62139},{"id":21442,"name":"Santuario","lat":5.05321,"lng":-75.9906}]