[{"id":76788,"name":"Babura","lat":12.77256,"lng":9.01525},{"id":76806,"name":"Birnin Kudu","lat":11.45207,"lng":9.47856},{"id":76807,"name":"Birniwa","lat":12.7907,"lng":10.23614},{"id":76848,"name":"Dutse","lat":11.75618,"lng":9.33896},{"id":76872,"name":"Gagarawa","lat":12.40848,"lng":9.52881},{"id":76892,"name":"Gumel","lat":12.6269,"lng":9.38807},{"id":76902,"name":"Hadejia","lat":12.45347,"lng":10.04115},{"id":76969,"name":"Kafin Hausa","lat":12.23933,"lng":9.91105},{"id":76981,"name":"Kazaure","lat":12.64846,"lng":8.41178},{"id":76985,"name":"Kiyawa","lat":11.78442,"lng":9.6069},{"id":77022,"name":"Mallammaduri","lat":12.56427,"lng":9.95727},{"id":77091,"name":"Ringim","lat":12.15143,"lng":9.16216},{"id":77097,"name":"Samamiya","lat":11.34873,"lng":9.63989}]