[{"id":20506,"name":"Almaguer","lat":1.91472,"lng":-76.85482},{"id":20545,"name":"Argelia","lat":2.31728,"lng":-77.257},{"id":20562,"name":"Balboa","lat":2.08436,"lng":-77.20781},{"id":20599,"name":"Bolívar","lat":1.8467,"lng":-76.98292},{"id":20610,"name":"Buenos Aires","lat":3.04825,"lng":-76.63066},{"id":20625,"name":"Cajibío","lat":2.62271,"lng":-76.57039},{"id":20633,"name":"Caldono","lat":2.79739,"lng":-76.48316},{"id":20637,"name":"Caloto","lat":3.03586,"lng":-76.40788},{"id":20737,"name":"Corinto","lat":3.13598,"lng":-76.20646},{"id":20831,"name":"El Tambo","lat":2.45199,"lng":-76.81029},{"id":20848,"name":"Florencia","lat":1.68318,"lng":-77.07331},{"id":149241,"name":"Guachené","lat":3.13361111,"lng":-76.39255555},{"id":20909,"name":"Guapi","lat":2.5521,"lng":-77.87865},{"id":20948,"name":"Inzá","lat":2.55452,"lng":-76.06722},{"id":20957,"name":"Jambaló","lat":2.85065,"lng":-76.32506},{"id":21003,"name":"La Sierra","lat":2.19665,"lng":-76.7859},{"id":21011,"name":"La Vega","lat":2.06201,"lng":-76.76808},{"id":21041,"name":"López de Micay","lat":3.0,"lng":-77.25},{"id":21080,"name":"Mercaderes","lat":1.80175,"lng":-77.17032},{"id":21085,"name":"Miranda","lat":3.23773,"lng":-76.22093},{"id":21103,"name":"Morales","lat":2.75446,"lng":-76.62791},{"id":21161,"name":"Padilla","lat":3.22038,"lng":-76.31385},{"id":21163,"name":"Páez","lat":2.64644,"lng":-75.97269},{"id":21185,"name":"Patía","lat":2.14018,"lng":-77.01744},{"id":149245,"name":"Piamonte","lat":1.11583333,"lng":-76.32611111},{"id":21202,"name":"Piendamo","lat":2.63918,"lng":-76.53055},{"id":21219,"name":"Popayán","lat":2.43823,"lng":-76.61316},{"id":21257,"name":"Puerto Tejada","lat":3.23393,"lng":-76.41935},{"id":21263,"name":"Puracé","lat":2.33851,"lng":-76.38759},{"id":21301,"name":"Rosas","lat":2.26093,"lng":-76.73986},{"id":21404,"name":"San Sebastián","lat":1.91667,"lng":-76.66667},{"id":149250,"name":"Santa Rosa","lat":1.70055666,"lng":-76.57277888},{"id":21434,"name":"Santander de Quilichao","lat":3.00945,"lng":-76.48494},{"id":21457,"name":"Silvia","lat":2.61557,"lng":-76.38261},{"id":21482,"name":"Sotará","lat":2.25,"lng":-76.58333},{"id":21499,"name":"Suárez","lat":2.95395,"lng":-76.69644},{"id":21489,"name":"Sucre","lat":2.06182,"lng":-76.91438},{"id":149257,"name":"Timbío","lat":2.35277888,"lng":-76.68194444},{"id":21528,"name":"Timbiquí","lat":2.7717,"lng":-77.66536},{"id":21542,"name":"Toribio","lat":3.0,"lng":-76.16667},{"id":21546,"name":"Totoró","lat":2.50518,"lng":-76.39254},{"id":21597,"name":"Villa Rica","lat":2.5142,"lng":-76.84939}]