[{"id":20485,"name":"Abejorral","lat":5.78928,"lng":-75.42725},{"id":20487,"name":"Abriaquí","lat":6.63148,"lng":-76.06444},{"id":20504,"name":"Alejandría","lat":6.36667,"lng":-75.08333},{"id":20512,"name":"Amagá","lat":6.04001,"lng":-75.70315},{"id":20513,"name":"Amalfi","lat":6.91016,"lng":-75.07764},{"id":20520,"name":"Andes","lat":5.66974,"lng":-75.89905},{"id":20521,"name":"Angelópolis","lat":6.12228,"lng":-75.71432},{"id":20522,"name":"Angostura","lat":6.8712,"lng":-75.35947},{"id":20747,"name":"Anorí","lat":7.07361111,"lng":-75.14694444},{"id":20527,"name":"Anza","lat":6.33333,"lng":-75.91667},{"id":20529,"name":"Apartadó","lat":7.88299,"lng":-76.62587},{"id":20541,"name":"Arboletes","lat":8.85051,"lng":-76.42694},{"id":20544,"name":"Argelia","lat":5.73127,"lng":-75.14257},{"id":20551,"name":"Armenia","lat":6.17554,"lng":-75.8123},{"id":20566,"name":"Barbosa","lat":6.43809,"lng":-75.33136},{"id":20579,"name":"Bello","lat":6.3616,"lng":-75.58728},{"id":20580,"name":"Belmira","lat":6.60508,"lng":-75.66619},{"id":20588,"name":"Betania","lat":5.73571,"lng":-75.98964},{"id":20589,"name":"Betulia","lat":6.11284,"lng":-75.98378},{"id":20602,"name":"Briceño","lat":7.05001,"lng":-75.50903},{"id":20613,"name":"Buriticá","lat":6.80549,"lng":-75.92093},{"id":20763,"name":"Cáceres","lat":7.68252,"lng":-75.22481},{"id":20621,"name":"Caicedo","lat":6.42805,"lng":-75.99715},{"id":20631,"name":"Caldas","lat":6.09106,"lng":-75.63569},{"id":20638,"name":"Campamento","lat":7.0391,"lng":-75.28938},{"id":20667,"name":"Cañasgordas","lat":6.80951,"lng":-76.03954},{"id":20649,"name":"Caracolí","lat":6.4092,"lng":-74.75715},{"id":20650,"name":"Caramanta","lat":5.54144,"lng":-75.66961},{"id":20652,"name":"Carepa","lat":7.75849,"lng":-76.65255},{"id":20658,"name":"Carolina","lat":6.74807,"lng":-75.32131},{"id":20666,"name":"Caucasia","lat":7.98654,"lng":-75.19349},{"id":20683,"name":"Chigorodó","lat":7.66638,"lng":-76.68106},{"id":20710,"name":"Cisneros","lat":6.54507,"lng":-75.09415},{"id":20711,"name":"Ciudad Bolívar","lat":5.85389,"lng":-76.02528},{"id":20716,"name":"Cocorná","lat":6.00579,"lng":-75.16984},{"id":20724,"name":"Concepción","lat":6.39408,"lng":-75.2583},{"id":20727,"name":"Concordia","lat":6.04639,"lng":-75.90705},{"id":20735,"name":"Copacabana","lat":6.3623,"lng":-75.49922},{"id":20773,"name":"Dabeiba","lat":7.03367,"lng":-76.34161},{"id":20781,"name":"Donmatías","lat":6.48569,"lng":-75.39496},{"id":20785,"name":"Ebéjico","lat":6.32598,"lng":-75.76835},{"id":20786,"name":"El Bagre","lat":7.60347,"lng":-74.80951},{"id":20656,"name":"El Carmen de Viboral","lat":6.08236,"lng":-75.33509},{"id":21441,"name":"El Santuario","lat":6.13833,"lng":-75.26417},{"id":20838,"name":"Entrerrios","lat":6.58333,"lng":-75.58333},{"id":20840,"name":"Envigado","lat":6.17591,"lng":-75.59174},{"id":20859,"name":"Fredonia","lat":5.89239,"lng":-75.68546},{"id":20861,"name":"Frontino","lat":6.77133,"lng":-76.13324},{"id":20885,"name":"Giraldo","lat":6.66667,"lng":-75.95346},{"id":20888,"name":"Girardota","lat":6.36789,"lng":-75.46231},{"id":20931,"name":"Gómez Plata","lat":6.68178,"lng":-75.21907},{"id":20893,"name":"Granada","lat":6.14353,"lng":-75.18532},{"id":20901,"name":"Guadalupe","lat":6.81449,"lng":-75.24063},{"id":20913,"name":"Guarne","lat":6.28345,"lng":-75.44363},{"id":20915,"name":"Guatapé","lat":6.25548,"lng":-75.16432},{"id":20939,"name":"Heliconia","lat":6.20831,"lng":-75.73565},{"id":20942,"name":"Hispania","lat":5.79925,"lng":-75.90718},{"id":20953,"name":"Itagui","lat":6.17874,"lng":-75.63117},{"id":20955,"name":"Ituango","lat":7.17117,"lng":-75.76404},{"id":20959,"name":"Jardín","lat":5.59038,"lng":-75.81846},{"id":20961,"name":"Jericó","lat":5.79211,"lng":-75.78601},{"id":20974,"name":"La Ceja","lat":6.0,"lng":-75.43311},{"id":20983,"name":"La Estrella","lat":6.14239,"lng":-75.65257},{"id":21000,"name":"La Pintada","lat":5.74867,"lng":-75.60626},{"id":21009,"name":"La Unión","lat":5.94642,"lng":-75.35917},{"id":21028,"name":"Liborina","lat":6.6779,"lng":-75.81218},{"id":21044,"name":"Maceo","lat":6.55196,"lng":-74.78741},{"id":21066,"name":"Marinilla","lat":6.19609,"lng":-75.30313},{"id":21074,"name":"Medellín","lat":6.25184,"lng":-75.56359},{"id":21097,"name":"Montebello","lat":5.93703,"lng":-75.52741},{"id":21120,"name":"Murindó","lat":6.84698,"lng":-76.71544},{"id":21121,"name":"Mutatá","lat":7.24407,"lng":-76.43564},{"id":21126,"name":"Nariño","lat":5.60893,"lng":-75.17656},{"id":21129,"name":"Nechí","lat":8.09419,"lng":-74.77573},{"id":21130,"name":"Necoclí","lat":8.42627,"lng":-76.78926},{"id":21149,"name":"Olaya","lat":6.62773,"lng":-75.8127},{"id":21197,"name":"Peñol","lat":6.23434,"lng":-75.22573},{"id":21194,"name":"Peque","lat":7.02123,"lng":-75.90926},{"id":21227,"name":"Pueblorrico","lat":5.8,"lng":-75.85},{"id":21234,"name":"Puerto Berrío","lat":6.50749,"lng":-74.52271},{"id":21248,"name":"Puerto Nare","lat":6.19167,"lng":-74.5867},{"id":21258,"name":"Puerto Triunfo","lat":5.87259,"lng":-74.6405},{"id":21281,"name":"Remedios","lat":7.02835,"lng":-74.69379},{"id":21286,"name":"Retiro","lat":6.05906,"lng":-75.51488},{"id":21293,"name":"Rionegro","lat":6.16667,"lng":-75.41667},{"id":21311,"name":"Sabanalarga","lat":6.84893,"lng":-75.81711},{"id":21314,"name":"Sabaneta","lat":6.15153,"lng":-75.61657},{"id":21323,"name":"Salgar","lat":5.96711,"lng":-75.98747},{"id":21330,"name":"San Andrés de Cuerquía","lat":6.90333,"lng":-75.6825},{"id":21345,"name":"San Carlos","lat":7.79177,"lng":-74.77316},{"id":21357,"name":"San Francisco","lat":6.11667,"lng":-75.98333},{"id":21362,"name":"San Jerónimo","lat":6.44139,"lng":-75.70783},{"id":21366,"name":"San José de la Montaña","lat":6.82205,"lng":-75.69757},{"id":21376,"name":"San Juan de Urabá","lat":8.75924,"lng":-76.52969},{"id":149253,"name":"San Luis","lat":6.04222222,"lng":-74.99333333},{"id":21117,"name":"San Pedro de los Milagros","lat":6.45944444,"lng":-75.55777888},{"id":21399,"name":"San Pedro de Uraba","lat":8.42291,"lng":-76.31747},{"id":21402,"name":"San Rafael","lat":6.31234,"lng":-75.02426},{"id":21403,"name":"San Roque","lat":6.48511,"lng":-75.0196},{"id":21407,"name":"San Vicente Ferrer","lat":6.32237,"lng":-75.3302},{"id":21414,"name":"Santa Bárbara","lat":5.88937,"lng":-75.58255},{"id":21417,"name":"Santa Fe de Antioquia","lat":6.55687,"lng":-75.82806},{"id":21425,"name":"Santa Rosa de Osos","lat":6.64738,"lng":-75.46031},{"id":21439,"name":"Santo Domingo","lat":6.47282,"lng":-75.16547},{"id":21449,"name":"Segovia","lat":7.28132,"lng":-74.64273},{"id":21474,"name":"Sonson","lat":5.75,"lng":-75.0},{"id":21476,"name":"Sopetrán","lat":6.52271,"lng":-75.74608},{"id":21562,"name":"Támesis","lat":5.66462,"lng":-75.71339},{"id":21513,"name":"Tarazá","lat":7.58358,"lng":-75.40068},{"id":21514,"name":"Tarso","lat":5.86467,"lng":-75.82192},{"id":21532,"name":"Titiribí","lat":6.06276,"lng":-75.7937},{"id":21537,"name":"Toledo","lat":7.01306,"lng":-75.69528},{"id":21557,"name":"Turbo","lat":8.09263,"lng":-76.72822},{"id":21572,"name":"Uramita","lat":6.89944,"lng":-76.17417},{"id":21574,"name":"Urrao","lat":6.31696,"lng":-76.1342},{"id":21577,"name":"Valdivia","lat":7.29382,"lng":-75.3919},{"id":21584,"name":"Valparaíso","lat":5.615,"lng":-75.62422},{"id":21585,"name":"Vegachí","lat":6.76141,"lng":-74.79473},{"id":21588,"name":"Venecia","lat":5.95417,"lng":-75.79904},{"id":21595,"name":"Vigía del Fuerte","lat":6.58933,"lng":-76.89599},{"id":21621,"name":"Yalí","lat":6.70257,"lng":-74.79018},{"id":21622,"name":"Yarumal","lat":6.98532,"lng":-75.45402},{"id":21624,"name":"Yolombó","lat":6.66569,"lng":-74.9912},{"id":21625,"name":"Yondó","lat":6.90738,"lng":-74.17686},{"id":21632,"name":"Zaragoza","lat":7.48971,"lng":-74.86919}]