[{"id":20503,"name":"Aldana","lat":0.88283,"lng":-77.70103},{"id":20517,"name":"Ancuya","lat":1.2633,"lng":-77.51376},{"id":20539,"name":"Arboleda","lat":1.4983,"lng":-77.13613},{"id":20565,"name":"Barbacoas","lat":1.67154,"lng":-78.13978},{"id":20582,"name":"Belén","lat":1.59477,"lng":-77.05408},{"id":20611,"name":"Buesaco","lat":1.38364,"lng":-77.15622},{"id":20674,"name":"Chachagüí","lat":1.35943,"lng":-77.28367},{"id":20722,"name":"Colón","lat":1.6285,"lng":-77.02927},{"id":20730,"name":"Consaca","lat":1.20841,"lng":-77.46323},{"id":20732,"name":"Contadero","lat":0.93072,"lng":-77.53333},{"id":20769,"name":"Córdoba","lat":0.85362,"lng":-77.51817},{"id":20748,"name":"Cuaspud","lat":0.8757,"lng":-77.7364},{"id":20756,"name":"Cumbal","lat":0.90875,"lng":-77.79145},{"id":20757,"name":"Cumbitara","lat":1.64786,"lng":-77.57819},{"id":20801,"name":"El Charco","lat":2.47926,"lng":-78.10972},{"id":20816,"name":"El Peñol","lat":1.45365,"lng":-77.44017},{"id":20827,"name":"El Rosario","lat":1.84593,"lng":-77.4062},{"id":20829,"name":"El Tablón de Gómez","lat":1.42717,"lng":-77.09693},{"id":20832,"name":"El Tambo","lat":1.43049,"lng":-77.38326},{"id":20858,"name":"Francisco Pizarro","lat":2.0406,"lng":-78.65877},{"id":20865,"name":"Funes","lat":1.00075,"lng":-77.44918},{"id":20899,"name":"Guachucal","lat":0.96093,"lng":-77.73161},{"id":20904,"name":"Guaitarilla","lat":1.13103,"lng":-77.54815},{"id":20905,"name":"Gualmatán","lat":0.91992,"lng":-77.56738},{"id":20946,"name":"Iles","lat":0.9704,"lng":-77.52146},{"id":20947,"name":"Imués","lat":1.05516,"lng":-77.49669},{"id":20950,"name":"Ipiales","lat":0.82501,"lng":-77.63966},{"id":20978,"name":"La Cruz","lat":1.60221,"lng":-76.9713},{"id":20984,"name":"La Florida","lat":1.35693,"lng":-77.41271},{"id":20989,"name":"La Llanada","lat":1.4731,"lng":-77.58024},{"id":21005,"name":"La Tola","lat":2.39949,"lng":-78.18923},{"id":21008,"name":"La Unión","lat":1.6045,"lng":-77.13152},{"id":21024,"name":"Leiva","lat":1.93497,"lng":-77.30634},{"id":21029,"name":"Linares","lat":1.35078,"lng":-77.52339},{"id":21032,"name":"Los Andes","lat":1.49474,"lng":-77.52136},{"id":21189,"name":"Magüí Payán","lat":1.76645,"lng":-78.18326},{"id":21054,"name":"Mallama","lat":1.14109,"lng":-77.86479},{"id":21108,"name":"Mosquera","lat":2.49139,"lng":-78.44307},{"id":21125,"name":"Nariño","lat":1.28995,"lng":-77.35721},{"id":21150,"name":"Olaya Herrera","lat":1.24803,"lng":-77.49085},{"id":21155,"name":"Ospina","lat":1.02962,"lng":-77.55252},{"id":21184,"name":"Pasto","lat":1.21467,"lng":-77.27865},{"id":21216,"name":"Policarpa","lat":1.62843,"lng":-77.45956},{"id":21221,"name":"Potosí","lat":0.80739,"lng":-77.57216},{"id":149246,"name":"Providencia","lat":1.23888999,"lng":-77.59755555},{"id":21230,"name":"Puerres","lat":1.19374,"lng":-77.26661},{"id":21262,"name":"Pupiales","lat":0.87136,"lng":-77.64027},{"id":21288,"name":"Ricaurte","lat":1.21474,"lng":-77.99801},{"id":21297,"name":"Roberto Payán","lat":1.91757,"lng":-78.38191},{"id":21325,"name":"Samaniego","lat":1.33849,"lng":-77.5957},{"id":21341,"name":"San Bernardo","lat":1.51525,"lng":-77.04679},{"id":21365,"name":"San José de Albán","lat":1.47388999,"lng":-77.08083333},{"id":21378,"name":"San Lorenzo","lat":1.55731,"lng":-77.24599},{"id":21392,"name":"San Pablo","lat":1.6725,"lng":-77.01389},{"id":21398,"name":"San Pedro de Cartago","lat":1.55151,"lng":-77.11948},{"id":21410,"name":"Sandoná","lat":1.28626,"lng":-77.46921},{"id":21413,"name":"Santa Bárbara","lat":2.30185,"lng":-77.91487},{"id":21431,"name":"Santacruz","lat":1.5209,"lng":-77.26206},{"id":21443,"name":"Sapuyes","lat":1.03728,"lng":-77.62094},{"id":21509,"name":"Taminango","lat":1.57032,"lng":-77.28043},{"id":21510,"name":"Tangua","lat":1.09189,"lng":-77.38645},{"id":21552,"name":"Tumaco","lat":1.79112,"lng":-78.79275},{"id":21564,"name":"Túquerres","lat":1.08647,"lng":-77.61858},{"id":21620,"name":"Yacuanquer","lat":1.11577,"lng":-77.40169}]