[{"id":20493,"name":"Aguada","lat":6.16019,"lng":-73.52747},{"id":20497,"name":"Albania","lat":5.75894,"lng":-73.91376},{"id":20535,"name":"Aratoca","lat":6.69432,"lng":-73.01868},{"id":20567,"name":"Barbosa","lat":5.93168,"lng":-73.61507},{"id":20568,"name":"Barichara","lat":6.63572,"lng":-73.22282},{"id":20570,"name":"Barrancabermeja","lat":7.06528,"lng":-73.85472},{"id":20590,"name":"Betulia","lat":6.90069,"lng":-73.28347},{"id":20597,"name":"Bolívar","lat":5.9893,"lng":-73.77058},{"id":20603,"name":"Bucaramanga","lat":7.12539,"lng":-73.1198},{"id":20616,"name":"Cabrera","lat":6.56443,"lng":-73.26768},{"id":20635,"name":"California","lat":7.3434,"lng":-72.95815},{"id":20647,"name":"Capitanejo","lat":6.52881,"lng":-72.69595},{"id":20651,"name":"Carcasí","lat":6.62711,"lng":-72.62625},{"id":20668,"name":"Cepitá","lat":6.75427,"lng":-72.9744},{"id":20671,"name":"Cerrito","lat":6.84315,"lng":-72.69404},{"id":20679,"name":"Charalá","lat":6.17513,"lng":-73.17587},{"id":20680,"name":"Charta","lat":7.28025,"lng":-72.96782},{"id":20684,"name":"Chima","lat":6.36289,"lng":-73.42534},{"id":20692,"name":"Chipatá","lat":6.06196,"lng":-73.63718},{"id":20708,"name":"Cimitarra","lat":6.31419,"lng":-73.94968},{"id":20725,"name":"Concepción","lat":6.76619,"lng":-72.694},{"id":20729,"name":"Confines","lat":6.34875,"lng":-73.2099},{"id":20733,"name":"Contratación","lat":6.29005,"lng":-73.47354},{"id":20738,"name":"Coromoro","lat":6.29461,"lng":-73.04022},{"id":20760,"name":"Curití","lat":6.60519,"lng":-73.06809},{"id":20797,"name":"El Carmen de Chucurí","lat":6.69736,"lng":-73.51117},{"id":20809,"name":"El Guacamayo","lat":6.24856,"lng":-73.52957},{"id":20819,"name":"El Peñón","lat":6.099,"lng":-73.92835},{"id":20822,"name":"El Playón","lat":7.47131,"lng":-73.2031},{"id":20836,"name":"Encino","lat":6.13735,"lng":-73.09847},{"id":20837,"name":"Enciso","lat":6.64651,"lng":-72.70709},{"id":20853,"name":"Florián","lat":5.80487,"lng":-73.97029},{"id":20852,"name":"Floridablanca","lat":7.06315,"lng":-73.08586},{"id":20878,"name":"Galán","lat":6.66271,"lng":-73.34233},{"id":20881,"name":"Gambita","lat":5.90273,"lng":-73.36788},{"id":20889,"name":"Girón","lat":7.0682,"lng":-73.16981},{"id":20895,"name":"Guaca","lat":6.87621,"lng":-72.85594},{"id":20902,"name":"Guadalupe","lat":6.2464,"lng":-73.41833},{"id":20910,"name":"Guapotá","lat":6.30697,"lng":-73.32848},{"id":20919,"name":"Guavatá","lat":5.95502,"lng":-73.70018},{"id":20932,"name":"Güepsa","lat":6.02505,"lng":-73.57313},{"id":20936,"name":"Hato","lat":6.56113,"lng":-73.35895},{"id":20964,"name":"Jesús María","lat":5.87715,"lng":-73.78097},{"id":20965,"name":"Jordán","lat":6.69857,"lng":-73.10966},{"id":20971,"name":"La Belleza","lat":5.86371,"lng":-73.96167},{"id":20996,"name":"La Paz","lat":6.17848,"lng":-73.58948},{"id":21019,"name":"Landázuri","lat":6.21826,"lng":-73.81121},{"id":21021,"name":"Lebrija","lat":7.11317,"lng":-73.2178},{"id":21036,"name":"Los Santos","lat":6.79734,"lng":-73.1249},{"id":21043,"name":"Macaravita","lat":6.50567,"lng":-72.59299},{"id":21124,"name":"Málaga","lat":6.69903,"lng":-72.73233},{"id":21073,"name":"Matanza","lat":7.35605,"lng":-73.05303},{"id":21090,"name":"Mogotes","lat":6.47559,"lng":-72.97046},{"id":21091,"name":"Molagavita","lat":6.67315,"lng":-72.80875},{"id":21145,"name":"Ocamonte","lat":6.34001,"lng":-73.12205},{"id":21147,"name":"Oiba","lat":6.26387,"lng":-73.29876},{"id":21151,"name":"Onzaga","lat":6.34434,"lng":-72.81726},{"id":21170,"name":"Palmar","lat":6.4974,"lng":-73.3074},{"id":21172,"name":"Palmas del Socorro","lat":6.40756,"lng":-73.28824},{"id":21269,"name":"Páramo","lat":6.4375,"lng":-73.18027},{"id":21199,"name":"Piedecuesta","lat":6.97443,"lng":-73.02284},{"id":21206,"name":"Pinchote","lat":6.53226,"lng":-73.17309},{"id":21229,"name":"Puente Nacional","lat":5.87739,"lng":-73.6781},{"id":21250,"name":"Puerto Parra","lat":6.65149,"lng":-74.05734},{"id":21259,"name":"Puerto Wilches","lat":7.34828,"lng":-73.89601},{"id":21292,"name":"Rionegro","lat":7.5,"lng":-73.33333},{"id":21308,"name":"Sabana de Torres","lat":7.3915,"lng":-73.49574},{"id":21332,"name":"San Andrés","lat":6.81148,"lng":-72.84929},{"id":21339,"name":"San Benito","lat":6.10206,"lng":-73.53753},{"id":21359,"name":"San Gil","lat":6.55952,"lng":-73.13637},{"id":21363,"name":"San Joaquín","lat":6.46554,"lng":-72.84852},{"id":21367,"name":"San José de Miranda","lat":6.63051,"lng":-72.73155},{"id":21388,"name":"San Miguel","lat":6.57583,"lng":-72.64591},{"id":21408,"name":"San Vicente de Chucurí","lat":6.881,"lng":-73.40977},{"id":21412,"name":"Santa Bárbara","lat":6.99022,"lng":-72.907},{"id":149249,"name":"Santa Helena Del Opón","lat":6.33916777,"lng":-73.61666777},{"id":21458,"name":"Simacota","lat":6.4429,"lng":-73.33688},{"id":21468,"name":"Socorro","lat":6.45647,"lng":-73.25502},{"id":21484,"name":"Suaita","lat":6.08221,"lng":-73.37008},{"id":21488,"name":"Sucre","lat":5.96995,"lng":-73.96629},{"id":21493,"name":"Suratá","lat":7.36633,"lng":-72.98361},{"id":21540,"name":"Tona","lat":7.15727,"lng":-72.96559},{"id":21579,"name":"Valle de San José","lat":6.41984,"lng":-73.12946},{"id":21618,"name":"Vélez","lat":6.23274,"lng":-73.72582},{"id":21592,"name":"Vetas","lat":7.30911,"lng":-72.87122},{"id":21606,"name":"Villanueva","lat":6.67169,"lng":-73.17421},{"id":21630,"name":"Zapatoca","lat":6.81532,"lng":-73.26768}]