[{"id":20507,"name":"Almeida","lat":4.97083,"lng":-73.37972},{"id":20532,"name":"Aquitania","lat":5.40341,"lng":-72.90192},{"id":20542,"name":"Arcabuco","lat":5.75463,"lng":-73.43669},{"id":20583,"name":"Belén","lat":5.98892,"lng":-72.91254},{"id":20587,"name":"Berbeo","lat":5.2276,"lng":-73.12527},{"id":20591,"name":"Betéitiva","lat":5.91102,"lng":-72.80926},{"id":20593,"name":"Boavita","lat":6.33031,"lng":-72.58505},{"id":20600,"name":"Boyacá","lat":5.45371,"lng":-73.3625},{"id":20601,"name":"Briceño","lat":5.68822,"lng":-73.91784},{"id":20609,"name":"Buenavista","lat":5.5,"lng":-73.96667},{"id":20614,"name":"Busbanzá","lat":5.83047,"lng":-72.88419},{"id":20632,"name":"Caldas","lat":5.5783,"lng":-73.88066},{"id":20641,"name":"Campohermoso","lat":4.97733,"lng":-73.16714},{"id":20670,"name":"Cerinza","lat":5.93649,"lng":-72.99127},{"id":20687,"name":"Chinavita","lat":5.17915,"lng":-73.37147},{"id":20693,"name":"Chiquinquirá","lat":5.61363,"lng":-73.83848},{"id":20706,"name":"Chíquiza","lat":5.60412,"lng":-73.48518},{"id":20695,"name":"Chiscas","lat":6.55642,"lng":-72.50378},{"id":20696,"name":"Chita","lat":6.07788,"lng":-72.46774},{"id":20698,"name":"Chitaraque","lat":5.96167,"lng":-73.45761},{"id":20699,"name":"Chivatá","lat":5.55823,"lng":-73.28198},{"id":20701,"name":"Chivor","lat":4.88556,"lng":-73.36889},{"id":20714,"name":"Ciénega","lat":5.40867,"lng":-73.29572},{"id":20723,"name":"Combita","lat":5.63333,"lng":-73.31667},{"id":20736,"name":"Coper","lat":5.47681,"lng":-74.04416},{"id":20740,"name":"Corrales","lat":5.82497,"lng":-72.84539},{"id":20743,"name":"Covarachía","lat":6.50563,"lng":-72.7331},{"id":20750,"name":"Cubará","lat":7.00578,"lng":-72.10568},{"id":20751,"name":"Cucaita","lat":5.54373,"lng":-73.45433},{"id":20762,"name":"Cuítiva","lat":5.58007,"lng":-72.96687},{"id":20783,"name":"Duitama","lat":5.8245,"lng":-73.03408},{"id":20802,"name":"El Cocuy","lat":6.32839,"lng":-72.43577},{"id":20808,"name":"El Espino","lat":6.50812,"lng":-72.48036},{"id":20846,"name":"Firavitoba","lat":5.66885,"lng":-72.99289},{"id":20850,"name":"Floresta","lat":5.85903,"lng":-72.92511},{"id":20873,"name":"Gachantivá","lat":5.74417,"lng":-73.54253},{"id":20882,"name":"Gameza","lat":5.80313,"lng":-72.73721},{"id":20883,"name":"Garagoa","lat":5.08236,"lng":-73.36334},{"id":20896,"name":"Guacamayas","lat":6.44599,"lng":-72.51676},{"id":20918,"name":"Guateque","lat":5.00619,"lng":-73.47274},{"id":20924,"name":"Guayatá","lat":4.96417,"lng":-73.4875},{"id":20933,"name":"Güicán","lat":6.46554,"lng":-72.41539},{"id":20956,"name":"Iza","lat":5.61203,"lng":-72.9793},{"id":20960,"name":"Jenesano","lat":5.38541,"lng":-73.36364},{"id":20962,"name":"Jericó","lat":6.14577,"lng":-72.58598},{"id":20973,"name":"La Capilla","lat":5.08076,"lng":-73.48076},{"id":21010,"name":"La Uvita","lat":6.24262,"lng":-72.56448},{"id":21015,"name":"La Victoria","lat":5.52278,"lng":-74.2328},{"id":21018,"name":"Labranzagrande","lat":5.56223,"lng":-72.57499},{"id":21042,"name":"Macanal","lat":4.9505,"lng":-73.32029},{"id":21067,"name":"Maripí","lat":5.55194,"lng":-74.00861},{"id":21084,"name":"Miraflores","lat":5.12216,"lng":-73.21212},{"id":21094,"name":"Mongua","lat":5.75084,"lng":-72.80339},{"id":21095,"name":"Monguí","lat":5.69752,"lng":-72.83359},{"id":21096,"name":"Moniquirá","lat":5.84315,"lng":-73.57775},{"id":21110,"name":"Motavita","lat":5.57655,"lng":-73.36696},{"id":21123,"name":"Muzo","lat":5.53528,"lng":-74.10778},{"id":21135,"name":"Nobsa","lat":5.76978,"lng":-72.94099},{"id":21140,"name":"Nuevo Colón","lat":5.35368,"lng":-73.4566},{"id":21148,"name":"Oicatá","lat":5.59548,"lng":-73.3082},{"id":21156,"name":"Otanche","lat":5.77534,"lng":-74.20315},{"id":21158,"name":"Pachavita","lat":5.13969,"lng":-73.39739},{"id":21268,"name":"Páez","lat":5.10112,"lng":-73.05123},{"id":21166,"name":"Paipa","lat":5.78013,"lng":-73.11708},{"id":21168,"name":"Pajarito","lat":5.34751,"lng":-72.72075},{"id":21180,"name":"Panqueba","lat":6.44533,"lng":-72.46268},{"id":21186,"name":"Pauna","lat":5.65861,"lng":-73.9825},{"id":21187,"name":"Paya","lat":5.62492,"lng":-72.42345},{"id":21190,"name":"Paz de Río","lat":6.00219,"lng":-72.78857},{"id":21196,"name":"Pesca","lat":5.50213,"lng":-73.08794},{"id":21209,"name":"Pisba","lat":5.72396,"lng":-72.48646},{"id":21236,"name":"Puerto Boyacá","lat":5.97214,"lng":-74.46349},{"id":21276,"name":"Quípama","lat":5.5194,"lng":-74.17765},{"id":21278,"name":"Ramiriquí","lat":5.4002,"lng":-73.33544},{"id":21303,"name":"Ráquira","lat":5.53793,"lng":-73.63201},{"id":21300,"name":"Rondón","lat":5.38173,"lng":-73.19683},{"id":21315,"name":"Saboyá","lat":5.69636,"lng":-73.76932},{"id":21502,"name":"Sáchica","lat":5.58453,"lng":-73.54184},{"id":21324,"name":"Samacá","lat":5.49273,"lng":-73.48537},{"id":21352,"name":"San Eduardo","lat":5.22396,"lng":-73.07696},{"id":21368,"name":"San José de Pare","lat":6.01746,"lng":-73.54703},{"id":21380,"name":"San Luis de Gaceno","lat":4.82052,"lng":-73.16851},{"id":21387,"name":"San Mateo","lat":6.37704,"lng":-72.57797},{"id":21390,"name":"San Miguel de Sema","lat":5.51847,"lng":-73.72238},{"id":21394,"name":"San Pablo de Borbur","lat":5.66638,"lng":-74.13723},{"id":21422,"name":"Santa María","lat":4.82282,"lng":-73.25373},{"id":21426,"name":"Santa Rosa de Viterbo","lat":5.87401,"lng":-72.98217},{"id":21430,"name":"Santa Sofía","lat":5.70213,"lng":-73.62976},{"id":21433,"name":"Santana","lat":6.04464,"lng":-73.51107},{"id":21447,"name":"Sativanorte","lat":6.13156,"lng":-72.70895},{"id":21448,"name":"Sativasur","lat":6.08959,"lng":-72.72432},{"id":21452,"name":"Siachoque","lat":5.51238,"lng":-73.24436},{"id":21465,"name":"Soatá","lat":6.29966,"lng":-72.72422},{"id":21466,"name":"Socha","lat":5.92926,"lng":-72.70072},{"id":21469,"name":"Socotá","lat":6.04028,"lng":-72.63509},{"id":21470,"name":"Sogamoso","lat":5.71434,"lng":-72.93391},{"id":21473,"name":"Somondoco","lat":4.98495,"lng":-73.43238},{"id":21479,"name":"Sora","lat":5.56514,"lng":-73.45017},{"id":21480,"name":"Soracá","lat":5.50055,"lng":-73.33299},{"id":21481,"name":"Sotaquirá","lat":5.76483,"lng":-73.24758},{"id":21495,"name":"Susacón","lat":6.22978,"lng":-72.6901},{"id":21496,"name":"Sutamarchán","lat":5.61538,"lng":-73.61701},{"id":21498,"name":"Sutatenza","lat":5.02311,"lng":-73.4523},{"id":21515,"name":"Tasco","lat":5.91044,"lng":-72.78001},{"id":21521,"name":"Tenza","lat":5.07664,"lng":-73.42077},{"id":21523,"name":"Tibaná","lat":5.31728,"lng":-73.39655},{"id":21524,"name":"Tibasosa","lat":5.74722,"lng":-73.01091},{"id":21529,"name":"Tinjacá","lat":5.57916,"lng":-73.64486},{"id":21530,"name":"Tipacoque","lat":6.42031,"lng":-72.69184},{"id":21533,"name":"Toca","lat":5.56393,"lng":-73.18398},{"id":21536,"name":"Togüí","lat":5.93462,"lng":-73.51297},{"id":21563,"name":"Tópaga","lat":5.75979,"lng":-72.82583},{"id":21545,"name":"Tota","lat":5.55833,"lng":-72.98757},{"id":21553,"name":"Tunja","lat":5.53528,"lng":-73.36778},{"id":21554,"name":"Tununguá","lat":5.72967,"lng":-73.94137},{"id":21558,"name":"Turmequé","lat":5.3236,"lng":-73.49067},{"id":21559,"name":"Tuta","lat":5.68966,"lng":-73.22779},{"id":21560,"name":"Tutazá","lat":6.03228,"lng":-72.85639},{"id":21568,"name":"Umbita","lat":5.18411,"lng":-73.48341},{"id":21589,"name":"Ventaquemada","lat":5.35987,"lng":-73.55032},{"id":21598,"name":"Villa de Leyva","lat":5.67061,"lng":-73.51554},{"id":21615,"name":"Viracachá","lat":5.43637,"lng":-73.29606},{"id":21634,"name":"Zetaquira","lat":5.25824,"lng":-73.18275}]