[{"id":20502,"name":"Alcalá","lat":4.67458,"lng":-75.77188},{"id":20519,"name":"Andalucía","lat":4.14035,"lng":-76.14739},{"id":20526,"name":"Ansermanuevo","lat":4.79722,"lng":-75.995},{"id":20546,"name":"Argelia","lat":4.72904,"lng":-76.11637},{"id":20598,"name":"Bolívar","lat":4.3771,"lng":-76.3487},{"id":20605,"name":"Buenaventura","lat":3.8801,"lng":-77.03116},{"id":20612,"name":"Bugalagrande","lat":4.21207,"lng":-76.15564},{"id":20622,"name":"Caicedonia","lat":4.3324,"lng":-75.82665},{"id":20634,"name":"Cali","lat":3.41033,"lng":-76.58097},{"id":20636,"name":"Calima","lat":3.92511,"lng":-76.62654},{"id":20644,"name":"Candelaria","lat":3.38367,"lng":-76.42466},{"id":20661,"name":"Cartago","lat":4.74639,"lng":-75.91167},{"id":20774,"name":"Dagua","lat":3.65685,"lng":-76.68859},{"id":20835,"name":"El Águila","lat":4.91946,"lng":-76.0568},{"id":20789,"name":"El Cairo","lat":4.74889,"lng":-76.24443},{"id":20800,"name":"El Cerrito","lat":3.64273,"lng":-76.2096},{"id":20806,"name":"El Dovio","lat":4.5079,"lng":-76.23619},{"id":20851,"name":"Florida","lat":3.3094,"lng":-76.18989},{"id":20884,"name":"Ginebra","lat":3.74296,"lng":-76.19412},{"id":20897,"name":"Guacarí","lat":3.76383,"lng":-76.33292},{"id":20900,"name":"Guadalajara de Buga","lat":3.90089,"lng":-76.29783},{"id":20958,"name":"Jamundí","lat":3.26074,"lng":-76.53499},{"id":20979,"name":"La Cumbre","lat":3.7225,"lng":-76.02083},{"id":21006,"name":"La Unión","lat":4.53282,"lng":-76.10318},{"id":21013,"name":"La Victoria","lat":4.52483,"lng":-76.03921},{"id":21144,"name":"Obando","lat":4.5959,"lng":-75.94879},{"id":21173,"name":"Palmira","lat":3.53969,"lng":-76.22607},{"id":21222,"name":"Pradera","lat":3.42793,"lng":-76.17159},{"id":21285,"name":"Restrepo","lat":3.82203,"lng":-76.52242},{"id":21290,"name":"Riofrío","lat":4.1571,"lng":-76.28852},{"id":21298,"name":"Roldanillo","lat":4.41256,"lng":-76.15457},{"id":21397,"name":"San Pedro","lat":3.99936,"lng":-76.26123},{"id":21451,"name":"Sevilla","lat":4.19345,"lng":-75.88829},{"id":21544,"name":"Toro","lat":4.61167,"lng":-76.08139},{"id":21549,"name":"Trujillo","lat":4.23696,"lng":-76.3473},{"id":21551,"name":"Tuluá","lat":4.08466,"lng":-76.19536},{"id":21567,"name":"Ulloa","lat":4.70745,"lng":-75.77781},{"id":21591,"name":"Versalles","lat":4.66335,"lng":-76.24649},{"id":21596,"name":"Vijes","lat":3.73283,"lng":-76.49363},{"id":21627,"name":"Yotoco","lat":3.86048,"lng":-76.38364},{"id":21628,"name":"Yumbo","lat":3.58234,"lng":-76.49146},{"id":21633,"name":"Zarzal","lat":4.39462,"lng":-76.0715}]