[{"id":31486,"name":"Bahía de Caráquez","lat":-0.59792,"lng":-80.42367},{"id":31491,"name":"Calceta","lat":-0.84582,"lng":-80.16389},{"id":31492,"name":"Cantón Portoviejo","lat":-1.05,"lng":-80.45},{"id":31497,"name":"Chone","lat":-0.69819,"lng":-80.09361},{"id":31514,"name":"Jipijapa","lat":-1.34872,"lng":-80.57875},{"id":31515,"name":"Junín","lat":-0.92777,"lng":-80.20583},{"id":31527,"name":"Manta","lat":-0.96212,"lng":-80.71271},{"id":31530,"name":"Montecristi","lat":-1.04576,"lng":-80.65889},{"id":31537,"name":"Paján","lat":-1.55238,"lng":-80.42958},{"id":31543,"name":"Pedernales","lat":0.07167,"lng":-80.0525},{"id":31550,"name":"Portoviejo","lat":-1.05458,"lng":-80.45445},{"id":31563,"name":"Rocafuerte","lat":-0.9236,"lng":-80.44946},{"id":31571,"name":"San Vicente","lat":-0.60435,"lng":-80.40267},{"id":31573,"name":"Santa Ana","lat":-1.20726,"lng":-80.37132},{"id":31579,"name":"Sucre","lat":-1.27974,"lng":-80.41885},{"id":31582,"name":"Tosagua","lat":-0.78679,"lng":-80.23473}]