[{"id":31480,"name":"Alfredo Baquerizo Moreno","lat":-1.91667,"lng":-79.51667},{"id":31488,"name":"Baláo","lat":-2.911,"lng":-79.81441},{"id":31487,"name":"Balzar","lat":-1.36501,"lng":-79.90494},{"id":31498,"name":"Colimes","lat":-1.54553,"lng":-80.01165},{"id":31499,"name":"Coronel Marcelino Maridueña","lat":-2.20924,"lng":-79.43248},{"id":31502,"name":"El Triunfo","lat":-1.93333,"lng":-79.96667},{"id":31504,"name":"Eloy Alfaro","lat":-2.17579,"lng":-79.85519},{"id":31511,"name":"Guayaquil","lat":-2.19616,"lng":-79.88621},{"id":31522,"name":"Lomas de Sargentillo","lat":-1.88333,"lng":-80.08333},{"id":31528,"name":"Milagro","lat":-2.13404,"lng":-79.59415},{"id":31532,"name":"Naranjal","lat":-2.67364,"lng":-79.6183},{"id":31533,"name":"Naranjito","lat":-2.16671,"lng":-79.4654},{"id":31539,"name":"Palestina","lat":-1.93709,"lng":-79.71396},{"id":31544,"name":"Pedro Carbo","lat":-1.81563,"lng":-80.23309},{"id":31548,"name":"Playas","lat":-2.63199,"lng":-80.38808},{"id":31566,"name":"Samborondón","lat":-1.96276,"lng":-79.72402},{"id":31575,"name":"Santa Lucía","lat":-2.18333,"lng":-80.0},{"id":31586,"name":"Velasco Ibarra","lat":-1.04376,"lng":-79.63837},{"id":31589,"name":"Yaguachi Nuevo","lat":-2.0968,"lng":-79.69485}]