[{"id":31517,"name":"La Maná","lat":-0.94094,"lng":-79.22506},{"id":31520,"name":"Latacunga","lat":-0.93521,"lng":-78.61554},{"id":31556,"name":"Pujilí","lat":-0.95759,"lng":-78.69636},{"id":31570,"name":"San Miguel de Salcedo","lat":-1.04547,"lng":-78.59063},{"id":31578,"name":"Saquisilí","lat":-0.8399,"lng":-78.667}]