[{"id":105081,"name":"‘Irbīn","lat":33.53719,"lng":36.36635},{"id":104947,"name":"Al Kiswah","lat":33.3581,"lng":36.2419},{"id":104954,"name":"Al Quţayfah","lat":33.73848,"lng":36.60071},{"id":104965,"name":"Al-Zabadani","lat":33.70819,"lng":36.11198},{"id":104968,"name":"An Nabk","lat":34.02403,"lng":36.72848},{"id":104980,"name":"At Tall","lat":33.61033,"lng":36.3107},{"id":104982,"name":"Az Zabadānī","lat":33.72488,"lng":36.1005},{"id":104995,"name":"Dārayyā","lat":33.45835,"lng":36.23256},{"id":104991,"name":"Dayr al ‘Aşāfīr","lat":33.46585,"lng":36.42044},{"id":104994,"name":"Douma","lat":33.57175,"lng":36.4027},{"id":105077,"name":"Ḩarastā","lat":33.55869,"lng":36.36515},{"id":105009,"name":"Jaramānā","lat":33.4862,"lng":36.34614},{"id":105011,"name":"Jayrūd","lat":33.80709,"lng":36.73861},{"id":105032,"name":"Ma‘lūlā","lat":33.84529,"lng":36.54514},{"id":105033,"name":"Medaya","lat":33.69032,"lng":36.10354},{"id":105041,"name":"Qārah","lat":34.15558,"lng":36.74284},{"id":105040,"name":"Qaţanā","lat":33.43757,"lng":36.07888},{"id":105070,"name":"Şaydnāyā","lat":33.69473,"lng":36.37146},{"id":105065,"name":"Yabrūd","lat":33.96921,"lng":36.65729}]