[{"id":76772,"name":"Anchau","lat":10.96245,"lng":8.39233},{"id":76819,"name":"Burumburum","lat":11.39106,"lng":8.72341},{"id":76849,"name":"Dutsen Wai","lat":10.85009,"lng":8.199},{"id":76905,"name":"Hunkuyi","lat":11.2668,"lng":7.64916},{"id":76965,"name":"Kachia","lat":9.87342,"lng":7.95407},{"id":76966,"name":"Kaduna","lat":10.52641,"lng":7.43879},{"id":76967,"name":"Kafanchan","lat":9.58126,"lng":8.2926},{"id":76970,"name":"Kagoro","lat":9.60776,"lng":8.39043},{"id":76972,"name":"Kajuru","lat":10.32281,"lng":7.68462},{"id":76989,"name":"Kujama","lat":10.45767,"lng":7.63808},{"id":77009,"name":"Lere","lat":10.38584,"lng":8.57286},{"id":77023,"name":"Mando","lat":10.71667,"lng":6.56667},{"id":77098,"name":"Saminaka","lat":10.41227,"lng":8.68748},{"id":77105,"name":"Soba","lat":10.98133,"lng":8.05749},{"id":77106,"name":"Sofo-Birnin-Gwari","lat":11.01537,"lng":6.78036},{"id":77151,"name":"Zaria","lat":11.11128,"lng":7.7227}]