[{"id":104940,"name":"Ad Darbāsīyah","lat":37.07279,"lng":40.65199},{"id":104957,"name":"Al Ḩasakah","lat":36.50237,"lng":40.74772},{"id":104950,"name":"Al Mālikīyah","lat":37.17701,"lng":42.14006},{"id":104955,"name":"Al Qāmishlī","lat":37.05215,"lng":41.23142},{"id":104960,"name":"Al-Malikiyah","lat":36.94113,"lng":41.90157},{"id":104967,"name":"Amude","lat":37.10417,"lng":40.93}]