[{"id":104964,"name":"Al-Thawrah","lat":35.79843,"lng":38.3455},{"id":104969,"name":"Ar Raqqah","lat":35.95283,"lng":39.00788},{"id":104971,"name":"Ar-Raqqah","lat":35.87204,"lng":39.04706},{"id":104981,"name":"Ath Thawrah","lat":35.83758,"lng":38.54828},{"id":105055,"name":"Tall Abyaḑ","lat":36.69648,"lng":38.95382},{"id":105062,"name":"Tell Abyad","lat":36.4828,"lng":39.2136}]