[{"id":15811,"name":"Astrashytski Haradok","lat":54.0651,"lng":27.695},{"id":15814,"name":"Atolina","lat":53.7817,"lng":27.4346},{"id":15815,"name":"Azyartso","lat":53.8397,"lng":27.3917},{"id":15819,"name":"Bal’shavik","lat":54.0036,"lng":27.5669},{"id":15824,"name":"Barysaw","lat":54.2279,"lng":28.505},{"id":15825,"name":"Barysawski Rayon","lat":54.33333,"lng":28.58333},{"id":15826,"name":"Blon’","lat":53.5269,"lng":28.1732},{"id":15827,"name":"Bobr","lat":54.342,"lng":29.2736},{"id":15828,"name":"Borovlyany","lat":54.0022,"lng":27.6754},{"id":15840,"name":"Byarezinski Rayon","lat":53.83333,"lng":29.0},{"id":15845,"name":"Byerazino","lat":53.8391,"lng":28.9879},{"id":15855,"name":"Chervyen’","lat":53.7059,"lng":28.4313},{"id":15856,"name":"Chervyen’ski Rayon","lat":53.75,"lng":28.5},{"id":15859,"name":"Chyrvonaya Slabada","lat":52.8522,"lng":27.1698},{"id":15860,"name":"Chyst’","lat":54.2698,"lng":27.1067},{"id":15871,"name":"Druzhny","lat":53.6238,"lng":27.8977},{"id":15875,"name":"Dukora","lat":53.6786,"lng":27.94},{"id":15878,"name":"Dzyarzhynsk","lat":53.6832,"lng":27.138},{"id":15879,"name":"Enyerhyetykaw","lat":53.5871,"lng":27.0535},{"id":15880,"name":"Fanipol","lat":53.74998,"lng":27.33338},{"id":15889,"name":"Haradzyeya","lat":53.3121,"lng":26.538},{"id":15890,"name":"Hatava","lat":53.7829,"lng":27.6407},{"id":15900,"name":"Horad Smalyavichy","lat":54.0249,"lng":28.0894},{"id":15901,"name":"Horad Zhodzina","lat":54.0985,"lng":28.3331},{"id":15904,"name":"Hotsk","lat":52.5215,"lng":27.1385},{"id":15907,"name":"Il’ya","lat":54.4167,"lng":27.2958},{"id":15912,"name":"Ivyanyets","lat":53.8864,"lng":26.7432},{"id":15916,"name":"Kalodzishchy","lat":53.944,"lng":27.7823},{"id":15921,"name":"Kapyl’","lat":53.1516,"lng":27.0913},{"id":15922,"name":"Kapyl’ski Rayon","lat":53.16667,"lng":27.08333},{"id":15931,"name":"Khatsyezhyna","lat":53.9094,"lng":27.3069},{"id":15933,"name":"Kholopenichi","lat":54.51746,"lng":28.95645},{"id":15940,"name":"Klyetsk","lat":53.0635,"lng":26.6321},{"id":15941,"name":"Klyetski Rayon","lat":53.0,"lng":26.66667},{"id":15945,"name":"Korolëv Stan","lat":53.9865,"lng":27.7982},{"id":15949,"name":"Krasnaye","lat":54.2438,"lng":27.0758},{"id":15954,"name":"Krupki","lat":54.3178,"lng":29.1374},{"id":15956,"name":"Kryvichy","lat":54.7132,"lng":27.2886},{"id":15958,"name":"Lahoysk","lat":54.2064,"lng":27.8512},{"id":15961,"name":"Loshnitsa","lat":54.2796,"lng":28.7649},{"id":15963,"name":"Luhavaya Slabada","lat":53.7823,"lng":27.8434},{"id":15966,"name":"Lyasny","lat":54.0072,"lng":27.6963},{"id":15972,"name":"Lyeskawka","lat":54.0024,"lng":27.7108},{"id":15976,"name":"Lyuban’","lat":52.7985,"lng":28.0048},{"id":15978,"name":"Machulishchy","lat":53.7788,"lng":27.5948},{"id":15981,"name":"Maladzyechna","lat":54.3167,"lng":26.854},{"id":15983,"name":"Mar’’ina Horka","lat":53.509,"lng":28.147},{"id":15987,"name":"Michanovichi","lat":53.73937,"lng":27.69276},{"id":15995,"name":"Myadzyel","lat":54.8789,"lng":26.9371},{"id":15996,"name":"Myadzyel’ski Rayon","lat":54.83333,"lng":27.0},{"id":16001,"name":"Narach","lat":54.9102,"lng":26.708},{"id":16003,"name":"Nasilava","lat":54.30441,"lng":26.78209},{"id":16008,"name":"Novosel’ye","lat":53.9162,"lng":27.2009},{"id":16009,"name":"Novy Svyerzhan’","lat":53.4542,"lng":26.7301},{"id":16011,"name":"Nyasvizh","lat":53.2189,"lng":26.6779},{"id":16012,"name":"Nyasvizhski Rayon","lat":53.25,"lng":26.66667},{"id":16022,"name":"Plyeshchanitsy","lat":54.4235,"lng":27.8301},{"id":16026,"name":"Prawdzinski","lat":53.5248,"lng":27.8303},{"id":16029,"name":"Pryvol’ny","lat":53.7969,"lng":27.7967},{"id":16030,"name":"Pukhavichy","lat":53.5297,"lng":28.2467},{"id":16031,"name":"Pukhavichy Raion","lat":53.5,"lng":28.0},{"id":16032,"name":"Pyatryshki","lat":54.0686,"lng":27.2179},{"id":16034,"name":"Radashkovichy","lat":54.1554,"lng":27.2412},{"id":16037,"name":"Rakaw","lat":53.9674,"lng":27.0562},{"id":16043,"name":"Rudzyensk","lat":53.5983,"lng":27.8621},{"id":16045,"name":"Salihorsk","lat":52.7876,"lng":27.5415},{"id":16046,"name":"Samakhvalavichy","lat":53.7396,"lng":27.5037},{"id":16048,"name":"Sarachy","lat":52.7867,"lng":28.0186},{"id":16051,"name":"Schomyslitsa","lat":53.8211,"lng":27.4522},{"id":16060,"name":"Slabada","lat":54.0087,"lng":27.8866},{"id":16063,"name":"Slutsk","lat":53.0274,"lng":27.5597},{"id":16064,"name":"Slutski Rayon","lat":53.0,"lng":27.66667},{"id":16065,"name":"Smalyavitski Rayon","lat":54.0,"lng":28.16667},{"id":16067,"name":"Smilavichy","lat":53.7496,"lng":28.0115},{"id":16068,"name":"Snow","lat":53.2201,"lng":26.401},{"id":16070,"name":"Stan’kava","lat":53.6292,"lng":27.229},{"id":16071,"name":"Staradarozhski Rayon","lat":53.0,"lng":28.16667},{"id":16072,"name":"Starobin","lat":52.7267,"lng":27.4606},{"id":16073,"name":"Staryya Darohi","lat":53.0402,"lng":28.267},{"id":16074,"name":"Stawbtsowski Rayon","lat":53.58333,"lng":26.66667},{"id":16077,"name":"Stowbtsy","lat":53.4785,"lng":26.7434},{"id":16078,"name":"Svir","lat":54.8517,"lng":26.395},{"id":16080,"name":"Svislach","lat":53.6404,"lng":27.9199},{"id":16083,"name":"Syenitsa","lat":53.8313,"lng":27.5343},{"id":16085,"name":"Syomkava","lat":54.0101,"lng":27.441},{"id":16088,"name":"Tsimkavichy","lat":53.0672,"lng":26.9902},{"id":16091,"name":"Turets-Bayary","lat":54.3785,"lng":26.6581},{"id":16092,"name":"Urechcha","lat":52.9479,"lng":27.893},{"id":16094,"name":"Usiazh","lat":54.07598,"lng":28.00698},{"id":16095,"name":"Uzda","lat":53.4627,"lng":27.2137},{"id":16096,"name":"Uzdzyenski Rayon","lat":53.41667,"lng":27.33333},{"id":16097,"name":"Valozhyn","lat":54.0892,"lng":26.5266},{"id":16101,"name":"Vilyeyka","lat":54.4914,"lng":26.9111},{"id":16102,"name":"Vilyeyski Rayon","lat":54.5,"lng":27.08333},{"id":16109,"name":"Vyaliki Trastsyanets","lat":53.851,"lng":27.7139},{"id":16117,"name":"Yubilyeyny","lat":53.8191,"lng":27.5215},{"id":16118,"name":"Zamostochye","lat":53.8198,"lng":27.8685},{"id":16119,"name":"Zaslawye","lat":54.0114,"lng":27.2695},{"id":16125,"name":"Zhdanovichy","lat":53.9432,"lng":27.425},{"id":16131,"name":"Zyembin","lat":54.3579,"lng":28.2207},{"id":16132,"name":"Октябрьский","lat":54.04059,"lng":28.19813}]