[{"id":76773,"name":"Anka","lat":12.11347,"lng":5.92681},{"id":76829,"name":"Dan Sadau","lat":11.29621,"lng":6.4952},{"id":76893,"name":"Gummi","lat":12.14484,"lng":5.11776},{"id":76894,"name":"Gusau","lat":12.17024,"lng":6.66412},{"id":76980,"name":"Kaura Namoda","lat":12.59371,"lng":6.58648},{"id":76998,"name":"Kwatarkwashi","lat":12.14082,"lng":6.82196},{"id":77025,"name":"Maru","lat":12.3336,"lng":6.40372},{"id":77034,"name":"Moriki","lat":12.87405,"lng":6.48754},{"id":77100,"name":"Sauri","lat":11.72655,"lng":6.78374},{"id":77115,"name":"Tsafe","lat":11.95775,"lng":6.92083}]