[{"id":38585,"name":"Abomsa","lat":9.98333,"lng":39.98333},{"id":38586,"name":"Addiet Canna","lat":11.26667,"lng":37.48333},{"id":38722,"name":"Ādīs Zemen","lat":12.11667,"lng":37.78333},{"id":38598,"name":"Bahir Dar","lat":11.59364,"lng":37.39077},{"id":38600,"name":"Batī","lat":11.19152,"lng":40.01675},{"id":38604,"name":"Bichena","lat":10.45,"lng":38.2},{"id":38608,"name":"Burē","lat":10.7,"lng":37.06667},{"id":38610,"name":"Dabat","lat":12.98417,"lng":37.765},{"id":38611,"name":"Debark’","lat":13.15611,"lng":37.89806},{"id":38612,"name":"Debre Birhan","lat":9.67954,"lng":39.53262},{"id":38613,"name":"Debre Mark’os","lat":10.35,"lng":37.73333},{"id":38614,"name":"Debre Sīna","lat":9.84752,"lng":39.76027},{"id":38615,"name":"Debre Tabor","lat":11.85,"lng":38.01667},{"id":38616,"name":"Debre Werk’","lat":10.66667,"lng":38.16667},{"id":38619,"name":"Dejen","lat":10.16667,"lng":38.13333},{"id":38621,"name":"Desē","lat":11.13333,"lng":39.63333},{"id":38631,"name":"Finote Selam","lat":10.7,"lng":37.26667},{"id":38642,"name":"Gondar","lat":12.6,"lng":37.46667},{"id":38664,"name":"Kemisē","lat":10.71668,"lng":39.86997},{"id":38667,"name":"Kombolcha","lat":11.08155,"lng":39.74339},{"id":38671,"name":"Lalībela","lat":12.03219,"lng":39.04756},{"id":38686,"name":"North Shewa Zone","lat":9.769,"lng":39.668},{"id":38688,"name":"North Wollo Zone","lat":11.92,"lng":39.1},{"id":38689,"name":"Robīt","lat":12.01667,"lng":39.63333},{"id":38701,"name":"South Gondar Zone","lat":11.8385,"lng":38.09954},{"id":38702,"name":"South Wollo Zone","lat":11.0,"lng":39.25},{"id":38708,"name":"Wag Hemra Zone","lat":12.765,"lng":38.843},{"id":38712,"name":"Were Īlu","lat":10.58964,"lng":39.43767},{"id":38713,"name":"Werota","lat":11.91667,"lng":37.7}]