[{"id":23596,"name":"Altenburg","lat":50.98763,"lng":12.43684},{"id":23600,"name":"Altenfeld","lat":50.56667,"lng":10.96667},{"id":23602,"name":"Altengottern","lat":51.16395,"lng":10.58093},{"id":23625,"name":"Altkirchen","lat":50.93333,"lng":12.35},{"id":23664,"name":"Anrode","lat":51.26667,"lng":10.33333},{"id":23673,"name":"Apfelstädt","lat":50.90157,"lng":10.88977},{"id":23674,"name":"Apolda","lat":51.02624,"lng":11.51638},{"id":23680,"name":"Arenshausen","lat":51.37613,"lng":9.9687},{"id":23688,"name":"Arnstadt","lat":50.84048,"lng":10.95198},{"id":23693,"name":"Artern","lat":51.36431,"lng":11.29167},{"id":23737,"name":"Auleben","lat":51.4264,"lng":10.92968},{"id":23739,"name":"Auma","lat":50.70044,"lng":11.89958},{"id":23767,"name":"Bad Berka","lat":50.89982,"lng":11.28245},{"id":23773,"name":"Bad Blankenburg","lat":50.68189,"lng":11.27369},{"id":23796,"name":"Bad Frankenhausen","lat":51.35609,"lng":11.09977},{"id":23815,"name":"Bad Klosterlausnitz","lat":50.91667,"lng":11.86667},{"id":23821,"name":"Bad Köstritz","lat":50.93032,"lng":12.01005},{"id":23824,"name":"Bad Langensalza","lat":51.10771,"lng":10.646},{"id":23828,"name":"Bad Liebenstein","lat":50.81569,"lng":10.35123},{"id":23832,"name":"Bad Lobenstein","lat":50.45223,"lng":11.6393},{"id":23858,"name":"Bad Salzungen","lat":50.81342,"lng":10.2361},{"id":23873,"name":"Bad Sulza","lat":51.08929,"lng":11.62474},{"id":23877,"name":"Bad Tennstedt","lat":51.15447,"lng":10.83873},{"id":23926,"name":"Barchfeld","lat":50.82872,"lng":11.17955},{"id":23990,"name":"Behringen","lat":50.77283,"lng":11.01403},{"id":24018,"name":"Benshausen","lat":50.65,"lng":10.6},{"id":24029,"name":"Berga","lat":50.75184,"lng":12.16445},{"id":24056,"name":"Berlingerode","lat":51.45775,"lng":10.2384},{"id":24057,"name":"Berlstedt","lat":51.06142,"lng":11.24288},{"id":24145,"name":"Bischofferode","lat":51.49656,"lng":10.44396},{"id":24168,"name":"Blankenhain","lat":50.85993,"lng":11.3439},{"id":24177,"name":"Bleicherode","lat":51.44026,"lng":10.57202},{"id":24272,"name":"Brahmenau","lat":50.92359,"lng":12.15886},{"id":24298,"name":"Brehme","lat":51.49421,"lng":10.35908},{"id":24305,"name":"Breitenbach","lat":50.68895,"lng":10.49148},{"id":24313,"name":"Breitenworbis","lat":51.41267,"lng":10.4282},{"id":24317,"name":"Breitungen","lat":50.76355,"lng":10.32724},{"id":24347,"name":"Brotterode","lat":50.82412,"lng":10.44446},{"id":24382,"name":"Bucha","lat":50.88333,"lng":11.51667},{"id":24399,"name":"Bufleben","lat":51.0,"lng":10.73333},{"id":24502,"name":"Bürgel","lat":50.94217,"lng":11.75635},{"id":24450,"name":"Buttelstedt","lat":51.0765,"lng":11.34353},{"id":24453,"name":"Buttlar","lat":50.7577,"lng":9.95277},{"id":24454,"name":"Buttstädt","lat":51.12227,"lng":11.41721},{"id":24509,"name":"Büttstedt","lat":51.25972,"lng":10.30636},{"id":24520,"name":"Camburg","lat":51.05524,"lng":11.70967},{"id":24542,"name":"Clingen","lat":51.23206,"lng":10.93281},{"id":24558,"name":"Crawinkel","lat":50.78333,"lng":10.78333},{"id":24561,"name":"Creuzburg","lat":51.05288,"lng":10.2475},{"id":24576,"name":"Dachwig","lat":51.0777,"lng":10.85479},{"id":24590,"name":"Dankmarshausen","lat":50.92527,"lng":10.01601},{"id":24637,"name":"Dermbach","lat":50.71383,"lng":10.11839},{"id":24657,"name":"Deuna","lat":51.3545,"lng":10.47439},{"id":24692,"name":"Dingelstädt","lat":51.31529,"lng":10.3174},{"id":24699,"name":"Dippach","lat":50.91959,"lng":10.04236},{"id":24797,"name":"Döllstädt","lat":51.08333,"lng":10.81667},{"id":24741,"name":"Dorndorf","lat":50.83472,"lng":10.08921},{"id":24820,"name":"Ebeleben","lat":51.28283,"lng":10.72999},{"id":24862,"name":"Effelder","lat":51.23948,"lng":10.24778},{"id":24924,"name":"Eisenach","lat":50.9807,"lng":10.31522},{"id":24926,"name":"Eisenberg","lat":50.9686,"lng":11.90207},{"id":24930,"name":"Eisfeld","lat":50.42648,"lng":10.90695},{"id":24944,"name":"Elgersburg","lat":50.70603,"lng":10.8531},{"id":24955,"name":"Ellrich","lat":51.58656,"lng":10.66326},{"id":24977,"name":"Elxleben","lat":51.05,"lng":10.95},{"id":25038,"name":"Erfurt","lat":50.9787,"lng":11.03283},{"id":25065,"name":"Ernstroda","lat":50.86484,"lng":10.62056},{"id":25141,"name":"Fambach","lat":50.73333,"lng":10.36667},{"id":25175,"name":"Finsterbergen","lat":50.83464,"lng":10.58916},{"id":25323,"name":"Föritz","lat":50.34174,"lng":11.2318},{"id":25215,"name":"Frankenheim","lat":50.54452,"lng":10.06828},{"id":25229,"name":"Frauenprießnitz","lat":51.01667,"lng":11.73333},{"id":25231,"name":"Frauenwald","lat":50.5843,"lng":10.85841},{"id":25243,"name":"Freienbessingen","lat":51.23333,"lng":10.76667},{"id":25284,"name":"Friedrichroda","lat":50.85754,"lng":10.56507},{"id":25296,"name":"Friemar","lat":50.97702,"lng":10.78851},{"id":25359,"name":"Gangloffsömmern","lat":51.1894,"lng":10.94332},{"id":25384,"name":"Gebesee","lat":51.11488,"lng":10.93455},{"id":154478,"name":"Gefell","lat":50.4373768,"lng":11.6605925},{"id":25394,"name":"Gehren","lat":50.64852,"lng":11.00471},{"id":25397,"name":"Geisa","lat":50.71465,"lng":9.95075},{"id":25406,"name":"Geisleden","lat":51.35,"lng":10.2},{"id":25409,"name":"Geismar","lat":51.23169,"lng":10.16548},{"id":25431,"name":"Georgenthal","lat":50.83205,"lng":10.66266},{"id":25434,"name":"Gera","lat":50.88029,"lng":12.08187},{"id":25435,"name":"Geraberg","lat":50.71594,"lng":10.83737},{"id":25448,"name":"Gernrode","lat":51.4,"lng":10.4},{"id":25464,"name":"Gerstungen","lat":50.96667,"lng":10.06667},{"id":25469,"name":"Geschwenda","lat":50.73178,"lng":10.8254},{"id":25511,"name":"Gleichamberg","lat":50.37068,"lng":10.59822},{"id":25529,"name":"Goldbach","lat":51.04566,"lng":11.43289},{"id":25783,"name":"Görsbach","lat":51.46224,"lng":10.93706},{"id":25789,"name":"Gößnitz","lat":50.88902,"lng":12.43292},{"id":25554,"name":"Goßwitz","lat":50.63536,"lng":11.47737},{"id":25549,"name":"Gotha","lat":50.94823,"lng":10.70193},{"id":25561,"name":"Grabsleben","lat":50.93633,"lng":10.83508},{"id":25723,"name":"Gräfenhain","lat":50.81667,"lng":10.7},{"id":25725,"name":"Gräfenroda","lat":50.74781,"lng":10.81063},{"id":25595,"name":"Greiz","lat":50.65778,"lng":12.19918},{"id":25602,"name":"Greußen","lat":51.22964,"lng":10.94422},{"id":25652,"name":"Großbartloff","lat":51.25,"lng":10.21667},{"id":25655,"name":"Großbodungen","lat":51.47572,"lng":10.48104},{"id":25658,"name":"Großbreitenbach","lat":50.58335,"lng":11.00955},{"id":25662,"name":"Großenehrich","lat":51.24838,"lng":10.83458},{"id":25663,"name":"Großengottern","lat":51.14821,"lng":10.56232},{"id":25669,"name":"Großenstein","lat":50.9,"lng":12.2},{"id":25692,"name":"Großmonra","lat":51.21299,"lng":11.29578},{"id":25702,"name":"Großrudestedt","lat":51.09305,"lng":11.09977},{"id":25835,"name":"Haina","lat":50.98971,"lng":10.51774},{"id":25963,"name":"Haßleben","lat":51.10878,"lng":10.99637},{"id":25993,"name":"Heilbad Heiligenstadt","lat":51.37819,"lng":10.13744},{"id":26021,"name":"Heldrungen","lat":51.30208,"lng":11.21816},{"id":26027,"name":"Hellingen","lat":50.25,"lng":10.68333},{"id":26061,"name":"Herbsleben","lat":51.11667,"lng":10.83333},{"id":26071,"name":"Heringen","lat":51.44705,"lng":10.87612},{"id":26079,"name":"Hermsdorf","lat":50.89694,"lng":11.85549},{"id":26093,"name":"Herschdorf","lat":50.71168,"lng":11.53736},{"id":26126,"name":"Heyerode","lat":51.16439,"lng":10.32009},{"id":26134,"name":"Hildburghausen","lat":50.42553,"lng":10.73184},{"id":154480,"name":"Hirschberg","lat":50.4182246,"lng":11.730122},{"id":26209,"name":"Hohenleuben","lat":50.71128,"lng":12.05427},{"id":26320,"name":"Hörselgau","lat":50.91988,"lng":10.58444},{"id":26286,"name":"Hundeshagen","lat":51.43333,"lng":10.28333},{"id":26348,"name":"Ichtershausen","lat":50.87602,"lng":10.97028},{"id":26354,"name":"Ifta","lat":51.06667,"lng":10.18333},{"id":26365,"name":"Ilfeld","lat":51.5757,"lng":10.78469},{"id":26372,"name":"Ilmenau","lat":50.68322,"lng":10.91858},{"id":26379,"name":"Immelborn","lat":50.79229,"lng":10.27812},{"id":26390,"name":"Ingersleben","lat":50.92167,"lng":10.93646},{"id":26435,"name":"Jena","lat":50.92878,"lng":11.5899},{"id":26471,"name":"Jüchsen","lat":50.47993,"lng":10.50183},{"id":26459,"name":"Judenbach","lat":50.39591,"lng":11.22099},{"id":26480,"name":"Kahla","lat":50.80651,"lng":11.58516},{"id":26497,"name":"Kaltennordheim","lat":50.62649,"lng":10.15915},{"id":26498,"name":"Kaltenwestheim","lat":50.60991,"lng":10.11692},{"id":26504,"name":"Kamsdorf","lat":50.64312,"lng":11.45401},{"id":26507,"name":"Kannawurf","lat":51.26667,"lng":11.13333},{"id":26535,"name":"Katharinenberg","lat":51.18137,"lng":10.26084},{"id":26538,"name":"Katzhütte","lat":50.55191,"lng":11.05293},{"id":26546,"name":"Kaulsdorf","lat":50.6167,"lng":11.43295},{"id":26588,"name":"Kindelbrück","lat":51.26171,"lng":11.08999},{"id":26618,"name":"Kirchheim","lat":50.88333,"lng":11.01667},{"id":26638,"name":"Kirchworbis","lat":51.41122,"lng":10.39625},{"id":26671,"name":"Kleinfurra","lat":51.41556,"lng":10.76454},{"id":26681,"name":"Kleinwenden","lat":51.41611,"lng":10.65902},{"id":26682,"name":"Klettbach","lat":50.91667,"lng":11.15},{"id":26816,"name":"Kölleda","lat":51.18745,"lng":11.24488},{"id":26828,"name":"Königsee","lat":50.66143,"lng":11.09748},{"id":26840,"name":"Könitz","lat":50.64979,"lng":11.48809},{"id":26844,"name":"Körner","lat":51.23126,"lng":10.58878},{"id":26733,"name":"Kraftsdorf","lat":50.87574,"lng":11.92944},{"id":26740,"name":"Kranichfeld","lat":50.85446,"lng":11.20057},{"id":26743,"name":"Krauthausen","lat":51.01667,"lng":10.26667},{"id":26760,"name":"Kriebitzsch","lat":51.02347,"lng":12.33318},{"id":26782,"name":"Krölpa","lat":50.67743,"lng":11.53848},{"id":26766,"name":"Kromsdorf","lat":51.0,"lng":11.36667},{"id":26850,"name":"Kühndorf","lat":50.6086,"lng":10.4894},{"id":26852,"name":"Küllstedt","lat":51.27582,"lng":10.2804},{"id":26926,"name":"Langenorla","lat":50.74067,"lng":11.58023},{"id":26931,"name":"Langenwetzendorf","lat":50.67884,"lng":12.09407},{"id":26936,"name":"Langewiesen","lat":50.67252,"lng":10.97102},{"id":26943,"name":"Langula","lat":51.15001,"lng":10.4167},{"id":26962,"name":"Lauchröden","lat":50.99371,"lng":10.15694},{"id":26980,"name":"Lauscha","lat":50.47687,"lng":11.15962},{"id":27007,"name":"Lehesten","lat":50.98333,"lng":11.58333},{"id":27019,"name":"Leimbach","lat":50.81667,"lng":10.2},{"id":27023,"name":"Leinefelde-Worbis","lat":51.38796,"lng":10.3262},{"id":27066,"name":"Leutenberg","lat":50.56354,"lng":11.45619},{"id":27074,"name":"Lichte","lat":50.51667,"lng":11.18333},{"id":27188,"name":"Löbichau","lat":50.89383,"lng":12.26366},{"id":27159,"name":"Lucka","lat":51.09727,"lng":12.33336},{"id":27172,"name":"Luisenthal","lat":50.78333,"lng":10.73333},{"id":27229,"name":"Magdala","lat":50.90698,"lng":11.44801},{"id":27292,"name":"Marksuhl","lat":50.91667,"lng":10.2},{"id":27339,"name":"Masserberg","lat":50.51981,"lng":10.97087},{"id":27355,"name":"Mechterstädt","lat":50.94201,"lng":10.5238},{"id":27383,"name":"Meiningen","lat":50.56787,"lng":10.41521},{"id":27394,"name":"Mellenbach-Glasbach","lat":50.61667,"lng":11.1},{"id":27395,"name":"Mellingen","lat":50.94123,"lng":11.3964},{"id":27408,"name":"Mengersgereuth-Hämmern","lat":50.3973,"lng":11.11649},{"id":27412,"name":"Menteroda","lat":51.30763,"lng":10.56323},{"id":27446,"name":"Meuselbach","lat":50.57152,"lng":11.09143},{"id":27447,"name":"Meuselwitz","lat":51.04315,"lng":12.29935},{"id":27464,"name":"Mihla","lat":51.07617,"lng":10.33175},{"id":27470,"name":"Milz","lat":50.3776,"lng":10.53757},{"id":27501,"name":"Mohlsdorf","lat":50.66974,"lng":12.26519},{"id":27506,"name":"Molschleben","lat":51.0,"lng":10.78333},{"id":27569,"name":"Mönchenholzhausen","lat":50.96667,"lng":11.15},{"id":27596,"name":"Mühlhausen","lat":51.20896,"lng":10.45275},{"id":27611,"name":"Münchenbernsdorf","lat":50.82114,"lng":11.93226},{"id":27712,"name":"Neudietendorf","lat":50.9125,"lng":10.91346},{"id":27739,"name":"Neuhaus","lat":50.68333,"lng":10.93333},{"id":27741,"name":"Neuhaus am Rennweg","lat":50.51006,"lng":11.13787},{"id":27744,"name":"Neuhaus-Schierschnitz","lat":50.31237,"lng":11.24019},{"id":27798,"name":"Neustadt am Rennsteig","lat":50.58333,"lng":10.93333},{"id":27802,"name":"Neustadt an der Orla","lat":50.7364,"lng":11.74619},{"id":27839,"name":"Niederdorla","lat":51.16025,"lng":10.4482},{"id":27866,"name":"Niederorschel","lat":51.37222,"lng":10.42372},{"id":27869,"name":"Niederroßla","lat":51.03333,"lng":11.48333},{"id":27870,"name":"Niedersachswerfen","lat":51.55062,"lng":10.76594},{"id":27886,"name":"Niederzimmern","lat":51.00476,"lng":11.19028},{"id":27945,"name":"Nöbdenitz","lat":50.86667,"lng":12.28333},{"id":27906,"name":"Nobitz","lat":50.97621,"lng":12.48605},{"id":27908,"name":"Nohra","lat":50.96136,"lng":11.25971},{"id":27919,"name":"Nordhausen","lat":51.5018,"lng":10.7957},{"id":27974,"name":"Oberdorla","lat":51.16585,"lng":10.42163},{"id":27987,"name":"Oberhof","lat":50.70435,"lng":10.72716},{"id":27996,"name":"Obermaßfeld-Grimmenthal","lat":50.52898,"lng":10.43963},{"id":27997,"name":"Obermehler","lat":51.26996,"lng":10.59754},{"id":28053,"name":"Oberweißbach","lat":50.58231,"lng":11.14382},{"id":28110,"name":"Oldisleben","lat":51.30975,"lng":11.17112},{"id":28122,"name":"Oppurg","lat":50.71065,"lng":11.65289},{"id":28126,"name":"Orlamünde","lat":50.77486,"lng":11.51929},{"id":28207,"name":"Oßmanstedt","lat":51.01815,"lng":11.42746},{"id":28221,"name":"Pappenheim","lat":50.79631,"lng":10.47489},{"id":28318,"name":"Plaue","lat":50.77835,"lng":10.89969},{"id":28417,"name":"Pölzig","lat":50.95,"lng":12.2},{"id":28350,"name":"Ponitz","lat":50.85762,"lng":12.42309},{"id":28420,"name":"Pößneck","lat":50.69358,"lng":11.59229},{"id":28394,"name":"Probstzella","lat":50.53333,"lng":11.38333},{"id":28472,"name":"Ranis","lat":50.66132,"lng":11.56912},{"id":28481,"name":"Rastenberg","lat":51.17496,"lng":11.42029},{"id":28575,"name":"Remptendorf","lat":50.53333,"lng":11.65},{"id":28652,"name":"Riethnordhausen","lat":51.08333,"lng":11.0},{"id":28662,"name":"Ringleben","lat":51.36667,"lng":11.21667},{"id":28688,"name":"Rohr","lat":50.57644,"lng":10.49725},{"id":28785,"name":"Römhild","lat":50.39639,"lng":10.53889},{"id":28698,"name":"Ronneburg","lat":50.8634,"lng":12.18666},{"id":153781,"name":"Rosenthal am Rennsteig","lat":50.4186923,"lng":11.4932004},{"id":28711,"name":"Rositz","lat":51.01728,"lng":12.36354},{"id":28745,"name":"Roßleben","lat":51.29886,"lng":11.43435},{"id":28728,"name":"Rothenstein","lat":50.85,"lng":11.6},{"id":28732,"name":"Rottenbach","lat":50.68782,"lng":11.16674},{"id":28752,"name":"Rudolstadt","lat":50.72043,"lng":11.34046},{"id":28755,"name":"Ruhla","lat":50.89296,"lng":10.36573},{"id":28814,"name":"Saalfeld","lat":50.64826,"lng":11.36536},{"id":28815,"name":"Saara","lat":50.93284,"lng":12.42096},{"id":28865,"name":"Sankt Gangloff","lat":50.85522,"lng":11.89446},{"id":28873,"name":"Sankt Kilian","lat":50.52749,"lng":10.76301},{"id":28906,"name":"Schalkau","lat":50.39536,"lng":11.00732},{"id":28934,"name":"Schernberg","lat":51.32774,"lng":10.76928},{"id":28957,"name":"Schkölen","lat":51.04166,"lng":11.82141},{"id":28968,"name":"Schleid","lat":50.7,"lng":9.96667},{"id":28971,"name":"Schleiz","lat":50.57866,"lng":11.81024},{"id":28974,"name":"Schleusingen","lat":50.51076,"lng":10.75658},{"id":28982,"name":"Schloßvippach","lat":51.10499,"lng":11.14512},{"id":28981,"name":"Schlotheim","lat":51.24643,"lng":10.65842},{"id":28987,"name":"Schmalkalden","lat":50.72136,"lng":10.44386},{"id":28995,"name":"Schmiedefeld","lat":50.53333,"lng":11.21667},{"id":28996,"name":"Schmiedefeld am Rennsteig","lat":50.60863,"lng":10.81284},{"id":28999,"name":"Schmölln","lat":50.89678,"lng":12.35339},{"id":29130,"name":"Schönstedt","lat":51.12,"lng":10.57743},{"id":29052,"name":"Schwallungen","lat":50.6926,"lng":10.35706},{"id":29064,"name":"Schwarza","lat":50.85386,"lng":11.32433},{"id":29082,"name":"Schweina","lat":50.82502,"lng":10.33788},{"id":29142,"name":"Seebach","lat":51.16506,"lng":10.51428},{"id":29146,"name":"Seebergen","lat":50.92077,"lng":10.7992},{"id":29158,"name":"Seelingstädt","lat":50.77266,"lng":12.24361},{"id":29252,"name":"Sitzendorf","lat":50.63182,"lng":11.17215},{"id":29259,"name":"Sollstedt","lat":51.30976,"lng":10.4881},{"id":29494,"name":"Sömmerda","lat":51.15914,"lng":11.11524},{"id":29268,"name":"Sondershausen","lat":51.36973,"lng":10.87011},{"id":29270,"name":"Sonneberg","lat":50.3592,"lng":11.17463},{"id":29271,"name":"Sonneborn","lat":50.9927,"lng":10.59173},{"id":29322,"name":"Stadtilm","lat":50.77596,"lng":11.08262},{"id":29325,"name":"Stadtlengsfeld","lat":50.78329,"lng":10.12918},{"id":29330,"name":"Stadtroda","lat":50.85684,"lng":11.72677},{"id":29361,"name":"Steinach","lat":50.43129,"lng":11.15909},{"id":29363,"name":"Steinbach","lat":50.83321,"lng":10.36393},{"id":29366,"name":"Steinbach-Hallenberg","lat":50.69624,"lng":10.56541},{"id":29378,"name":"Steinheid","lat":50.46538,"lng":11.08265},{"id":29431,"name":"Straußfurt","lat":51.16667,"lng":10.98333},{"id":29457,"name":"Stützerbach","lat":50.63333,"lng":10.86667},{"id":29462,"name":"Suhl","lat":50.60911,"lng":10.69401},{"id":29510,"name":"Tabarz","lat":50.87529,"lng":10.51607},{"id":29515,"name":"Tambach-Dietharz","lat":50.79245,"lng":10.61568},{"id":29522,"name":"Tanna","lat":50.4946,"lng":11.85725},{"id":29540,"name":"Tautenhain","lat":50.9247,"lng":11.91945},{"id":29547,"name":"Teichwolframsdorf","lat":50.72093,"lng":12.24689},{"id":29551,"name":"Teistungen","lat":51.46667,"lng":10.26667},{"id":29574,"name":"Thal","lat":50.91684,"lng":10.39209},{"id":29590,"name":"Themar","lat":50.50465,"lng":10.61536},{"id":29611,"name":"Tiefenort","lat":50.83946,"lng":10.16604},{"id":29656,"name":"Treffurt","lat":51.13691,"lng":10.23361},{"id":29667,"name":"Triebes","lat":50.68489,"lng":12.02042},{"id":29673,"name":"Triptis","lat":50.73567,"lng":11.87015},{"id":29685,"name":"Trusetal","lat":50.78333,"lng":10.41667},{"id":29717,"name":"Uder","lat":51.36243,"lng":10.0721},{"id":29753,"name":"Unterbreizbach","lat":50.81667,"lng":9.98333},{"id":29769,"name":"Untermaßfeld","lat":50.53333,"lng":10.41667},{"id":29782,"name":"Unterwellenborn","lat":50.65,"lng":11.43333},{"id":29789,"name":"Urbach","lat":51.29468,"lng":10.6054},{"id":29801,"name":"Uthleben","lat":51.44912,"lng":10.838},{"id":29807,"name":"Vacha","lat":50.8279,"lng":10.02185},{"id":29820,"name":"Veilsdorf","lat":50.40876,"lng":10.80947},{"id":29847,"name":"Viernau","lat":50.66225,"lng":10.55778},{"id":29871,"name":"Voigtstedt","lat":51.39169,"lng":11.30888},{"id":29891,"name":"Völkershausen","lat":50.8,"lng":10.05},{"id":29971,"name":"Walldorf","lat":50.61667,"lng":10.38333},{"id":29991,"name":"Walschleben","lat":51.06667,"lng":10.93333},{"id":29995,"name":"Waltershausen","lat":50.89827,"lng":10.55791},{"id":29997,"name":"Wandersleben","lat":50.89946,"lng":10.84959},{"id":30038,"name":"Wasungen","lat":50.6619,"lng":10.36947},{"id":30068,"name":"Weida","lat":50.77449,"lng":12.06028},{"id":30096,"name":"Weimar","lat":50.9803,"lng":11.32903},{"id":30125,"name":"Weißenborn","lat":50.92393,"lng":11.87947},{"id":30127,"name":"Weißenborn-Lüderode","lat":51.5319,"lng":10.41889},{"id":30135,"name":"Weißensee","lat":51.19989,"lng":11.06914},{"id":30185,"name":"Wernshausen","lat":50.72404,"lng":10.35086},{"id":30245,"name":"Wiehe","lat":51.26586,"lng":11.41282},{"id":30319,"name":"Windischleuba","lat":51.01556,"lng":12.46914},{"id":30321,"name":"Wingerode","lat":51.39032,"lng":10.23954},{"id":30335,"name":"Wintersdorf","lat":51.0532,"lng":12.35445},{"id":30338,"name":"Wipperdorf","lat":51.4556,"lng":10.64388},{"id":30356,"name":"Witterda","lat":51.03615,"lng":10.89028},{"id":30440,"name":"Wölfis","lat":50.80825,"lng":10.77905},{"id":30392,"name":"Wolkramshausen","lat":51.42185,"lng":10.73815},{"id":30404,"name":"Worbis","lat":51.41997,"lng":10.3633},{"id":30457,"name":"Wünschendorf","lat":50.79662,"lng":12.09824},{"id":30425,"name":"Wurzbach","lat":50.46357,"lng":11.53779},{"id":30489,"name":"Zella-Mehlis","lat":50.65642,"lng":10.66046},{"id":30498,"name":"Zeulenroda","lat":50.65278,"lng":11.98377},{"id":154479,"name":"Ziegenrück","lat":50.6097145,"lng":11.6168181}]