[{"id":23540,"name":"Albshausen","lat":50.54431,"lng":8.43784},{"id":23554,"name":"Alheim","lat":51.03333,"lng":9.66667},{"id":23555,"name":"Allendorf","lat":51.02995,"lng":8.67232},{"id":23556,"name":"Allendorf an der Lahn","lat":50.55109,"lng":8.62008},{"id":23567,"name":"Alsbach-Hähnlein","lat":49.73861,"lng":8.59583},{"id":23571,"name":"Alsfeld","lat":50.75185,"lng":9.27082},{"id":23588,"name":"Alten Buseck","lat":50.62218,"lng":8.75322},{"id":23613,"name":"Altenstadt","lat":50.28747,"lng":8.94373},{"id":23652,"name":"Amöneburg","lat":50.79595,"lng":8.9233},{"id":23748,"name":"Aßlar","lat":50.59163,"lng":8.46273},{"id":23753,"name":"Babenhausen","lat":49.96519,"lng":8.95129},{"id":23762,"name":"Bad Arolsen","lat":51.37982,"lng":9.01445},{"id":23780,"name":"Bad Camberg","lat":50.29695,"lng":8.26896},{"id":23791,"name":"Bad Endbach","lat":50.75,"lng":8.5},{"id":23806,"name":"Bad Hersfeld","lat":50.87197,"lng":9.70891},{"id":23808,"name":"Bad Homburg vor der Höhe","lat":50.22683,"lng":8.61816},{"id":23812,"name":"Bad Karlshafen","lat":51.64263,"lng":9.45477},{"id":23818,"name":"Bad König","lat":49.7432,"lng":9.0075},{"id":23840,"name":"Bad Nauheim","lat":50.36463,"lng":8.73859},{"id":23846,"name":"Bad Orb","lat":50.22788,"lng":9.34782},{"id":23856,"name":"Bad Salzschlirf","lat":50.62388,"lng":9.50815},{"id":23864,"name":"Bad Schwalbach","lat":50.14196,"lng":8.06964},{"id":23867,"name":"Bad Soden am Taunus","lat":50.1408,"lng":8.50449},{"id":23868,"name":"Bad Soden-Salmünster","lat":50.27574,"lng":9.36705},{"id":23869,"name":"Bad Sooden-Allendorf","lat":51.27092,"lng":9.97483},{"id":23880,"name":"Bad Vilbel","lat":50.17866,"lng":8.73756},{"id":23884,"name":"Bad Wildungen","lat":51.11963,"lng":9.12475},{"id":23956,"name":"Battenberg","lat":51.01391,"lng":8.64603},{"id":23961,"name":"Baunatal","lat":51.25182,"lng":9.40747},{"id":23971,"name":"Bebra","lat":50.97445,"lng":9.79562},{"id":23984,"name":"Beerfelden","lat":49.56858,"lng":8.97444},{"id":24019,"name":"Bensheim","lat":49.68369,"lng":8.61839},{"id":24074,"name":"Berstadt","lat":50.42606,"lng":8.86621},{"id":24086,"name":"Beuern","lat":50.62745,"lng":8.82108},{"id":24098,"name":"Biblis","lat":49.69167,"lng":8.45861},{"id":24101,"name":"Bickenbach","lat":49.75917,"lng":8.6175},{"id":24104,"name":"Biebesheim","lat":49.78088,"lng":8.46696},{"id":24105,"name":"Biedenkopf","lat":50.91125,"lng":8.53016},{"id":24133,"name":"Birkenau","lat":49.5625,"lng":8.70694},{"id":24141,"name":"Birstein","lat":50.35,"lng":9.3},{"id":24144,"name":"Bischoffen","lat":50.7,"lng":8.45},{"id":24147,"name":"Bischofsheim","lat":49.99389,"lng":8.36722},{"id":24245,"name":"Borken","lat":51.04501,"lng":9.2844},{"id":24287,"name":"Braunfels","lat":50.51545,"lng":8.38918},{"id":24300,"name":"Breidenbach","lat":50.88734,"lng":8.45748},{"id":24304,"name":"Breitenbach","lat":50.95655,"lng":9.78285},{"id":24315,"name":"Breitscheid","lat":50.68507,"lng":8.1912},{"id":24324,"name":"Brensbach","lat":49.77389,"lng":8.88444},{"id":24328,"name":"Breuna","lat":51.41575,"lng":9.185},{"id":24346,"name":"Bromskirchen","lat":51.09363,"lng":8.6264},{"id":24349,"name":"Bruchköbel","lat":50.17853,"lng":8.92315},{"id":24494,"name":"Büdingen","lat":50.29013,"lng":9.1114},{"id":24419,"name":"Burghaun","lat":50.69684,"lng":9.72453},{"id":24433,"name":"Burgsolms","lat":50.54191,"lng":8.40411},{"id":24504,"name":"Bürstadt","lat":49.64266,"lng":8.45936},{"id":24507,"name":"Büttelborn","lat":49.90333,"lng":8.52333},{"id":24455,"name":"Butzbach","lat":50.43395,"lng":8.67122},{"id":24516,"name":"Calden","lat":51.40943,"lng":9.40189},{"id":24571,"name":"Cölbe","lat":50.85098,"lng":8.78092},{"id":24553,"name":"Cornberg","lat":51.0416,"lng":9.86051},{"id":24597,"name":"Darmstadt","lat":49.87167,"lng":8.65027},{"id":24612,"name":"Dehrn","lat":50.42049,"lng":8.09846},{"id":24665,"name":"Dieburg","lat":49.89738,"lng":8.84613},{"id":24686,"name":"Dietzenbach","lat":50.00976,"lng":8.77783},{"id":24689,"name":"Dillenburg","lat":50.74114,"lng":8.28699},{"id":24700,"name":"Dipperz","lat":50.54333,"lng":9.79586},{"id":24760,"name":"Dreieich","lat":50.01997,"lng":8.69611},{"id":24769,"name":"Driedorf","lat":50.63333,"lng":8.18333},{"id":24847,"name":"Echzell","lat":50.38888,"lng":8.88605},{"id":24866,"name":"Egelsbach","lat":49.96792,"lng":8.66341},{"id":24894,"name":"Ehringshausen","lat":50.6,"lng":8.38333},{"id":24903,"name":"Eichenzell","lat":50.49536,"lng":9.69672},{"id":24921,"name":"Einhausen","lat":49.67667,"lng":8.54833},{"id":24936,"name":"Eiterfeld","lat":50.76667,"lng":9.8},{"id":24976,"name":"Eltville","lat":50.02858,"lng":8.11754},{"id":24978,"name":"Elz","lat":50.41667,"lng":8.03333},{"id":25023,"name":"Eppertshausen","lat":49.95056,"lng":8.85389},{"id":25026,"name":"Eppstein","lat":50.14277,"lng":8.39231},{"id":25027,"name":"Erbach","lat":49.66148,"lng":8.99402},{"id":25060,"name":"Erlensee","lat":50.16304,"lng":8.97823},{"id":25073,"name":"Erzhausen","lat":49.95528,"lng":8.6475},{"id":25076,"name":"Eschborn","lat":50.14328,"lng":8.57111},{"id":25084,"name":"Eschwege","lat":51.18386,"lng":10.05329},{"id":25090,"name":"Espenau","lat":51.39664,"lng":9.47021},{"id":25162,"name":"Felsberg","lat":51.13763,"lng":9.42139},{"id":25191,"name":"Flieden","lat":50.42389,"lng":9.5666},{"id":25200,"name":"Flörsheim","lat":50.01311,"lng":8.42779},{"id":25196,"name":"Florstadt","lat":50.31667,"lng":8.86667},{"id":25212,"name":"Frankenau","lat":51.09269,"lng":8.93447},{"id":25213,"name":"Frankenberg","lat":51.0589,"lng":8.80077},{"id":25222,"name":"Frankfurt am Main","lat":50.11552,"lng":8.68417},{"id":25310,"name":"Fränkisch-Crumbach","lat":49.74611,"lng":8.85861},{"id":25244,"name":"Freiensteinau","lat":50.42509,"lng":9.40267},{"id":25271,"name":"Friedberg","lat":50.33739,"lng":8.75591},{"id":25279,"name":"Friedewald","lat":50.88333,"lng":9.86667},{"id":25286,"name":"Friedrichsdorf","lat":50.24962,"lng":8.64281},{"id":25295,"name":"Frielendorf","lat":50.97073,"lng":9.32269},{"id":25303,"name":"Fritzlar","lat":51.13181,"lng":9.27557},{"id":25306,"name":"Fronhausen","lat":50.7,"lng":8.7},{"id":25315,"name":"Fulda","lat":50.55162,"lng":9.67518},{"id":25316,"name":"Fuldatal","lat":51.38333,"lng":9.56667},{"id":25336,"name":"Fürth","lat":49.65083,"lng":8.78472},{"id":25352,"name":"Gallus","lat":50.10038,"lng":8.6295},{"id":25388,"name":"Gedern","lat":50.42482,"lng":9.1984},{"id":25403,"name":"Geisenheim","lat":49.9847,"lng":7.96835},{"id":25415,"name":"Gelnhausen","lat":50.20164,"lng":9.18742},{"id":25424,"name":"Gemünden an der Wohra","lat":50.97401,"lng":8.96946},{"id":25450,"name":"Gernsheim","lat":49.75305,"lng":8.48859},{"id":25459,"name":"Gersfeld","lat":50.45138,"lng":9.91422},{"id":25487,"name":"Gießen","lat":50.58727,"lng":8.67554},{"id":25491,"name":"Gilserberg","lat":50.95,"lng":9.06667},{"id":25496,"name":"Ginsheim-Gustavsburg","lat":49.9711,"lng":8.34532},{"id":25500,"name":"Gladenbach","lat":50.76847,"lng":8.58085},{"id":25505,"name":"Glashütten","lat":50.21667,"lng":8.4},{"id":25509,"name":"Glauburg","lat":50.31667,"lng":9.0},{"id":25726,"name":"Grävenwiesbach","lat":50.39024,"lng":8.4569},{"id":25583,"name":"Grebenau","lat":50.74242,"lng":9.47307},{"id":25584,"name":"Grebenhain","lat":50.48924,"lng":9.33855},{"id":25585,"name":"Grebenstein","lat":51.44648,"lng":9.4125},{"id":25591,"name":"Greifenstein","lat":50.61667,"lng":8.3},{"id":25608,"name":"Griesheim","lat":49.86085,"lng":8.5725},{"id":25643,"name":"Groß-Bieberau","lat":49.80064,"lng":8.8243},{"id":25644,"name":"Groß-Gerau","lat":49.92139,"lng":8.48255},{"id":25645,"name":"Groß-Rohrheim","lat":49.72111,"lng":8.48278},{"id":25646,"name":"Groß-Umstadt","lat":49.86899,"lng":8.9321},{"id":25647,"name":"Groß-Zimmern","lat":49.8741,"lng":8.82898},{"id":25649,"name":"Großalmerode","lat":51.25858,"lng":9.7845},{"id":25666,"name":"Großenlüder","lat":50.5925,"lng":9.54231},{"id":25686,"name":"Großkrotzenburg","lat":50.08333,"lng":8.98333},{"id":25736,"name":"Grünberg","lat":50.59403,"lng":8.95866},{"id":25749,"name":"Gudensberg","lat":51.17706,"lng":9.36748},{"id":25771,"name":"Guxhagen","lat":51.2,"lng":9.48333},{"id":25812,"name":"Hadamar","lat":50.44593,"lng":8.04253},{"id":25830,"name":"Haiger","lat":50.74162,"lng":8.20778},{"id":25834,"name":"Hain-Gründau","lat":50.24284,"lng":9.14287},{"id":25836,"name":"Haina","lat":51.02774,"lng":8.97441},{"id":25879,"name":"Hammersbach","lat":50.21667,"lng":8.98333},{"id":25882,"name":"Hanau am Main","lat":50.13423,"lng":8.91418},{"id":25938,"name":"Hattersheim","lat":50.07854,"lng":8.47552},{"id":25944,"name":"Hatzfeld","lat":50.99334,"lng":8.5457},{"id":26034,"name":"Helsa","lat":51.25981,"lng":9.68872},{"id":26055,"name":"Heppenheim an der Bergstrasse","lat":49.64145,"lng":8.63206},{"id":26059,"name":"Herborn","lat":50.68135,"lng":8.30369},{"id":26062,"name":"Herbstein","lat":50.56105,"lng":9.34592},{"id":26072,"name":"Heringen","lat":50.88798,"lng":10.00717},{"id":26074,"name":"Herleshausen","lat":51.00629,"lng":10.16731},{"id":26107,"name":"Hessisch Lichtenau","lat":51.19954,"lng":9.71857},{"id":26118,"name":"Heuchelheim","lat":50.58333,"lng":8.63333},{"id":26123,"name":"Heusenstamm","lat":50.05553,"lng":8.80076},{"id":26136,"name":"Hilders","lat":50.5719,"lng":10.00297},{"id":26168,"name":"Hirschhorn","lat":49.44566,"lng":8.89594},{"id":26169,"name":"Hirzenhain","lat":50.4,"lng":9.13333},{"id":26176,"name":"Hochheim am Main","lat":50.01436,"lng":8.35218},{"id":26301,"name":"Höchst im Odenwald","lat":49.79972,"lng":8.99944},{"id":26186,"name":"Hofbieber","lat":50.58629,"lng":9.83534},{"id":26187,"name":"Hofgeismar","lat":51.49607,"lng":9.385},{"id":26188,"name":"Hofheim am Taunus","lat":50.09019,"lng":8.4493},{"id":26314,"name":"Höingen","lat":50.7191,"lng":8.91961},{"id":26251,"name":"Homberg","lat":50.73108,"lng":8.99644},{"id":26319,"name":"Hörnsheim","lat":50.51828,"lng":8.62976},{"id":26275,"name":"Hosenfeld","lat":50.50502,"lng":9.47966},{"id":26337,"name":"Hünfeld","lat":50.67966,"lng":9.76727},{"id":26289,"name":"Hungen","lat":50.47368,"lng":8.89326},{"id":26351,"name":"Idstein","lat":50.21773,"lng":8.26679},{"id":26381,"name":"Immenhausen","lat":51.42763,"lng":9.48017},{"id":26441,"name":"Jesberg","lat":51.0,"lng":9.15},{"id":26513,"name":"Karben","lat":50.23019,"lng":8.77155},{"id":26531,"name":"Kassel","lat":51.31667,"lng":9.5},{"id":26544,"name":"Kaufungen","lat":51.28111,"lng":9.61861},{"id":26550,"name":"Kefenrod","lat":50.34475,"lng":9.21141},{"id":26557,"name":"Kelkheim (Taunus)","lat":50.13703,"lng":8.4502},{"id":26562,"name":"Kelsterbach","lat":50.06135,"lng":8.52916},{"id":26582,"name":"Kiedrich","lat":50.03965,"lng":8.08531},{"id":26615,"name":"Kirchhain","lat":50.8272,"lng":8.92806},{"id":26620,"name":"Kirchheim","lat":50.83333,"lng":9.56667},{"id":26646,"name":"Kirtorf","lat":50.76942,"lng":9.10389},{"id":26836,"name":"Königstein im Taunus","lat":50.17943,"lng":8.47132},{"id":26722,"name":"Korbach","lat":51.27561,"lng":8.873},{"id":26843,"name":"Körle","lat":51.16667,"lng":9.51667},{"id":26763,"name":"Kriftel","lat":50.08408,"lng":8.46977},{"id":26769,"name":"Kronberg","lat":50.18424,"lng":8.5232},{"id":26770,"name":"Kronberg Tal","lat":50.17929,"lng":8.5037},{"id":26855,"name":"Künzell","lat":50.5442,"lng":9.71792},{"id":26885,"name":"Lampertheim","lat":49.59786,"lng":8.4725},{"id":26902,"name":"Langen","lat":49.98955,"lng":8.66852},{"id":26928,"name":"Langenselbold","lat":50.17657,"lng":9.04003},{"id":26938,"name":"Langgöns","lat":50.5,"lng":8.66667},{"id":26955,"name":"Laubach","lat":50.54196,"lng":8.99034},{"id":26973,"name":"Laufdorf","lat":50.51605,"lng":8.45982},{"id":26984,"name":"Lauterbach","lat":50.63558,"lng":9.39777},{"id":26988,"name":"Lautertal","lat":50.58333,"lng":9.28333},{"id":27061,"name":"Leun","lat":50.55129,"lng":8.35836},{"id":27073,"name":"Lich","lat":50.52085,"lng":8.81567},{"id":27086,"name":"Liebenau","lat":51.49699,"lng":9.28207},{"id":27092,"name":"Liederbach","lat":50.12221,"lng":8.49397},{"id":27099,"name":"Limburg an der Lahn","lat":50.3836,"lng":8.0503},{"id":27108,"name":"Lindenfels","lat":49.68369,"lng":8.78151},{"id":27132,"name":"Lohfelden","lat":51.26667,"lng":9.53333},{"id":27194,"name":"Löhnberg","lat":50.51299,"lng":8.27202},{"id":27137,"name":"Lohra","lat":50.73333,"lng":8.63333},{"id":27141,"name":"Lollar","lat":50.64652,"lng":8.70495},{"id":27149,"name":"Lorsch","lat":49.65,"lng":8.56667},{"id":27224,"name":"Lützelbach","lat":49.74233,"lng":8.76687},{"id":27243,"name":"Maintal","lat":50.15,"lng":8.83333},{"id":27258,"name":"Malsfeld","lat":51.09083,"lng":9.53889},{"id":27270,"name":"Marburg an der Lahn","lat":50.80904,"lng":8.77069},{"id":27329,"name":"Martinhagen","lat":51.28688,"lng":9.28611},{"id":27389,"name":"Melbach","lat":50.37908,"lng":8.80926},{"id":27400,"name":"Melsungen","lat":51.13029,"lng":9.55236},{"id":27409,"name":"Mengerskirchen","lat":50.56392,"lng":8.15555},{"id":27417,"name":"Merenberg","lat":50.50707,"lng":8.19194},{"id":27419,"name":"Merkenbach","lat":50.65626,"lng":8.29513},{"id":27434,"name":"Messel","lat":49.93833,"lng":8.74056},{"id":27455,"name":"Michelstadt","lat":49.67569,"lng":9.00373},{"id":27487,"name":"Mittenaar","lat":50.7,"lng":8.38333},{"id":27576,"name":"Mörfelden-Walldorf","lat":49.99472,"lng":8.58361},{"id":27577,"name":"Mörlenbach","lat":49.59917,"lng":8.73472},{"id":27601,"name":"Mühlheim am Main","lat":50.11667,"lng":8.83333},{"id":27612,"name":"Münchhausen","lat":50.96081,"lng":8.71837},{"id":27620,"name":"Münster","lat":49.92278,"lng":8.86778},{"id":27628,"name":"Münzenberg","lat":50.45346,"lng":8.7743},{"id":27650,"name":"Naumburg","lat":51.24816,"lng":9.16569},{"id":27661,"name":"Neckarsteinach","lat":49.40735,"lng":8.84342},{"id":27675,"name":"Nentershausen","lat":51.01667,"lng":9.93333},{"id":27688,"name":"Neu Isenburg","lat":50.04832,"lng":8.69406},{"id":27692,"name":"Neu-Anspach","lat":50.31667,"lng":8.5},{"id":27729,"name":"Neuental","lat":51.0,"lng":9.21667},{"id":27748,"name":"Neuhof","lat":50.45313,"lng":9.6175},{"id":27761,"name":"Neukirchen","lat":50.86906,"lng":9.34655},{"id":27795,"name":"Neustadt (Hessen)","lat":50.85,"lng":9.11667},{"id":27821,"name":"Nidda","lat":50.4133,"lng":9.00638},{"id":27822,"name":"Nidderau","lat":50.23805,"lng":8.86704},{"id":27825,"name":"Niedenstein","lat":51.23342,"lng":9.31029},{"id":27826,"name":"Nieder-Gründau","lat":50.21097,"lng":9.10801},{"id":27832,"name":"Niederaula","lat":50.8,"lng":9.6},{"id":27834,"name":"Niederbiel","lat":50.55505,"lng":8.39845},{"id":27838,"name":"Niederdorfelden","lat":50.19415,"lng":8.80005},{"id":27853,"name":"Niederklein","lat":50.794,"lng":8.99694},{"id":27864,"name":"Niedernhausen","lat":50.16307,"lng":8.31338},{"id":27867,"name":"Niederrad","lat":50.08309,"lng":8.62852},{"id":27958,"name":"Ober-Mörlen","lat":50.3735,"lng":8.69087},{"id":27960,"name":"Ober-Ramstadt","lat":49.83078,"lng":8.74887},{"id":27965,"name":"Oberaula","lat":50.85,"lng":9.46667},{"id":27967,"name":"Oberbiel","lat":50.5532,"lng":8.42797},{"id":28050,"name":"Obertshausen","lat":50.07139,"lng":8.85123},{"id":28051,"name":"Oberursel","lat":50.20731,"lng":8.57747},{"id":28086,"name":"Offenbach","lat":50.10061,"lng":8.76647},{"id":28130,"name":"Ortenberg","lat":50.35584,"lng":9.05602},{"id":28196,"name":"Ottrau","lat":50.80599,"lng":9.38575},{"id":28295,"name":"Pfungstadt","lat":49.80557,"lng":8.60307},{"id":28297,"name":"Philippsthal","lat":50.83948,"lng":10.00906},{"id":28353,"name":"Poppenhausen","lat":50.48793,"lng":9.86795},{"id":28437,"name":"Rabenau","lat":50.67753,"lng":8.86425},{"id":28475,"name":"Ranstadt","lat":50.35739,"lng":8.98375},{"id":28478,"name":"Rasdorf","lat":50.71667,"lng":9.9},{"id":28496,"name":"Raunheim","lat":50.0132,"lng":8.45253},{"id":28497,"name":"Rauschenberg","lat":50.88329,"lng":8.91864},{"id":28517,"name":"Regierungsbezirk Darmstadt","lat":50.0,"lng":8.75},{"id":28519,"name":"Regierungsbezirk Gießen","lat":50.69806,"lng":8.76861},{"id":28520,"name":"Regierungsbezirk Kassel","lat":51.08333,"lng":9.4},{"id":28537,"name":"Reichelsheim","lat":49.71211,"lng":8.83896},{"id":28558,"name":"Reinhardshausen","lat":51.11166,"lng":9.07514},{"id":28561,"name":"Reinheim","lat":49.82923,"lng":8.83572},{"id":28569,"name":"Reiskirchen","lat":50.6,"lng":8.83333},{"id":28637,"name":"Riedstadt","lat":49.83411,"lng":8.49621},{"id":28655,"name":"Rimbach","lat":49.625,"lng":8.76306},{"id":28671,"name":"Rockenberg","lat":50.4305,"lng":8.73688},{"id":28676,"name":"Rodenbach","lat":50.15,"lng":9.03333},{"id":28679,"name":"Rodgau","lat":50.02627,"lng":8.88588},{"id":28697,"name":"Romrod","lat":50.71341,"lng":9.2201},{"id":28701,"name":"Ronshausen","lat":50.95,"lng":9.85},{"id":28702,"name":"Rosbach vor der Höhe","lat":50.30332,"lng":8.68976},{"id":28709,"name":"Rosenthal","lat":50.97439,"lng":8.86736},{"id":28741,"name":"Roßdorf","lat":49.85972,"lng":8.76167},{"id":28719,"name":"Rotenburg an der Fulda","lat":50.99556,"lng":9.72838},{"id":28722,"name":"Rothenberg","lat":49.49917,"lng":8.91917},{"id":28801,"name":"Rüdesheim am Rhein","lat":49.9789,"lng":7.92442},{"id":28764,"name":"Runkel","lat":50.40574,"lng":8.15457},{"id":28809,"name":"Rüsselsheim","lat":49.98955,"lng":8.42251},{"id":28823,"name":"Sachsenhausen","lat":51.24338,"lng":9.00973},{"id":28901,"name":"Schaafheim","lat":49.92417,"lng":9.00944},{"id":28931,"name":"Schenklengsfeld","lat":50.81667,"lng":9.85},{"id":28963,"name":"Schlangenbad","lat":50.09322,"lng":8.10312},{"id":28980,"name":"Schlitz","lat":50.67416,"lng":9.56102},{"id":28984,"name":"Schlüchtern","lat":50.34891,"lng":9.52532},{"id":28997,"name":"Schmitten","lat":50.26667,"lng":8.45},{"id":29099,"name":"Schöffengrund","lat":50.49345,"lng":8.47183},{"id":29027,"name":"Schotten","lat":50.50346,"lng":9.12516},{"id":29030,"name":"Schrecksbach","lat":50.83333,"lng":9.28333},{"id":29050,"name":"Schwalbach","lat":50.49672,"lng":8.46943},{"id":29051,"name":"Schwalbach am Taunus","lat":50.15,"lng":8.53333},{"id":29053,"name":"Schwalmstadt","lat":50.93333,"lng":9.21667},{"id":29055,"name":"Schwalmtal","lat":50.68333,"lng":9.21667},{"id":29071,"name":"Schwarzenborn","lat":50.90977,"lng":9.44658},{"id":29155,"name":"Seeheim-Jugenheim","lat":49.765,"lng":8.65194},{"id":29179,"name":"Seligenstadt","lat":50.0432,"lng":8.97394},{"id":29185,"name":"Selters","lat":50.51681,"lng":8.28953},{"id":29243,"name":"Sinn","lat":50.65,"lng":8.33333},{"id":29490,"name":"Södel","lat":50.39382,"lng":8.80474},{"id":29260,"name":"Solms","lat":50.5362,"lng":8.40704},{"id":29279,"name":"Sontra","lat":51.07171,"lng":9.93558},{"id":29287,"name":"Spangenberg","lat":51.11644,"lng":9.6627},{"id":29319,"name":"Stadtallendorf","lat":50.82261,"lng":9.01294},{"id":29346,"name":"Staufenberg","lat":50.66197,"lng":8.73158},{"id":29350,"name":"Steeden","lat":50.41539,"lng":8.12748},{"id":29362,"name":"Steinau an der Straße","lat":50.31401,"lng":9.46335},{"id":29365,"name":"Steinbach am Taunus","lat":50.16774,"lng":8.57278},{"id":29414,"name":"Stockstadt am Rhein","lat":49.80944,"lng":8.47278},{"id":29468,"name":"Sulzbach","lat":50.13396,"lng":8.52797},{"id":29520,"name":"Tann","lat":50.64284,"lng":10.02385},{"id":29537,"name":"Taunusstein","lat":50.14993,"lng":8.15206},{"id":29653,"name":"Trebur","lat":49.92639,"lng":8.40732},{"id":29660,"name":"Trendelburg","lat":51.57408,"lng":9.42095},{"id":29715,"name":"Udenhausen","lat":51.46385,"lng":9.46335},{"id":29739,"name":"Ulrichstein","lat":50.5755,"lng":9.19272},{"id":29751,"name":"Unter-Abtsteinach","lat":49.52711,"lng":8.78679},{"id":29798,"name":"Usingen","lat":50.33554,"lng":8.53688},{"id":29829,"name":"Vellmar","lat":51.35806,"lng":9.47974},{"id":29848,"name":"Viernheim","lat":49.54033,"lng":8.5782},{"id":29854,"name":"Villmar","lat":50.39287,"lng":8.1931},{"id":29887,"name":"Vöhl","lat":51.20565,"lng":8.9451},{"id":29875,"name":"Volkmarsen","lat":51.40895,"lng":9.11814},{"id":29899,"name":"Wabern","lat":51.1,"lng":9.35},{"id":30436,"name":"Wächtersbach","lat":50.25511,"lng":9.29564},{"id":29933,"name":"Wald-Michelbach","lat":49.57,"lng":8.83167},{"id":29938,"name":"Waldbrunn","lat":50.51875,"lng":8.10812},{"id":29943,"name":"Waldeck","lat":51.20618,"lng":9.06286},{"id":29944,"name":"Waldems","lat":50.25,"lng":8.33333},{"id":29953,"name":"Waldkappel","lat":51.14462,"lng":9.87695},{"id":29988,"name":"Walluf","lat":50.04003,"lng":8.15545},{"id":30001,"name":"Wanfried","lat":51.18207,"lng":10.17283},{"id":30062,"name":"Wehrheim","lat":50.3,"lng":8.56667},{"id":30085,"name":"Weilburg","lat":50.48438,"lng":8.26249},{"id":30094,"name":"Weilmünster","lat":50.43143,"lng":8.37673},{"id":30097,"name":"Weinbach","lat":50.43843,"lng":8.29133},{"id":30118,"name":"Weiterstadt","lat":49.9039,"lng":8.58874},{"id":30224,"name":"Wetter","lat":50.90254,"lng":8.72366},{"id":30230,"name":"Wetzlar","lat":50.56109,"lng":8.50495},{"id":30254,"name":"Wiesbaden","lat":50.08258,"lng":8.24932},{"id":30295,"name":"Willingen","lat":51.29418,"lng":8.6091},{"id":30296,"name":"Willingshausen","lat":50.85,"lng":9.2},{"id":30367,"name":"Witzenhausen","lat":51.34103,"lng":9.8554},{"id":30372,"name":"Wohnbach","lat":50.42864,"lng":8.82923},{"id":30439,"name":"Wölfersheim","lat":50.4,"lng":8.81667},{"id":30382,"name":"Wolfhagen","lat":51.32611,"lng":9.17015},{"id":30503,"name":"Zierenberg","lat":51.36948,"lng":9.30164},{"id":30537,"name":"Zwingenberg","lat":49.72389,"lng":8.61084}]