[{"id":15735,"name":"Gaborone","lat":-24.76234,"lng":25.7995},{"id":15741,"name":"Janeng","lat":-25.41667,"lng":25.55},{"id":15747,"name":"Kopong","lat":-24.48333,"lng":25.88333},{"id":15782,"name":"Otse","lat":-25.01667,"lng":25.73333},{"id":15789,"name":"Ramotswa","lat":-24.87158,"lng":25.86989}]