[{"id":15740,"name":"Hukuntsi","lat":-23.9988,"lng":21.77962},{"id":15743,"name":"Kang","lat":-23.67518,"lng":22.78762},{"id":15748,"name":"Lehututu","lat":-23.96667,"lng":21.86667},{"id":15759,"name":"Manyana","lat":-23.4,"lng":21.71667},{"id":15802,"name":"Tshabong","lat":-26.05,"lng":22.45},{"id":15803,"name":"Werda","lat":-25.26667,"lng":23.28333}]