[{"id":76793,"name":"Bama","lat":11.52134,"lng":13.68952},{"id":76801,"name":"Benisheikh","lat":11.80919,"lng":12.49151},{"id":76808,"name":"Biu","lat":10.61285,"lng":12.19458},{"id":76814,"name":"Bornu Yassu","lat":12.27503,"lng":12.56856},{"id":76825,"name":"Damasak","lat":13.10518,"lng":12.50854},{"id":76827,"name":"Damboa","lat":11.15534,"lng":12.75638},{"id":76842,"name":"Dikwa","lat":12.03609,"lng":13.91815},{"id":76874,"name":"Gamboru","lat":12.37299,"lng":14.2069},{"id":76901,"name":"Gwoza","lat":11.08313,"lng":13.69595},{"id":76991,"name":"Kukawa","lat":12.92475,"lng":13.56617},{"id":77016,"name":"Magumeri","lat":12.11451,"lng":12.8262},{"id":77018,"name":"Maiduguri","lat":11.84692,"lng":13.15712},{"id":77024,"name":"Marte","lat":12.36532,"lng":13.8293},{"id":77030,"name":"Miringa","lat":10.73115,"lng":12.14626},{"id":77033,"name":"Monguno","lat":12.67059,"lng":13.61224},{"id":77040,"name":"Ngala","lat":12.34053,"lng":14.1867},{"id":77101,"name":"Shaffa","lat":10.50673,"lng":12.33315},{"id":77103,"name":"Shani","lat":10.21824,"lng":12.06059},{"id":77113,"name":"Tokombere","lat":11.22135,"lng":13.48783},{"id":77117,"name":"Uba","lat":10.45509,"lng":13.22233},{"id":77138,"name":"Wuyo","lat":10.38522,"lng":11.69678},{"id":77139,"name":"Yajiwa","lat":11.38623,"lng":12.71992}]