[{"id":76925,"name":"Iho","lat":5.58225,"lng":7.09896},{"id":77055,"name":"Oguta","lat":5.71044,"lng":6.80936},{"id":77062,"name":"Okigwe","lat":5.82917,"lng":7.35056},{"id":77073,"name":"Orlu","lat":5.79565,"lng":7.03513},{"id":77074,"name":"Orodo","lat":5.61667,"lng":7.03333},{"id":77078,"name":"Owerri","lat":5.48363,"lng":7.03325}]