[{"id":76752,"name":"Ado-Ekiti","lat":7.62329,"lng":5.22087},{"id":76777,"name":"Aramoko-Ekiti","lat":7.70483,"lng":5.04054},{"id":76853,"name":"Efon-Alaaye","lat":7.65649,"lng":4.92235},{"id":76860,"name":"Emure-Ekiti","lat":7.43636,"lng":5.45925},{"id":76913,"name":"Ifaki","lat":7.78942,"lng":5.24852},{"id":76917,"name":"Igbara-Odo","lat":7.50251,"lng":5.06258},{"id":76923,"name":"Igede-Ekiti","lat":7.6685,"lng":5.12627},{"id":76930,"name":"Ijero-Ekiti","lat":7.81514,"lng":5.06716},{"id":76934,"name":"Ikere-Ekiti","lat":7.49748,"lng":5.23041},{"id":157075,"name":"Ilawe-Ekiti","lat":7.5949427,"lng":5.10340682},{"id":76950,"name":"Ipoti","lat":7.87377,"lng":5.07691},{"id":76953,"name":"Ise-Ekiti","lat":7.46478,"lng":5.42333},{"id":77058,"name":"Oke Ila","lat":7.95,"lng":4.98333},{"id":77066,"name":"Omuo-Ekiti","lat":7.75833,"lng":5.72227},{"id":157076,"name":"Oye-Ekiti","lat":7.79803574,"lng":5.32854717}]