[{"id":67950,"name":"Chipoka","lat":-13.99329,"lng":34.51566},{"id":67955,"name":"Dedza","lat":-14.3779,"lng":34.33322},{"id":67956,"name":"Dedza District","lat":-14.26273,"lng":34.18559},{"id":67957,"name":"Dowa","lat":-13.65399,"lng":33.93754},{"id":67958,"name":"Dowa District","lat":-13.60098,"lng":33.82378},{"id":67961,"name":"Kasungu","lat":-13.03333,"lng":33.48333},{"id":67962,"name":"Kasungu District","lat":-13.0,"lng":33.41667},{"id":67964,"name":"Lilongwe","lat":-13.96692,"lng":33.78725},{"id":67965,"name":"Lilongwe District","lat":-14.01962,"lng":33.68407},{"id":67973,"name":"Mchinji","lat":-13.79841,"lng":32.88019},{"id":67974,"name":"Mchinji District","lat":-13.7623,"lng":33.07998},{"id":67976,"name":"Mponela","lat":-13.53194,"lng":33.74008},{"id":67987,"name":"Nkhotakota","lat":-12.92744,"lng":34.29614},{"id":67988,"name":"Nkhotakota District","lat":-12.80417,"lng":34.08298},{"id":67991,"name":"Ntcheu","lat":-14.82027,"lng":34.63586},{"id":67992,"name":"Ntcheu District","lat":-14.75,"lng":34.75},{"id":67993,"name":"Ntchisi","lat":-13.52775,"lng":33.9149},{"id":67994,"name":"Ntchisi District","lat":-13.29574,"lng":33.90798},{"id":67999,"name":"Salima","lat":-13.7804,"lng":34.4587},{"id":68000,"name":"Salima District","lat":-13.71959,"lng":34.40184}]