[{"id":76763,"name":"Akko","lat":10.28899,"lng":10.9732},{"id":76794,"name":"Bara","lat":10.37444,"lng":10.72884},{"id":76802,"name":"Billiri","lat":9.86545,"lng":11.22624},{"id":76823,"name":"Dadiya","lat":9.61667,"lng":11.43333},{"id":76839,"name":"Deba","lat":10.21187,"lng":11.3871},{"id":76846,"name":"Dukku","lat":10.82379,"lng":10.77221},{"id":76877,"name":"Garko","lat":10.17506,"lng":11.16458},{"id":76884,"name":"Gombe","lat":10.28969,"lng":11.16729},{"id":76903,"name":"Hinna","lat":10.30426,"lng":11.49905},{"id":76968,"name":"Kafarati","lat":10.38304,"lng":11.09567},{"id":76973,"name":"Kaltungo","lat":9.81998,"lng":11.30871},{"id":76993,"name":"Kumo","lat":10.04807,"lng":11.21055},{"id":77037,"name":"Nafada","lat":11.09596,"lng":11.33261},{"id":77088,"name":"Pindiga","lat":9.98433,"lng":10.95229}]