[{"id":67953,"name":"Chitipa","lat":-9.70237,"lng":33.26969},{"id":67954,"name":"Chitipa District","lat":-9.92727,"lng":33.42541},{"id":67959,"name":"Karonga","lat":-9.93333,"lng":33.93333},{"id":67960,"name":"Karonga District","lat":-10.11153,"lng":33.88151},{"id":67963,"name":"Likoma","lat":-12.06065,"lng":34.73608},{"id":67966,"name":"Livingstonia","lat":-10.60602,"lng":34.10628},{"id":67981,"name":"Mzimba","lat":-11.9,"lng":33.6},{"id":67982,"name":"Mzimba District","lat":-11.85428,"lng":33.60778},{"id":67983,"name":"Mzuzu","lat":-11.46556,"lng":34.02071},{"id":67985,"name":"Nkhata Bay","lat":-11.60659,"lng":34.29073},{"id":67986,"name":"Nkhata Bay District","lat":-11.65304,"lng":34.05322},{"id":67997,"name":"Rumphi","lat":-11.01863,"lng":33.85746},{"id":67998,"name":"Rumphi District","lat":-10.80292,"lng":33.80524}]