[{"id":76831,"name":"Danja","lat":11.3771,"lng":7.56097},{"id":76833,"name":"Dankama","lat":13.29782,"lng":7.79492},{"id":76837,"name":"Daura","lat":13.03299,"lng":8.32351},{"id":76850,"name":"Dutsin-Ma","lat":12.45392,"lng":7.49723},{"id":76870,"name":"Funtua","lat":11.47196,"lng":7.30699},{"id":76887,"name":"Gora","lat":11.91294,"lng":7.66531},{"id":76960,"name":"Jibia","lat":13.09378,"lng":7.22624},{"id":76961,"name":"Jikamshi","lat":12.17328,"lng":7.77424},{"id":76976,"name":"Kankara","lat":11.93114,"lng":7.41115},{"id":76979,"name":"Katsina","lat":12.99082,"lng":7.60177},{"id":77026,"name":"Mashi","lat":12.98044,"lng":7.94703},{"id":77093,"name":"Ruma","lat":12.8626,"lng":7.23469},{"id":77094,"name":"Runka","lat":12.44788,"lng":7.30918},{"id":77131,"name":"Wagini","lat":12.68781,"lng":7.19579}]