[{"id":76748,"name":"Abraka","lat":5.79023,"lng":6.10473},{"id":76756,"name":"Agbor","lat":6.25375,"lng":6.1942},{"id":76780,"name":"Asaba","lat":6.19824,"lng":6.73187},{"id":76813,"name":"Bomadi","lat":5.16073,"lng":5.92375},{"id":76820,"name":"Burutu","lat":5.35328,"lng":5.50826},{"id":76996,"name":"Kwale","lat":5.70773,"lng":6.43402},{"id":77047,"name":"Obiaruku","lat":5.84672,"lng":6.1529},{"id":77056,"name":"Ogwashi-Uku","lat":6.17811,"lng":6.52461},{"id":77071,"name":"Orerokpe","lat":5.63747,"lng":5.89013},{"id":77086,"name":"Patani","lat":5.22885,"lng":6.19139},{"id":77099,"name":"Sapele","lat":5.89405,"lng":5.67666},{"id":77123,"name":"Ughelli","lat":5.48956,"lng":6.00407},{"id":77126,"name":"Umunede","lat":6.26549,"lng":6.30962},{"id":77133,"name":"Warri","lat":5.51737,"lng":5.75006}]