[{"id":9179,"name":"Gourcy","lat":13.20776,"lng":-2.35893},{"id":9194,"name":"Ouahigouya","lat":13.58278,"lng":-2.42158},{"id":9220,"name":"Province du Loroum","lat":13.91667,"lng":-2.16667},{"id":9225,"name":"Province du Passoré","lat":12.91667,"lng":-2.16667},{"id":9234,"name":"Province du Yatenga","lat":13.58333,"lng":-2.41667},{"id":9236,"name":"Province du Zondoma","lat":13.18333,"lng":-2.36667},{"id":9243,"name":"Titao","lat":13.76667,"lng":-2.06667},{"id":9246,"name":"Yako","lat":12.9591,"lng":-2.26075}]