[{"id":76783,"name":"Auna","lat":10.18805,"lng":4.72318},{"id":76787,"name":"Babana","lat":10.42949,"lng":3.81495},{"id":76790,"name":"Badeggi","lat":9.0563,"lng":6.143},{"id":76795,"name":"Baro","lat":8.61565,"lng":6.4185},{"id":76812,"name":"Bokani","lat":9.43333,"lng":5.2},{"id":76847,"name":"Duku","lat":11.2361,"lng":4.90727},{"id":76907,"name":"Ibeto","lat":10.48536,"lng":5.14501},{"id":76986,"name":"Konkwesso","lat":10.84686,"lng":4.09835},{"id":76987,"name":"Kontagora","lat":10.40319,"lng":5.4708},{"id":76994,"name":"Kusheriki","lat":10.53283,"lng":6.44222},{"id":76995,"name":"Kuta","lat":9.86864,"lng":6.71042},{"id":77007,"name":"Lapai","lat":9.04439,"lng":6.57089},{"id":77029,"name":"Minna","lat":9.61524,"lng":6.54776},{"id":77039,"name":"New Shagunnu","lat":10.33957,"lng":4.4688},{"id":77108,"name":"Suleja","lat":9.18059,"lng":7.17939},{"id":77112,"name":"Tegina","lat":10.0706,"lng":6.1906},{"id":77124,"name":"Ukata","lat":10.83122,"lng":5.82494},{"id":77135,"name":"Wawa","lat":9.90222,"lng":4.41917},{"id":77152,"name":"Zungeru","lat":9.80726,"lng":6.15238}]