[{"id":85330,"name":"Adilpur","lat":27.93677,"lng":69.31941},{"id":85344,"name":"Badin","lat":24.656,"lng":68.837},{"id":85346,"name":"Bagarji","lat":27.75431,"lng":68.75866},{"id":85350,"name":"Bandhi","lat":26.58761,"lng":68.30215},{"id":85361,"name":"Berani","lat":25.78497,"lng":68.80754},{"id":85365,"name":"Bhan","lat":26.55831,"lng":67.72139},{"id":85369,"name":"Bhiria","lat":26.91041,"lng":68.19466},{"id":85370,"name":"Bhit Shah","lat":25.80565,"lng":68.49143},{"id":85372,"name":"Bozdar Wada","lat":27.183,"lng":68.6358},{"id":85373,"name":"Bulri","lat":24.86667,"lng":68.33333},{"id":85377,"name":"Chak","lat":27.85838,"lng":68.83378},{"id":85386,"name":"Chamber","lat":25.29362,"lng":68.81176},{"id":85391,"name":"Chhor","lat":25.5126,"lng":69.78437},{"id":85399,"name":"Chuhar Jamali","lat":24.3944,"lng":67.99298},{"id":85403,"name":"Dadu","lat":26.73033,"lng":67.7769},{"id":85408,"name":"Daromehar","lat":24.79382,"lng":68.17978},{"id":85410,"name":"Darya Khan Marri","lat":26.67765,"lng":68.28666},{"id":85413,"name":"Daulatpur","lat":26.50158,"lng":67.97079},{"id":85415,"name":"Daur","lat":26.45528,"lng":68.31835},{"id":85423,"name":"Dhoro Naro","lat":25.50484,"lng":69.5709},{"id":85424,"name":"Digri","lat":25.15657,"lng":69.11098},{"id":85429,"name":"Diplo","lat":24.46688,"lng":69.58114},{"id":85431,"name":"Dokri","lat":27.37421,"lng":68.09715},{"id":85443,"name":"Gambat","lat":27.3517,"lng":68.5215},{"id":85446,"name":"Garhiyasin","lat":27.90631,"lng":68.5121},{"id":85447,"name":"Gharo","lat":24.74182,"lng":67.58534},{"id":85448,"name":"Ghauspur","lat":28.13882,"lng":69.08245},{"id":85449,"name":"Ghotki","lat":28.00437,"lng":69.31569},{"id":85452,"name":"Goth Garelo","lat":27.43521,"lng":68.07572},{"id":85453,"name":"Goth Phulji","lat":26.88099,"lng":67.68239},{"id":85454,"name":"Goth Radhan","lat":27.19846,"lng":67.95348},{"id":85462,"name":"Hala","lat":25.81459,"lng":68.42198},{"id":85472,"name":"Hingorja","lat":27.21088,"lng":68.41598},{"id":85474,"name":"Hyderabad","lat":25.39242,"lng":68.37366},{"id":85476,"name":"Islamkot","lat":24.69904,"lng":70.17982},{"id":85477,"name":"Jacobabad","lat":28.28187,"lng":68.43761},{"id":85498,"name":"Jām Sāhib","lat":26.29583,"lng":68.62917},{"id":85482,"name":"Jamshoro","lat":25.43608,"lng":68.28017},{"id":85486,"name":"Jati","lat":24.35492,"lng":68.26732},{"id":85494,"name":"Jhol","lat":25.95533,"lng":68.88871},{"id":85496,"name":"Johi","lat":26.69225,"lng":67.61431},{"id":85500,"name":"Kadhan","lat":24.48041,"lng":68.98551},{"id":85514,"name":"Kambar","lat":27.58753,"lng":68.00066},{"id":85517,"name":"Kandhkot","lat":28.24574,"lng":69.17974},{"id":85518,"name":"Kandiari","lat":26.9155,"lng":68.52193},{"id":85519,"name":"Kandiaro","lat":27.05918,"lng":68.21022},{"id":85521,"name":"Karachi","lat":24.8608,"lng":67.0104},{"id":85523,"name":"Karaundi","lat":26.89709,"lng":68.40643},{"id":85524,"name":"Kario Ghanwar","lat":24.80817,"lng":68.60483},{"id":85526,"name":"Kashmor","lat":28.4326,"lng":69.58364},{"id":85529,"name":"Keti Bandar","lat":24.14422,"lng":67.45094},{"id":85531,"name":"Khadro","lat":26.14713,"lng":68.71777},{"id":85532,"name":"Khairpur","lat":28.06437,"lng":69.70363},{"id":85533,"name":"Khairpur Mir’s","lat":27.52948,"lng":68.75915},{"id":85534,"name":"Khairpur Nathan Shah","lat":27.09064,"lng":67.73489},{"id":85542,"name":"Khanpur Mahar","lat":27.84088,"lng":69.41302},{"id":85554,"name":"Kot Diji","lat":27.34156,"lng":68.70821},{"id":85565,"name":"Kotri","lat":25.36566,"lng":68.30831},{"id":85569,"name":"Kunri","lat":25.17874,"lng":69.56572},{"id":85573,"name":"Lakhi","lat":27.84884,"lng":68.69972},{"id":85578,"name":"Larkana","lat":27.55898,"lng":68.21204},{"id":85587,"name":"Madeji","lat":27.75314,"lng":68.45166},{"id":85591,"name":"Malir Cantonment","lat":24.94343,"lng":67.20591},{"id":85601,"name":"Matiari","lat":25.59709,"lng":68.4467},{"id":85602,"name":"Matli","lat":25.0429,"lng":68.65591},{"id":85603,"name":"Mehar","lat":27.18027,"lng":67.82051},{"id":85612,"name":"Miro Khan","lat":27.75985,"lng":68.09195},{"id":85613,"name":"Mirpur Bhtoro","lat":24.72852,"lng":68.2601},{"id":85615,"name":"Mirpur Khas","lat":25.5276,"lng":69.01255},{"id":85616,"name":"Mirpur Mathelo","lat":28.02136,"lng":69.54914},{"id":85617,"name":"Mirpur Sakro","lat":24.54692,"lng":67.62797},{"id":85618,"name":"Mirwah Gorchani","lat":25.30981,"lng":69.05019},{"id":85620,"name":"Mithi","lat":24.73701,"lng":69.79707},{"id":85621,"name":"Moro","lat":26.66317,"lng":68.00016},{"id":85630,"name":"Nabisar","lat":25.06717,"lng":69.6434},{"id":85634,"name":"Nasirabad","lat":27.38137,"lng":67.91644},{"id":85636,"name":"Naudero","lat":27.66684,"lng":68.3609},{"id":85637,"name":"Naukot","lat":24.85822,"lng":69.40153},{"id":85639,"name":"Naushahro Firoz","lat":26.8401,"lng":68.12265},{"id":85640,"name":"Nawabshah","lat":26.23939,"lng":68.40369},{"id":85642,"name":"New Bādāh","lat":27.34167,"lng":68.03194},{"id":85653,"name":"Pad Idan","lat":26.77455,"lng":68.30094},{"id":85657,"name":"Pano Aqil","lat":27.85619,"lng":69.11111},{"id":85666,"name":"Pir Jo Goth","lat":27.59178,"lng":68.61848},{"id":85669,"name":"Pithoro","lat":25.51122,"lng":69.37803},{"id":85678,"name":"Rajo Khanani","lat":24.98391,"lng":68.8537},{"id":85679,"name":"Ranipur","lat":27.2872,"lng":68.50623},{"id":85681,"name":"Ratodero","lat":27.80227,"lng":68.28902},{"id":85687,"name":"Rohri","lat":27.69203,"lng":68.89503},{"id":85689,"name":"Rustam","lat":27.96705,"lng":68.80386},{"id":85692,"name":"Sakrand","lat":26.13845,"lng":68.27444},{"id":85693,"name":"Samaro","lat":25.28143,"lng":69.39623},{"id":85695,"name":"Sanghar","lat":26.04694,"lng":68.94917},{"id":85698,"name":"Sann","lat":26.0403,"lng":68.13763},{"id":85703,"name":"Sehwan","lat":26.42495,"lng":67.86126},{"id":85704,"name":"Setharja Old","lat":27.2127,"lng":68.46883},{"id":85706,"name":"Shahdad Kot","lat":27.84726,"lng":67.90679},{"id":85707,"name":"Shahdadpur","lat":25.92539,"lng":68.6228},{"id":85710,"name":"Shahpur Chakar","lat":26.15411,"lng":68.65013},{"id":85715,"name":"Shikarpur","lat":27.95558,"lng":68.63823},{"id":85723,"name":"Sinjhoro","lat":26.03008,"lng":68.80867},{"id":85734,"name":"Sīta Road","lat":27.03333,"lng":67.85},{"id":85725,"name":"Sobhodero","lat":27.30475,"lng":68.39715},{"id":85730,"name":"Sukkur","lat":27.70323,"lng":68.85889},{"id":85737,"name":"Talhar","lat":24.88454,"lng":68.81437},{"id":85739,"name":"Tando Adam","lat":25.76818,"lng":68.66196},{"id":85740,"name":"Tando Allahyar","lat":25.4605,"lng":68.71745},{"id":85741,"name":"Tando Bago","lat":24.78914,"lng":68.96535},{"id":85742,"name":"Tando Jam","lat":25.42813,"lng":68.52923},{"id":85743,"name":"Tando Mitha Khan","lat":25.99625,"lng":69.20251},{"id":85744,"name":"Tando Muhammad Khan","lat":25.12384,"lng":68.53677},{"id":85746,"name":"Tangwani","lat":28.27886,"lng":68.9976},{"id":85750,"name":"Tharu Shah","lat":26.9423,"lng":68.11759},{"id":85751,"name":"Thatta","lat":24.74745,"lng":67.92353},{"id":85752,"name":"Thul","lat":28.2403,"lng":68.7755},{"id":85756,"name":"Ubauro","lat":28.16429,"lng":69.73114},{"id":85757,"name":"Umarkot","lat":25.36329,"lng":69.74184},{"id":85758,"name":"Umerkot","lat":25.37,"lng":69.73},{"id":85765,"name":"Warah","lat":27.44805,"lng":67.79654}]