[{"id":129789,"name":"Carmelo","lat":-34.00023,"lng":-58.28402},{"id":129795,"name":"Colonia del Sacramento","lat":-34.46262,"lng":-57.83976},{"id":129804,"name":"Florencio Sánchez","lat":-33.87785,"lng":-57.37166},{"id":129813,"name":"Juan L. Lacaze","lat":-34.41888,"lng":-57.45285},{"id":129834,"name":"Nueva Helvecia","lat":-34.3,"lng":-57.23333},{"id":129835,"name":"Nueva Palmira","lat":-33.87031,"lng":-58.41176},{"id":129837,"name":"Ombúes de Lavalle","lat":-33.93783,"lng":-57.80959},{"id":129855,"name":"Rosario","lat":-34.31667,"lng":-57.35},{"id":129879,"name":"Tarariras","lat":-34.26555,"lng":-57.61866}]