[{"id":129773,"name":"Aceguá","lat":-31.87178,"lng":-54.16351},{"id":129808,"name":"Isidoro Noblía","lat":-31.96218,"lng":-54.12309},{"id":129827,"name":"Melo","lat":-32.37028,"lng":-54.1675},{"id":129856,"name":"Río Branco","lat":-32.59802,"lng":-53.38583},{"id":129885,"name":"Tupambaé","lat":-32.83333,"lng":-54.76667}]