[{"id":129803,"name":"Estación Porvenir","lat":-32.37085,"lng":-57.85371},{"id":129807,"name":"Guichón","lat":-32.35846,"lng":-57.19778},{"id":129844,"name":"Paysandú","lat":-32.3171,"lng":-58.08072},{"id":129845,"name":"Piedras Coloradas","lat":-32.37183,"lng":-57.60901},{"id":129850,"name":"Quebracho","lat":-31.93526,"lng":-57.9014},{"id":129861,"name":"San Félix","lat":-32.34631,"lng":-58.10094}]