[{"id":129810,"name":"José Batlle y Ordóñez","lat":-33.46667,"lng":-55.11667},{"id":129812,"name":"José Pedro Varela","lat":-33.45451,"lng":-54.53586},{"id":129826,"name":"Mariscala","lat":-34.04085,"lng":-54.77732},{"id":129830,"name":"Minas","lat":-34.37589,"lng":-55.23771},{"id":129876,"name":"Solís de Mataojo","lat":-34.59951,"lng":-55.46808}]