[{"id":129771,"name":"25 de Agosto","lat":-34.41167,"lng":-56.40222},{"id":129772,"name":"25 de Mayo","lat":-34.18917,"lng":-56.33944},{"id":129776,"name":"Alejandro Gallinal","lat":-33.86252,"lng":-55.54264},{"id":129786,"name":"Cardal","lat":-34.29056,"lng":-56.38889},{"id":129791,"name":"Casupá","lat":-34.09994,"lng":-55.64811},{"id":129805,"name":"Florida","lat":-34.09556,"lng":-56.21417},{"id":129872,"name":"Sarandí Grande","lat":-33.73333,"lng":-56.33333}]