[{"id":153689,"name":"Aires Puros","lat":-34.852,"lng":-56.183},{"id":153690,"name":"Arroyo Seco","lat":-34.804,"lng":-56.277},{"id":153691,"name":"Atahualpa","lat":-34.809,"lng":-56.23},{"id":153692,"name":"Bañados de Carrasco","lat":-34.821,"lng":-56.067},{"id":153693,"name":"Barra de Carrasco","lat":-34.884,"lng":-56.047},{"id":153694,"name":"Barrio Sur","lat":-34.908,"lng":-56.194},{"id":153695,"name":"Bella Italia","lat":-34.856,"lng":-56.155},{"id":149276,"name":"Bella Vista","lat":-34.87527778,"lng":-56.18666667},{"id":149277,"name":"Belvedere","lat":-34.85155556,"lng":-56.21611111},{"id":149278,"name":"Buceo","lat":-34.9,"lng":-56.13305556},{"id":153696,"name":"Capurro","lat":-34.905,"lng":-56.217},{"id":149280,"name":"Carrasco","lat":-34.88333333,"lng":-56.06666667},{"id":153697,"name":"Carrasco Norte","lat":-34.868,"lng":-56.043},{"id":149281,"name":"Casabó","lat":-34.86388889,"lng":-56.34111111},{"id":153698,"name":"Casavalle","lat":-34.843,"lng":-56.203},{"id":149282,"name":"Centro","lat":-34.90361111,"lng":-56.18833333},{"id":153699,"name":"Cerrito","lat":-34.815,"lng":-56.225},{"id":149307,"name":"Cerro","lat":-34.88444444,"lng":-56.25138889},{"id":153700,"name":"Ciudad Vieja","lat":-34.908,"lng":-56.204},{"id":153701,"name":"Colón","lat":-34.865,"lng":-56.18},{"id":149286,"name":"Conciliación","lat":-34.82361111,"lng":-56.23194444},{"id":149287,"name":"Cordón","lat":-34.9,"lng":-56.17858333},{"id":149288,"name":"Flor de Maroñas","lat":-34.85055556,"lng":-56.12472222},{"id":153702,"name":"Goes","lat":-34.875,"lng":-56.192},{"id":149289,"name":"Ituzaingó","lat":-34.8475,"lng":-56.14361111},{"id":153703,"name":"Jacinto Vera","lat":-34.883,"lng":-56.166},{"id":153704,"name":"Jardines del Hipódromo","lat":-34.881,"lng":-56.153},{"id":153705,"name":"La Blanqueada","lat":-34.897,"lng":-56.185},{"id":153706,"name":"La Comercial","lat":-34.894,"lng":-56.197},{"id":153707,"name":"La Figurita","lat":-34.886,"lng":-56.203},{"id":153708,"name":"La Teja","lat":-34.862,"lng":-56.236},{"id":149290,"name":"La Unión","lat":-34.87861111,"lng":-56.13583333},{"id":153709,"name":"Larrañaga","lat":-34.861,"lng":-56.163},{"id":153710,"name":"Las Acacias","lat":-34.855,"lng":-56.17},{"id":153711,"name":"Lezica","lat":-34.846,"lng":-56.223},{"id":149291,"name":"Malvín","lat":-34.89352778,"lng":-56.09994444},{"id":153712,"name":"Malvín Norte","lat":-34.878,"lng":-56.083},{"id":149292,"name":"Manga","lat":-34.80722222,"lng":-56.13805556},{"id":153713,"name":"Marconi","lat":-34.862,"lng":-56.147},{"id":149293,"name":"Maroñas","lat":-34.86338889,"lng":-56.12963889},{"id":153714,"name":"Melilla","lat":-34.837,"lng":-56.259},{"id":153715,"name":"Mercado Modelo","lat":-34.856,"lng":-56.202},{"id":129833,"name":"Montevideo","lat":-34.90328,"lng":-56.18816},{"id":149294,"name":"Nuevo París","lat":-34.83333333,"lng":-56.25},{"id":129838,"name":"Pajas Blancas","lat":-34.80167,"lng":-56.33417},{"id":153716,"name":"Palermo","lat":-34.903,"lng":-56.182},{"id":153717,"name":"Parque Batlle","lat":-34.9,"lng":-56.18},{"id":153718,"name":"Parque Rodó","lat":-34.908,"lng":-56.171},{"id":153719,"name":"Paso de la Arena","lat":-34.861,"lng":-56.239},{"id":149295,"name":"Paso Molino","lat":-34.85,"lng":-56.21666667},{"id":149296,"name":"Peñarol","lat":-34.82519444,"lng":-56.19916667},{"id":153720,"name":"Perez Castellanos","lat":-34.843,"lng":-56.213},{"id":149297,"name":"Piedras Blancas","lat":-34.82361111,"lng":-56.14027778},{"id":149298,"name":"Pocitos","lat":-34.90833333,"lng":-56.15},{"id":153721,"name":"Prado","lat":-34.856,"lng":-56.204},{"id":149299,"name":"Punta Carretas","lat":-34.92188889,"lng":-56.15944444},{"id":153723,"name":"Punta de Rieles","lat":-34.847,"lng":-56.252},{"id":153722,"name":"Punta Espinillo","lat":-34.835,"lng":-56.286},{"id":149300,"name":"Punta Gorda","lat":-34.88647222,"lng":-56.08983333},{"id":149301,"name":"Reducto","lat":-34.87831944,"lng":-56.18957778},{"id":129871,"name":"Santiago Vázquez","lat":-34.79028,"lng":-56.35},{"id":149302,"name":"Sayago","lat":-34.83583333,"lng":-56.2125},{"id":149303,"name":"Tres Cruces","lat":-34.89583333,"lng":-56.16805556},{"id":153724,"name":"Tres Ombues","lat":-34.766,"lng":-56.33},{"id":149304,"name":"Villa Española","lat":-34.86388889,"lng":-56.14472222},{"id":149305,"name":"Villa García","lat":-34.78111,"lng":-56.05333},{"id":149306,"name":"Villa Muñoz","lat":-34.88781389,"lng":-56.17701389}]