[{"id":129787,"name":"Cardona","lat":-33.87049,"lng":-57.36954},{"id":129799,"name":"Dolores","lat":-33.53009,"lng":-58.21701},{"id":129811,"name":"José Enrique Rodó","lat":-33.69618,"lng":-57.53153},{"id":129828,"name":"Mercedes","lat":-33.2524,"lng":-58.03047},{"id":129839,"name":"Palmitas","lat":-33.50719,"lng":-57.80079},{"id":129867,"name":"Santa Catalina","lat":-33.791,"lng":-57.48824},{"id":129891,"name":"Villa Soriano","lat":-33.39811,"lng":-58.32177}]