[{"id":31784,"name":"Al Ḩāmūl","lat":31.31146,"lng":31.14766},{"id":31810,"name":"Disūq","lat":31.13259,"lng":30.64784},{"id":31814,"name":"Fuwwah","lat":31.20365,"lng":30.54908},{"id":31827,"name":"Kafr ash Shaykh","lat":31.11174,"lng":30.93991},{"id":31837,"name":"Markaz Disūq","lat":31.1459,"lng":30.71609},{"id":31845,"name":"Munshāt ‘Alī Āghā","lat":31.15791,"lng":30.70177},{"id":31870,"name":"Sīdī Sālim","lat":31.27133,"lng":30.78617}]