[{"id":31767,"name":"Al Bājūr","lat":30.43046,"lng":31.03679},{"id":31789,"name":"Ash Shuhadā’","lat":30.59683,"lng":30.89931},{"id":31790,"name":"Ashmūn","lat":30.29735,"lng":30.97641},{"id":31846,"name":"Munūf","lat":30.46597,"lng":30.93199},{"id":31854,"name":"Quwaysinā","lat":30.56482,"lng":31.15777},{"id":31863,"name":"Shibīn al Kawm","lat":30.55258,"lng":31.00904},{"id":31871,"name":"Talā","lat":30.6798,"lng":30.94364}]