[{"id":31803,"name":"Dahab","lat":28.48208,"lng":34.49505},{"id":31812,"name":"El-Tor","lat":28.24168,"lng":33.6222},{"id":31849,"name":"Nuwaybi‘a","lat":29.04681,"lng":34.6634},{"id":31859,"name":"Saint Catherine","lat":28.56191,"lng":33.94934},{"id":31862,"name":"Sharm el-Sheikh","lat":27.91582,"lng":34.32995}]