[{"id":31880,"name":"‘Izbat al Burj","lat":31.5084,"lng":31.84106},{"id":31762,"name":"Ajā","lat":30.94162,"lng":31.29039},{"id":31770,"name":"Al Jammālīyah","lat":31.18065,"lng":31.86497},{"id":31775,"name":"Al Manşūrah","lat":31.03637,"lng":31.38069},{"id":31774,"name":"Al Manzalah","lat":31.15823,"lng":31.936},{"id":31776,"name":"Al Maţarīyah","lat":31.18287,"lng":32.03108},{"id":31800,"name":"Bilqās","lat":31.21452,"lng":31.35798},{"id":31808,"name":"Dikirnis","lat":31.08898,"lng":31.59478},{"id":31844,"name":"Minyat an Naşr","lat":31.12624,"lng":31.64313},{"id":31865,"name":"Shirbīn","lat":31.19688,"lng":31.5243},{"id":31876,"name":"Ţalkhā","lat":31.0539,"lng":31.37787}]