[{"id":31809,"name":"Dishnā","lat":26.12467,"lng":32.47598},{"id":31813,"name":"Farshūţ","lat":26.05494,"lng":32.16329},{"id":31822,"name":"Isnā","lat":25.29336,"lng":32.55402},{"id":31831,"name":"Kousa","lat":25.91407,"lng":32.76362},{"id":31847,"name":"Naja' Ḥammādī","lat":26.04949,"lng":32.24142},{"id":31853,"name":"Qinā","lat":26.16418,"lng":32.72671}]