[{"id":153454,"name":"Beau Bassin","lat":-20.225387,"lng":57.471455},{"id":67832,"name":"Beau Bassin-Rose Hill","lat":-20.23325,"lng":57.46609},{"id":153916,"name":"Belle Terre","lat":-20.2694837,"lng":57.5165553},{"id":153911,"name":"Camp Fouqueraux","lat":-20.2856863,"lng":57.5171827},{"id":153914,"name":"Chebel","lat":-20.2137319,"lng":57.4607545},{"id":153913,"name":"Coromandel","lat":-20.1952292,"lng":57.4456534},{"id":67854,"name":"Curepipe","lat":-20.31628,"lng":57.52594},{"id":153456,"name":"Eau Coulee","lat":-20.303366,"lng":57.527788},{"id":67857,"name":"Ebene","lat":-20.24494,"lng":57.49163},{"id":153455,"name":"Floreal","lat":-20.311214,"lng":57.507263},{"id":153457,"name":"Forest Side","lat":-20.329521,"lng":57.538981},{"id":153912,"name":"Glen Park","lat":-20.3244068,"lng":57.4753188},{"id":153915,"name":"Henrietta","lat":-20.2720048,"lng":57.5289887},{"id":153918,"name":"Hermitage","lat":-20.2768508,"lng":57.5347137},{"id":153917,"name":"Highlands","lat":-20.2782748,"lng":57.5135041},{"id":67878,"name":"Midlands","lat":-20.31907,"lng":57.57016},{"id":153910,"name":"Phoenix","lat":-20.2858446,"lng":57.5029186},{"id":67900,"name":"Quatre Bornes","lat":-20.26381,"lng":57.4791},{"id":153453,"name":"Rose Hill","lat":-20.243478,"lng":57.469855},{"id":67920,"name":"Vacoas","lat":-20.29806,"lng":57.47833}]