[{"id":67831,"name":"Bambous Virieux","lat":-20.34278,"lng":57.7575},{"id":67833,"name":"Beau Vallon","lat":-20.41889,"lng":57.69528},{"id":67835,"name":"Bois des Amourettes","lat":-20.36306,"lng":57.73111},{"id":153399,"name":"Camp Carol","lat":-20.461785,"lng":57.678456},{"id":67849,"name":"Cluny","lat":-20.36694,"lng":57.60389},{"id":153400,"name":"Grand Bel Air","lat":-20.409124,"lng":57.681742},{"id":67866,"name":"Grand Sable","lat":-20.31417,"lng":57.76444},{"id":67874,"name":"Mahébourg","lat":-20.40806,"lng":57.7},{"id":153391,"name":"Mare D'Albert","lat":-20.420195,"lng":57.627288},{"id":153392,"name":"Mare Tabac","lat":-20.440358,"lng":57.594215},{"id":67881,"name":"New Grove","lat":-20.40861,"lng":57.61361},{"id":67883,"name":"Nouvelle France","lat":-20.37056,"lng":57.56111},{"id":153398,"name":"Petit Bel Air","lat":-20.399412,"lng":57.692959},{"id":67891,"name":"Plaine Magnien","lat":-20.42967,"lng":57.66968},{"id":153394,"name":"Riviere Des Creoles","lat":-20.39084,"lng":57.69696},{"id":67908,"name":"Rose Belle","lat":-20.40028,"lng":57.59667},{"id":67910,"name":"Saint Hubert","lat":-20.36417,"lng":57.63833},{"id":153401,"name":"Seizieme Mille","lat":-20.342111,"lng":57.549244},{"id":153396,"name":"Trois Boutiques","lat":-20.450461,"lng":57.646829},{"id":153397,"name":"Union Park","lat":-20.386294,"lng":57.58068},{"id":153393,"name":"Vieux Grand Port","lat":-20.374066,"lng":57.716077}]