[{"id":67050,"name":"Aguelmous","lat":33.16139,"lng":-5.84626},{"id":67055,"name":"Al Fqih Ben Çalah","lat":32.50213,"lng":-6.68771},{"id":67072,"name":"Azilal","lat":31.96156,"lng":-6.57109},{"id":67073,"name":"Azilal Province","lat":31.91667,"lng":-6.5},{"id":67077,"name":"Beni Mellal","lat":32.33725,"lng":-6.34983},{"id":67090,"name":"Boujniba","lat":32.90046,"lng":-6.77464},{"id":67096,"name":"Bzou","lat":32.09171,"lng":-7.04786},{"id":67103,"name":"Dar Ould Zidouh","lat":32.31247,"lng":-6.90494},{"id":67105,"name":"Demnate","lat":31.73443,"lng":-7.00505},{"id":67111,"name":"El Ksiba","lat":32.57286,"lng":-6.01947},{"id":67121,"name":"Fquih Ben Salah","lat":32.50108,"lng":-6.68415},{"id":67131,"name":"Ifrane","lat":31.70217,"lng":-6.3494},{"id":67138,"name":"Isseksi","lat":32.22981,"lng":-6.27661},{"id":67139,"name":"Itzer","lat":32.8783,"lng":-5.0515},{"id":67143,"name":"Kasba Tadla","lat":32.5977,"lng":-6.26844},{"id":67148,"name":"Kerrouchen","lat":32.79639,"lng":-5.3188},{"id":67150,"name":"Khenifra","lat":32.93333,"lng":-5.66667},{"id":67151,"name":"Khouribga","lat":32.88108,"lng":-6.9063},{"id":67152,"name":"Khouribga Province","lat":32.93333,"lng":-6.6},{"id":67167,"name":"Midelt","lat":32.6852,"lng":-4.74512},{"id":67176,"name":"Ouaoula","lat":31.87,"lng":-6.75},{"id":67181,"name":"Oued Zem","lat":32.8627,"lng":-6.57359},{"id":67210,"name":"Sidi Jaber","lat":32.38952,"lng":-6.42095},{"id":67254,"name":"Timoulilt","lat":32.20368,"lng":-6.4666},{"id":67266,"name":"Zawyat ech Cheïkh","lat":32.64445,"lng":-5.91826}]