[{"id":106888,"name":"Bayramaly","lat":37.61852,"lng":62.16715},{"id":106899,"name":"Mary","lat":37.59378,"lng":61.83031},{"id":106902,"name":"Serhetabat","lat":35.27992,"lng":62.34383},{"id":106903,"name":"Seydi","lat":39.4816,"lng":62.91374},{"id":106908,"name":"Yolöten","lat":37.29886,"lng":62.35975}]