[{"id":106880,"name":"Abadan","lat":38.05415,"lng":58.19721},{"id":106882,"name":"Annau","lat":37.88754,"lng":58.51596},{"id":106883,"name":"Arçabil","lat":37.915,"lng":58.08987},{"id":106886,"name":"Baharly","lat":38.43624,"lng":57.43158},{"id":106896,"name":"Kaka","lat":37.34821,"lng":59.61431},{"id":106905,"name":"Tejen","lat":37.38338,"lng":60.50545}]