[{"id":9843,"name":"Challapata","lat":-18.90208,"lng":-66.77048},{"id":9868,"name":"Huanuni","lat":-18.289,"lng":-66.83583},{"id":9879,"name":"Litoral de Atacama","lat":-18.76071,"lng":-68.24295},{"id":9882,"name":"Machacamarca","lat":-18.17251,"lng":-67.02099},{"id":9889,"name":"Nor Carangas","lat":-17.8375,"lng":-67.9433},{"id":9891,"name":"Oruro","lat":-17.98333,"lng":-67.15},{"id":9896,"name":"Poopó","lat":-18.38026,"lng":-66.96695},{"id":9906,"name":"Provincia Avaroa","lat":-19.0,"lng":-66.66667},{"id":9915,"name":"Provincia Carangas","lat":-18.33333,"lng":-67.75},{"id":9917,"name":"Provincia Cercado","lat":-17.91667,"lng":-67.08333},{"id":9942,"name":"Provincia Ladislao Cabrera","lat":-19.5,"lng":-67.66667},{"id":9969,"name":"Provincia Pantaleón Dalence","lat":-18.33333,"lng":-66.91667},{"id":9970,"name":"Provincia Poopó","lat":-18.5,"lng":-66.91667},{"id":9976,"name":"Provincia Sabaya","lat":-19.0,"lng":-68.58333},{"id":9977,"name":"Provincia Sajama","lat":-18.2,"lng":-68.55},{"id":9978,"name":"Provincia San Pedro de Totora","lat":-17.83333,"lng":-68.2},{"id":9981,"name":"Provincia Saucari","lat":-18.25,"lng":-67.41667},{"id":9988,"name":"Provincia Tomás Barron","lat":-17.83333,"lng":-68.25},{"id":10000,"name":"Puerto de Mejillones","lat":-18.99266,"lng":-68.68446},{"id":10028,"name":"Sebastian Pagador","lat":-19.21667,"lng":-66.21667},{"id":10032,"name":"Sud Carangas","lat":-18.5,"lng":-68.25},{"id":10040,"name":"Totoral","lat":-18.49587,"lng":-66.8738}]