[{"id":68007,"name":"1ra. Sección de Izapa","lat":14.92083,"lng":-92.17083},{"id":68008,"name":"2da. Sección de Medio Monte","lat":14.88194,"lng":-92.18444},{"id":68013,"name":"Abasolo","lat":16.8214,"lng":-92.21611},{"id":68024,"name":"Acacoyagua","lat":15.41414,"lng":-92.68169},{"id":68029,"name":"Acala","lat":16.55625,"lng":-92.80449},{"id":68036,"name":"Acapetahua","lat":15.28189,"lng":-92.68987},{"id":68089,"name":"Adolfo López Mateos","lat":17.216,"lng":-93.47895},{"id":68101,"name":"Agrónomos Mexicanos","lat":16.35,"lng":-93.53},{"id":68102,"name":"Agua Azul","lat":16.81432,"lng":-91.52391},{"id":68105,"name":"Agua Blanca Serranía","lat":17.26781,"lng":-91.83564},{"id":68120,"name":"Agua Zarca","lat":15.63417,"lng":-92.14472},{"id":68122,"name":"Aguacatenango","lat":16.47388,"lng":-92.40875},{"id":68130,"name":"Agustín de Iturbide","lat":15.07523,"lng":-92.19858},{"id":68135,"name":"Ahuacatlán","lat":15.0403,"lng":-92.18036},{"id":68165,"name":"Ajilhó","lat":16.98376,"lng":-92.93804},{"id":68186,"name":"Aldama","lat":16.91667,"lng":-92.68333},{"id":68195,"name":"Alfonso Moguel","lat":16.6675,"lng":-93.50639},{"id":68224,"name":"Altamirano","lat":16.88333,"lng":-92.15},{"id":76395,"name":"Álvaro Obregón","lat":14.92231,"lng":-92.37813},{"id":68234,"name":"Amado Nervo","lat":17.23107,"lng":-92.24581},{"id":68247,"name":"Amatán","lat":17.36667,"lng":-92.81667},{"id":68237,"name":"Amatenango de la Frontera","lat":15.43333,"lng":-92.11667},{"id":68238,"name":"Amatenango del Valle","lat":16.52722,"lng":-92.43472},{"id":68264,"name":"América Libre","lat":16.61462,"lng":-92.99185},{"id":76404,"name":"Ángel Albino Corzo","lat":15.86624,"lng":-92.72324},{"id":76405,"name":"Ángel Albino Corzo (Guadalupe)","lat":17.12639,"lng":-93.275},{"id":68295,"name":"Apas","lat":16.71066,"lng":-92.79335},{"id":68320,"name":"Aquiles Serdán","lat":14.9398,"lng":-92.51444},{"id":68349,"name":"Arimatea","lat":17.34139,"lng":-91.87639},{"id":68355,"name":"Arriaga","lat":16.23589,"lng":-93.89995},{"id":68358,"name":"Arroyo Grande","lat":17.19122,"lng":-92.87207},{"id":68359,"name":"Arroyo Granizo","lat":17.03716,"lng":-91.42563},{"id":68363,"name":"Arroyo Palenque","lat":17.39167,"lng":-92.10444},{"id":68378,"name":"Arvenza Uno","lat":16.77972,"lng":-92.72028},{"id":68445,"name":"Aurora Ermita","lat":17.23583,"lng":-92.87389},{"id":68446,"name":"Aurora Esquipulas","lat":17.11704,"lng":-92.47626},{"id":68474,"name":"Azteca","lat":16.21775,"lng":-93.94557},{"id":68475,"name":"Aztlán","lat":16.76919,"lng":-92.92316},{"id":68487,"name":"Bachajón","lat":17.03963,"lng":-92.18986},{"id":68504,"name":"Bajucu","lat":16.4752,"lng":-92.06471},{"id":68567,"name":"Bautista Chico","lat":16.79972,"lng":-92.71194},{"id":68570,"name":"Bejucal de Ocampo","lat":15.45535,"lng":-92.15835},{"id":68574,"name":"Belisario Domínguez","lat":15.29944,"lng":-92.38056},{"id":68576,"name":"Bella Vista","lat":15.58333,"lng":-92.21667},{"id":68585,"name":"Benemérito de las Américas","lat":16.51599,"lng":-90.65371},{"id":68601,"name":"Benito Juárez","lat":15.055,"lng":-92.19111},{"id":68611,"name":"Berriozábal","lat":16.8,"lng":-93.26667},{"id":68612,"name":"Betania","lat":16.60639,"lng":-92.52194},{"id":68625,"name":"Bochil","lat":16.99625,"lng":-92.89218},{"id":68626,"name":"Bochojbo Alto","lat":16.73583,"lng":-92.71694},{"id":68649,"name":"Brisas Barra de Suchiate","lat":14.53588,"lng":-92.22414},{"id":68673,"name":"Buenavista","lat":16.24278,"lng":-91.98778},{"id":68676,"name":"Buenavista (Matasanos)","lat":17.10778,"lng":-93.06694},{"id":68686,"name":"Buenos Aires","lat":14.8898,"lng":-92.48121},{"id":68702,"name":"Cabeza de Toro","lat":15.93698,"lng":-93.78256},{"id":68705,"name":"Cacahoatán","lat":14.99201,"lng":-92.16376},{"id":68715,"name":"Cacaté","lat":16.84534,"lng":-92.83485},{"id":69657,"name":"Cálido","lat":17.09889,"lng":-92.7875},{"id":68753,"name":"Calzada Larga","lat":16.35115,"lng":-93.31518},{"id":68786,"name":"Cancuc","lat":16.91667,"lng":-92.48333},{"id":68797,"name":"Cantioc","lat":17.26222,"lng":-92.40694},{"id":68801,"name":"Cantón las Delicias","lat":15.10245,"lng":-92.50002},{"id":68799,"name":"Cantón Rancho Nuevo","lat":15.06742,"lng":-92.52565},{"id":68800,"name":"Cantón Villaflor","lat":15.11424,"lng":-92.35261},{"id":68829,"name":"Carmen Yalchuch","lat":16.64482,"lng":-92.36245},{"id":68830,"name":"Carmen Zacatal","lat":17.08083,"lng":-92.8025},{"id":68837,"name":"Carrillo Puerto","lat":15.0112,"lng":-92.19552},{"id":68856,"name":"Cash","lat":16.26426,"lng":-92.09775},{"id":68862,"name":"Catazajá","lat":17.73333,"lng":-92.01667},{"id":68864,"name":"Catishtic","lat":16.78028,"lng":-92.73778},{"id":68884,"name":"Cebadilla 1ra. Sección","lat":14.86381,"lng":-92.27969},{"id":68895,"name":"Cenobio Aguilar (La Trinidad)","lat":17.40472,"lng":-92.31944},{"id":68905,"name":"Cereso 14 (El Amate)","lat":16.59472,"lng":-93.80278},{"id":68946,"name":"Chacaljocóm","lat":16.29919,"lng":-92.18345},{"id":68949,"name":"Chacoma","lat":16.87611,"lng":-92.49139},{"id":68955,"name":"Chalam","lat":16.88771,"lng":-92.55009},{"id":68960,"name":"Chalchihuitán","lat":16.96667,"lng":-92.65},{"id":68969,"name":"Chamula","lat":16.78416,"lng":-92.68959},{"id":68970,"name":"Chamulapita","lat":15.06892,"lng":-92.36942},{"id":68973,"name":"Chanal","lat":16.6575,"lng":-92.2575},{"id":68980,"name":"Chapallal Grande","lat":17.29631,"lng":-92.94519},{"id":68989,"name":"Chapultenango","lat":17.33333,"lng":-93.13333},{"id":69010,"name":"Chiapa de Corzo","lat":16.7077,"lng":-93.01184},{"id":69011,"name":"Chiapilla","lat":16.55397,"lng":-92.72594},{"id":69034,"name":"Chicoasén","lat":16.96528,"lng":-93.10472},{"id":69037,"name":"Chicomuselo","lat":15.7442,"lng":-92.2833},{"id":69048,"name":"Chicumtantic","lat":16.86556,"lng":-92.60528},{"id":69055,"name":"Chihuahua","lat":16.02966,"lng":-91.97331},{"id":69071,"name":"Chiloljá","lat":16.88528,"lng":-92.42472},{"id":69075,"name":"Chilón","lat":17.11667,"lng":-92.28333},{"id":69079,"name":"Chimhucum","lat":16.89,"lng":-92.53139},{"id":69092,"name":"Chiquinival","lat":16.99111,"lng":-91.96028},{"id":69093,"name":"Chiquinshulum","lat":17.07194,"lng":-92.59806},{"id":69096,"name":"Chixtontic","lat":16.8908,"lng":-92.45793},{"id":69113,"name":"Chulum Cárdenas","lat":17.38417,"lng":-92.57389},{"id":69114,"name":"Chulum Juárez","lat":17.33194,"lng":-92.53389},{"id":69136,"name":"Cintalapa","lat":16.68778,"lng":-93.71083},{"id":69137,"name":"Cintalapa de Figueroa","lat":16.68393,"lng":-93.71814},{"id":69153,"name":"Ciudad Cuauhtémoc","lat":15.66587,"lng":-92.00388},{"id":69160,"name":"Ciudad Hidalgo","lat":14.68148,"lng":-92.15217},{"id":69222,"name":"Coapilla","lat":17.13137,"lng":-93.15946},{"id":69342,"name":"Colonia Obrera","lat":15.09806,"lng":-92.49806},{"id":69417,"name":"Comalapa","lat":15.65924,"lng":-92.14237},{"id":69425,"name":"Comitán","lat":16.2471,"lng":-92.13515},{"id":69432,"name":"Concepción","lat":16.80908,"lng":-92.96526},{"id":69453,"name":"Congregación Reforma","lat":14.78208,"lng":-92.31424},{"id":69465,"name":"Constitución","lat":17.07556,"lng":-92.52417},{"id":69469,"name":"Copainalá","lat":17.09366,"lng":-93.21059},{"id":69474,"name":"Copoya","lat":16.71191,"lng":-93.12089},{"id":69535,"name":"Cristóbal Colón","lat":17.19194,"lng":-91.62917},{"id":69536,"name":"Cristóbal Obregón","lat":16.43246,"lng":-93.45689},{"id":69548,"name":"Cruztón","lat":16.76167,"lng":-92.57917},{"id":69580,"name":"Cuauhtémoc","lat":16.55,"lng":-93.71611},{"id":69606,"name":"Cuchulumtic","lat":16.77722,"lng":-92.70417},{"id":69665,"name":"Damasco","lat":17.16161,"lng":-91.60058},{"id":69683,"name":"Diamante de Echeverría","lat":16.11181,"lng":-92.87931},{"id":69685,"name":"Dieciséis de Septiembre","lat":16.29715,"lng":-93.1749},{"id":69693,"name":"Doctor Belisario Domínguez (La Barra)","lat":15.88947,"lng":-93.70404},{"id":69695,"name":"Doctor Domingo Chanona","lat":16.34611,"lng":-93.41667},{"id":69700,"name":"Doctor Rodulfo Figueroa (Tierra Blanca)","lat":15.85083,"lng":-92.06222},{"id":69701,"name":"Doctor Samuel León Brindis","lat":17.43528,"lng":-91.93194},{"id":69707,"name":"Dolores Jaltenango","lat":15.89694,"lng":-92.77777},{"id":69755,"name":"Efraín A. Gutiérrez","lat":16.34442,"lng":-92.19927},{"id":69756,"name":"Egipto","lat":17.26207,"lng":-91.9715},{"id":70264,"name":"El Águila","lat":15.09334,"lng":-92.18512},{"id":70267,"name":"El Ámbar","lat":17.025,"lng":-92.83417},{"id":70268,"name":"El Ámbar (El Ámbar de Echeverría)","lat":16.09639,"lng":-92.83333},{"id":69832,"name":"El Arenal","lat":15.17273,"lng":-92.69923},{"id":69848,"name":"El Bosque","lat":17.06273,"lng":-92.72147},{"id":69855,"name":"El Calvario","lat":17.2175,"lng":-92.55694},{"id":69870,"name":"El Carmen","lat":15.57549,"lng":-93.12865},{"id":69876,"name":"El Carmen (El Limón)","lat":17.89056,"lng":-93.16528},{"id":69892,"name":"El Censo","lat":16.86287,"lng":-91.55988},{"id":69920,"name":"El Consuelo Ulapa","lat":15.38662,"lng":-92.79228},{"id":69923,"name":"El Copal","lat":16.96729,"lng":-92.92625},{"id":69924,"name":"El Copalar","lat":16.87694,"lng":-93.21389},{"id":69950,"name":"El Edén","lat":16.29191,"lng":-91.63755},{"id":69952,"name":"El Encanto","lat":14.73083,"lng":-92.41028},{"id":69960,"name":"El Espinal","lat":16.36862,"lng":-94.10449},{"id":70001,"name":"El Jardín","lat":17.16657,"lng":-92.59933},{"id":70007,"name":"El Jobo","lat":16.70369,"lng":-93.10569},{"id":70014,"name":"El Limar","lat":17.41491,"lng":-92.40293},{"id":70015,"name":"El Limonar","lat":16.97026,"lng":-91.3782},{"id":70032,"name":"El Mango","lat":17.16236,"lng":-92.05985},{"id":70067,"name":"El Nopal","lat":16.91161,"lng":-92.84471},{"id":70076,"name":"El Pacayal","lat":15.59849,"lng":-92.04254},{"id":70081,"name":"El Palmar (San Gabriel)","lat":16.84556,"lng":-93.01639},{"id":70082,"name":"El Palmar Grande","lat":15.49858,"lng":-92.25518},{"id":70083,"name":"El Palmarcito","lat":15.49728,"lng":-93.21387},{"id":70091,"name":"El Paraíso","lat":17.24639,"lng":-92.55694},{"id":70095,"name":"El Parral","lat":16.37035,"lng":-93.00567},{"id":70114,"name":"El Portal","lat":15.67726,"lng":-92.09588},{"id":70118,"name":"El Porvenir","lat":15.43092,"lng":-92.26447},{"id":70120,"name":"El Porvenir Agrarista","lat":16.16465,"lng":-91.83575},{"id":70122,"name":"El Porvenir de Velasco Suárez","lat":15.45695,"lng":-92.27987},{"id":70128,"name":"El Pozo","lat":16.92034,"lng":-92.41166},{"id":70133,"name":"El Progreso","lat":16.87694,"lng":-93.22222},{"id":70139,"name":"El Puerto","lat":16.42575,"lng":-92.43059},{"id":70143,"name":"El Ramal (Porvenir)","lat":15.86583,"lng":-92.94556},{"id":70182,"name":"El Sacrificio","lat":14.87283,"lng":-92.22782},{"id":70205,"name":"El Sibal","lat":16.98,"lng":-91.49111},{"id":70235,"name":"El Triunfo","lat":16.202,"lng":-91.85916},{"id":70237,"name":"El Triunfo 1ra. Sección (Cardona)","lat":17.60778,"lng":-93.23306},{"id":70238,"name":"El Triunfo de las Tres Maravillas","lat":15.64694,"lng":-92.15639},{"id":70244,"name":"El Tumbo","lat":17.07779,"lng":-91.62595},{"id":70246,"name":"El Tzay","lat":16.86361,"lng":-92.31222},{"id":70255,"name":"El Vergel","lat":16.57951,"lng":-92.08148},{"id":70260,"name":"El Zapotal","lat":16.74991,"lng":-91.44192},{"id":70263,"name":"El Zapotillo","lat":16.837,"lng":-92.95152},{"id":70276,"name":"Emiliano Zapata","lat":17.74058,"lng":-91.76635},{"id":70323,"name":"Escuintla","lat":15.33333,"lng":-92.63333},{"id":70343,"name":"Estación Huehuetán","lat":15.01091,"lng":-92.40662},{"id":70354,"name":"Estación San Manuel","lat":17.65256,"lng":-93.38427},{"id":70357,"name":"Estación Tuzantán","lat":15.10643,"lng":-92.45092},{"id":70373,"name":"Estrella de Belén","lat":17.38722,"lng":-91.95861},{"id":70392,"name":"Faja de Oro","lat":15.03244,"lng":-92.15634},{"id":70405,"name":"Flor de Cacao","lat":16.12889,"lng":-90.45111},{"id":70469,"name":"Francisco I. Madero","lat":16.87427,"lng":-93.21678},{"id":70473,"name":"Francisco León","lat":17.31667,"lng":-93.25},{"id":70475,"name":"Francisco Sarabia","lat":16.94583,"lng":-93.01306},{"id":70480,"name":"Francisco Villa","lat":16.21426,"lng":-93.33697},{"id":70492,"name":"Frontera Corozal","lat":16.81473,"lng":-90.88351},{"id":70493,"name":"Frontera Hidalgo","lat":14.77744,"lng":-92.17741},{"id":70501,"name":"Gabriel Esquinca","lat":16.94056,"lng":-93.17555},{"id":70512,"name":"Galecio Narcia","lat":16.5882,"lng":-93.02052},{"id":70571,"name":"Guadalupe","lat":14.98033,"lng":-92.33938},{"id":70583,"name":"Guadalupe Grijalva","lat":15.69899,"lng":-92.16414},{"id":70605,"name":"Guadalupe Victoria","lat":16.405,"lng":-92.5525},{"id":70619,"name":"Guaquitepec","lat":16.98017,"lng":-92.28795},{"id":70669,"name":"Hermenegildo Galeana","lat":16.57722,"lng":-93.35944},{"id":70829,"name":"Héroes de Chapultepec","lat":16.0692,"lng":-92.28621},{"id":70682,"name":"Hidalgo","lat":15.16249,"lng":-92.6303},{"id":70688,"name":"Hidalgo Joshil","lat":17.22743,"lng":-92.34719},{"id":70762,"name":"Huehuetán","lat":15.01981,"lng":-92.38249},{"id":70801,"name":"Huitiupán","lat":17.1724,"lng":-92.68621},{"id":70821,"name":"Huixtla","lat":15.13915,"lng":-92.4641},{"id":70822,"name":"Huizachal","lat":16.05184,"lng":-93.80011},{"id":70838,"name":"Ignacio Allende","lat":16.52556,"lng":-92.99222},{"id":70842,"name":"Ignacio López Rayón","lat":14.62164,"lng":-92.18678},{"id":70845,"name":"Ignacio Ramírez","lat":16.11091,"lng":-93.87323},{"id":70857,"name":"Ignacio Zaragoza","lat":17.29,"lng":-92.93806},{"id":70858,"name":"Ignacio Zaragoza (El Morro)","lat":16.59944,"lng":-93.35083},{"id":70869,"name":"Independencia","lat":16.08611,"lng":-92.83824},{"id":70916,"name":"Ixhuatán","lat":17.29341,"lng":-93.00829},{"id":70923,"name":"Ixtacomitán","lat":17.43093,"lng":-93.09704},{"id":70926,"name":"Ixtapa","lat":16.8032,"lng":-92.90532},{"id":70933,"name":"Ixtapangajoya","lat":17.49849,"lng":-93.00155},{"id":70973,"name":"Jalisco","lat":16.43033,"lng":-91.97499},{"id":70983,"name":"Jaltenango de la Paz","lat":15.87314,"lng":-92.72437},{"id":71006,"name":"Jardínes del Grijalva","lat":16.72847,"lng":-93.03463},{"id":71019,"name":"Jericó","lat":16.28713,"lng":-92.9663},{"id":71020,"name":"Jerusalén","lat":17.36806,"lng":-92.06083},{"id":71033,"name":"Jesús María Garza","lat":16.39669,"lng":-93.29368},{"id":71054,"name":"Jiquilpan (Estación Bonanza)","lat":15.34194,"lng":-92.7475},{"id":71055,"name":"Jiquipilas","lat":16.66806,"lng":-93.64667},{"id":71059,"name":"Jitotol","lat":17.06723,"lng":-92.86111},{"id":71064,"name":"Joaquín Miguel Gutiérrez","lat":16.37,"lng":-93.36556},{"id":71065,"name":"Joaquín Miguel Gutiérrez (Margaritas)","lat":15.55028,"lng":-93.09306},{"id":71071,"name":"Joljá","lat":17.20459,"lng":-92.49946},{"id":71074,"name":"Jolsibaquil","lat":17.25972,"lng":-92.48167},{"id":71075,"name":"Joltealal","lat":17.07683,"lng":-92.62163},{"id":71076,"name":"Jomanichim","lat":16.90056,"lng":-92.47222},{"id":71097,"name":"José María Morelos","lat":16.04189,"lng":-91.83201},{"id":71105,"name":"José María Morelos y Pavón","lat":17.24105,"lng":-92.70231},{"id":71108,"name":"José María Pino Suárez","lat":16.50571,"lng":-93.7391},{"id":71087,"name":"Joshil","lat":17.24667,"lng":-92.36278},{"id":71112,"name":"Juan Aldama","lat":17.60939,"lng":-93.02826},{"id":71129,"name":"Juan del Grijalva","lat":16.72806,"lng":-92.9775},{"id":71145,"name":"Juárez","lat":17.60572,"lng":-93.19433},{"id":71137,"name":"Julián Grajales","lat":16.42917,"lng":-93.71417},{"id":71143,"name":"Justo Sierra","lat":16.54248,"lng":-92.05737},{"id":71168,"name":"Kotolte","lat":16.86444,"lng":-92.46111},{"id":71195,"name":"La Candelaria","lat":16.74289,"lng":-92.52156},{"id":71210,"name":"La Ceiba","lat":17.13371,"lng":-92.51887},{"id":71226,"name":"La Competencia","lat":17.23588,"lng":-92.75718},{"id":71242,"name":"La Concordia","lat":16.11774,"lng":-92.69018},{"id":71271,"name":"La Esperanza","lat":16.15191,"lng":-91.86874},{"id":71276,"name":"La Esperanza (El Zapotal)","lat":15.44917,"lng":-93.16417},{"id":71292,"name":"La Floresta","lat":16.50915,"lng":-92.31251},{"id":71302,"name":"La Gloria","lat":15.96389,"lng":-91.965},{"id":71307,"name":"La Grandeza","lat":15.51033,"lng":-92.22603},{"id":71323,"name":"La Independencia","lat":16.25263,"lng":-92.02371},{"id":71324,"name":"La Independencia (Las Pilas)","lat":16.6775,"lng":-93.24944},{"id":71343,"name":"La Laguna","lat":16.69357,"lng":-91.94929},{"id":71351,"name":"La Libertad","lat":14.59167,"lng":-92.19315},{"id":71379,"name":"La Línea","lat":16.13078,"lng":-94.03563},{"id":71434,"name":"La Patria","lat":16.22975,"lng":-91.91148},{"id":71448,"name":"La Pimienta","lat":17.14111,"lng":-92.76222},{"id":71477,"name":"La Rinconada","lat":15.59333,"lng":-92.26806},{"id":71502,"name":"La Tigrilla","lat":15.98769,"lng":-92.8522},{"id":71516,"name":"La Trinitaria","lat":16.11859,"lng":-92.05201},{"id":71540,"name":"Lacandón","lat":17.02141,"lng":-91.59523},{"id":71557,"name":"Laguna del Cofre","lat":15.62751,"lng":-92.64143},{"id":71571,"name":"Larráinzar","lat":16.88392,"lng":-92.71329},{"id":71579,"name":"Las Brisas","lat":15.51681,"lng":-93.11763},{"id":71586,"name":"Las Chicharras","lat":15.67089,"lng":-92.2107},{"id":71596,"name":"Las Delicias","lat":15.96932,"lng":-91.86315},{"id":71599,"name":"Las Flechas","lat":16.70028,"lng":-93.02639},{"id":71616,"name":"Las Maravillas","lat":16.95951,"lng":-93.32012},{"id":71617,"name":"Las Margaritas","lat":16.31265,"lng":-91.98107},{"id":71628,"name":"Las Ollas","lat":16.78146,"lng":-92.55278},{"id":71637,"name":"Las Rosas","lat":16.36574,"lng":-92.3704},{"id":71642,"name":"Las Tazas","lat":16.75722,"lng":-91.615},{"id":71888,"name":"Lázaro Cárdenas","lat":16.60417,"lng":-93.79139},{"id":71896,"name":"Lázaro Cárdenas (Chilil)","lat":16.67611,"lng":-92.48917},{"id":71670,"name":"Libertad Melchor Ocampo","lat":16.37389,"lng":-93.475},{"id":71671,"name":"Libertad Ventanas","lat":15.53954,"lng":-92.27576},{"id":71693,"name":"Llano de la Lima","lat":14.86596,"lng":-92.29714},{"id":71713,"name":"Loma Bonita","lat":17.78697,"lng":-92.07651},{"id":71741,"name":"Lomantán","lat":16.43999,"lng":-92.06445},{"id":71782,"name":"Los Cafetales","lat":14.86745,"lng":-92.302},{"id":71793,"name":"Los Corazones","lat":16.21026,"lng":-94.07391},{"id":71819,"name":"Los Naranjos","lat":17.26446,"lng":-92.61972},{"id":71827,"name":"Los Palacios","lat":14.85718,"lng":-92.25821},{"id":71832,"name":"Los Pinos","lat":16.92083,"lng":-92.10861},{"id":71834,"name":"Los Plátanos","lat":17.00556,"lng":-92.74264},{"id":71836,"name":"Los Pozos","lat":16.6477,"lng":-92.40726},{"id":71853,"name":"Los Riegos","lat":16.30457,"lng":-92.12425},{"id":71880,"name":"Luis Espinoza","lat":17.03167,"lng":-93.02694},{"id":71915,"name":"Macvilhó","lat":16.8576,"lng":-92.69419},{"id":71942,"name":"Majastic","lat":17.28944,"lng":-92.62833},{"id":71943,"name":"Majomut","lat":16.84917,"lng":-92.65944},{"id":71966,"name":"Manuel Ávila Camacho","lat":16.14647,"lng":-93.01701},{"id":71968,"name":"Manuel Ávila Camacho (Ponte Duro)","lat":15.80973,"lng":-93.58933},{"id":71961,"name":"Manuel Lazos","lat":14.97159,"lng":-92.18726},{"id":71977,"name":"Mapastepec","lat":15.43358,"lng":-92.90039},{"id":71981,"name":"Maravilla Tenejapa","lat":16.20391,"lng":-91.26093},{"id":71982,"name":"Maravillas","lat":17.09693,"lng":-92.89107},{"id":71993,"name":"Mariano Matamoros","lat":16.48119,"lng":-92.58472},{"id":71995,"name":"Mariscal Subikuski","lat":17.3325,"lng":-92.38083},{"id":71998,"name":"Marqués de Comillas","lat":16.21471,"lng":-90.75917},{"id":72000,"name":"Marte R. Gómez","lat":14.92653,"lng":-92.44389},{"id":72023,"name":"Matzam","lat":16.78917,"lng":-92.47694},{"id":72036,"name":"Mazapa","lat":15.38773,"lng":-92.1878},{"id":72038,"name":"Mazapa de Madero","lat":15.36461,"lng":-92.18762},{"id":72049,"name":"Mazatán","lat":14.86319,"lng":-92.4503},{"id":72262,"name":"Mérida","lat":16.5675,"lng":-93.81722},{"id":72087,"name":"Metapa","lat":14.83624,"lng":-92.19186},{"id":72128,"name":"Miguel Hidalgo","lat":16.3506,"lng":-92.62852},{"id":72135,"name":"Miguel Utrilla (Los Chorros)","lat":16.94278,"lng":-92.47972},{"id":72158,"name":"Misija","lat":17.26611,"lng":-92.38167},{"id":72161,"name":"Mitontic","lat":16.8754,"lng":-92.5713},{"id":72163,"name":"Mitzitón","lat":16.64639,"lng":-92.54333},{"id":72164,"name":"Mixcum","lat":15.0256,"lng":-92.1408},{"id":72205,"name":"Monte Redondo","lat":15.65217,"lng":-92.05045},{"id":72212,"name":"Montecristo","lat":15.69263,"lng":-92.61999},{"id":72213,"name":"Montecristo de Guerrero","lat":15.67526,"lng":-92.64399},{"id":72218,"name":"Monterrey","lat":16.06191,"lng":-93.36928},{"id":72226,"name":"Morelia (Victórico Rodolfo Grajales)","lat":16.72306,"lng":-91.96778},{"id":72241,"name":"Motozintla","lat":15.36694,"lng":-92.24605},{"id":72246,"name":"Moyos","lat":17.35889,"lng":-92.64134},{"id":72256,"name":"Muquén","lat":16.80641,"lng":-92.61006},{"id":72265,"name":"Nachig","lat":16.73056,"lng":-92.72528},{"id":72285,"name":"Narciso Mendoza","lat":16.57996,"lng":-92.98911},{"id":72296,"name":"Navenchauc","lat":16.73501,"lng":-92.779},{"id":72323,"name":"Nicolás Bravo","lat":16.51058,"lng":-92.99222},{"id":72328,"name":"Nicolás Ruiz","lat":16.43714,"lng":-92.58522},{"id":72359,"name":"Nueva América","lat":15.92281,"lng":-92.30587},{"id":72362,"name":"Nueva Colombia","lat":15.6967,"lng":-92.72111},{"id":72364,"name":"Nueva Esperanza","lat":17.24746,"lng":-92.45524},{"id":72366,"name":"Nueva Independencia","lat":15.78259,"lng":-92.20883},{"id":72368,"name":"Nueva Libertad","lat":16.09038,"lng":-92.80813},{"id":72369,"name":"Nueva Libertad (El Colorado)","lat":15.89861,"lng":-92.05917},{"id":72370,"name":"Nueva Morelia","lat":15.61784,"lng":-92.14517},{"id":72371,"name":"Nueva Palestina","lat":16.81722,"lng":-91.26},{"id":72375,"name":"Nueva Sesecapa","lat":15.40205,"lng":-92.82239},{"id":72376,"name":"Nueva Tenochtitlán (Rizo de Oro)","lat":16.47639,"lng":-94.08056},{"id":72378,"name":"Nuevo Amatenango","lat":15.50852,"lng":-92.10958},{"id":72380,"name":"Nuevo Carmen Tonapac","lat":16.69667,"lng":-92.95556},{"id":72385,"name":"Nuevo Francisco León","lat":17.03031,"lng":-91.32216},{"id":72389,"name":"Nuevo Juan del Grijalva","lat":17.42722,"lng":-93.37222},{"id":72391,"name":"Nuevo León","lat":16.48629,"lng":-92.5714},{"id":72393,"name":"Nuevo Limar","lat":17.45514,"lng":-92.3989},{"id":72398,"name":"Nuevo México","lat":16.46944,"lng":-93.43806},{"id":72395,"name":"Nuevo Milenio Valdivia","lat":15.50306,"lng":-92.94861},{"id":72399,"name":"Nuevo Naranjo","lat":17.15444,"lng":-93.43333},{"id":72401,"name":"Nuevo Nicapa","lat":17.63464,"lng":-93.07238},{"id":72402,"name":"Nuevo Pacayal","lat":15.6601,"lng":-92.31538},{"id":72407,"name":"Nuevo Pumpuapa (Cereso)","lat":14.92562,"lng":-92.36533},{"id":72409,"name":"Nuevo San Juan Chamula","lat":16.14426,"lng":-91.44379},{"id":72413,"name":"Nuevo Sitalá","lat":17.13936,"lng":-92.48287},{"id":72419,"name":"Nuevo Vicente Guerrero","lat":16.0386,"lng":-92.97542},{"id":72420,"name":"Nuevo Vicente Guerrero (El Chichonal)","lat":16.48528,"lng":-92.87139},{"id":72421,"name":"Nuevo Volcán Chichonal","lat":17.77263,"lng":-93.10955},{"id":72423,"name":"Nuevo Xochimilco","lat":17.45442,"lng":-93.36904},{"id":72447,"name":"Ochusjob","lat":16.22482,"lng":-92.25201},{"id":72448,"name":"Ococh","lat":16.83806,"lng":-92.47528},{"id":72450,"name":"Ocosingo","lat":16.90639,"lng":-92.09374},{"id":72452,"name":"Ocotepec","lat":17.2262,"lng":-93.1644},{"id":72464,"name":"Ocozocoautla de Espinosa","lat":16.76231,"lng":-93.37476},{"id":72467,"name":"Octavio Paz","lat":14.85778,"lng":-92.26389},{"id":72484,"name":"Ojo de Agua","lat":16.15773,"lng":-91.75794},{"id":72508,"name":"Omoa","lat":14.83292,"lng":-92.23279},{"id":72510,"name":"Once de Abril","lat":15.05199,"lng":-92.14224},{"id":72534,"name":"Ostuacán","lat":17.40664,"lng":-93.33643},{"id":72535,"name":"Osumacinta","lat":16.93611,"lng":-93.09028},{"id":72546,"name":"Oxchuc","lat":16.78588,"lng":-92.34455},{"id":72550,"name":"Oxinam","lat":16.86306,"lng":-92.54917},{"id":72564,"name":"Pablo L. Sidar","lat":15.83053,"lng":-92.27977},{"id":72571,"name":"Pacú","lat":16.63584,"lng":-93.13437},{"id":72582,"name":"Palenque","lat":17.50953,"lng":-91.98248},{"id":72625,"name":"Pantelhó","lat":17.00563,"lng":-92.47165},{"id":72626,"name":"Pantepec","lat":17.18842,"lng":-93.04998},{"id":72650,"name":"Paraíso del Grijalva","lat":16.22576,"lng":-92.64318},{"id":72653,"name":"Paredón","lat":16.05083,"lng":-93.86667},{"id":72680,"name":"Paso Hondo","lat":15.6839,"lng":-92.0186},{"id":72704,"name":"Pasté","lat":16.7042,"lng":-92.74111},{"id":72709,"name":"Patosil","lat":16.7521,"lng":-92.74133},{"id":72712,"name":"Patria Nueva (San José el Contento)","lat":16.92778,"lng":-92.11361},{"id":72714,"name":"Pavencul","lat":15.20249,"lng":-92.17993},{"id":72736,"name":"Perla de Acapulco","lat":16.7957,"lng":-91.47793},{"id":72742,"name":"Petalcingo","lat":17.22715,"lng":-92.41511},{"id":72761,"name":"Pichucalco","lat":17.51,"lng":-93.11591},{"id":72766,"name":"Piedra Labrada","lat":15.68226,"lng":-92.30538},{"id":72774,"name":"Pijijiapan","lat":15.68618,"lng":-93.20938},{"id":72795,"name":"Plan de Agua Prieta","lat":16.13111,"lng":-92.79139},{"id":72798,"name":"Plan de Ayala","lat":16.47152,"lng":-92.02735},{"id":72846,"name":"Pomposo Castellanos","lat":16.59033,"lng":-93.86688},{"id":72861,"name":"Potrerillo","lat":15.63096,"lng":-92.02059},{"id":72891,"name":"Presidente Echeverría (Laja Tendida)","lat":16.33583,"lng":-92.66861},{"id":72895,"name":"Primer Cantón","lat":15.12056,"lng":-92.44},{"id":72907,"name":"Profresor Roberto Barrios","lat":17.32583,"lng":-91.92639},{"id":72927,"name":"Puebla","lat":16.91583,"lng":-92.50389},{"id":72938,"name":"Pueblo Nuevo","lat":17.16027,"lng":-92.89977},{"id":72971,"name":"Puerto Madero","lat":14.72076,"lng":-92.42146},{"id":72983,"name":"Pugchén Mumuntic","lat":16.86389,"lng":-92.82361},{"id":72986,"name":"Punta Arena","lat":17.74601,"lng":-92.05871},{"id":73024,"name":"Querétaro","lat":15.83752,"lng":-92.75774},{"id":73036,"name":"Quintana Roo","lat":16.60667,"lng":-93.56194},{"id":73046,"name":"Rafael Pascacio Gamboa","lat":17.91818,"lng":-93.26833},{"id":73047,"name":"Rafael Ramírez","lat":16.46199,"lng":-91.94523},{"id":73052,"name":"Ramón F. Balboa","lat":16.47427,"lng":-91.40318},{"id":73082,"name":"Raudales Malpaso","lat":17.18833,"lng":-93.60583},{"id":73084,"name":"Raymundo Enríquez","lat":14.86722,"lng":-92.31466},{"id":73087,"name":"Rayón","lat":17.20137,"lng":-93.0111},{"id":73094,"name":"Reforma","lat":17.86876,"lng":-93.22673},{"id":73096,"name":"Reforma y Planada","lat":17.38694,"lng":-92.86583},{"id":73100,"name":"Revolución Mexicana","lat":16.17156,"lng":-93.07666},{"id":73106,"name":"Ricardo Flores Magón","lat":16.39397,"lng":-92.69618},{"id":73118,"name":"Rincón Chamula","lat":17.20718,"lng":-92.93912},{"id":73168,"name":"Río Blanco","lat":16.20501,"lng":-91.63429},{"id":73171,"name":"Río Chancalá","lat":17.33454,"lng":-91.6843},{"id":73178,"name":"Río Jordán","lat":17.24611,"lng":-91.93306},{"id":73143,"name":"Rizo de Oro","lat":15.97088,"lng":-92.48316},{"id":73145,"name":"Roblada Grande","lat":16.48909,"lng":-93.19499},{"id":73151,"name":"Rodulfo Figueroa","lat":15.92006,"lng":-91.9037},{"id":73153,"name":"Romerillo","lat":16.76528,"lng":-92.5675},{"id":73192,"name":"Sabanilla","lat":17.30308,"lng":-92.58368},{"id":73195,"name":"Sabinalito","lat":15.70186,"lng":-91.98636},{"id":73198,"name":"Saclamantón","lat":16.78833,"lng":-92.635},{"id":73225,"name":"Saltillo","lat":16.39359,"lng":-91.9489},{"id":73227,"name":"Salto de Agua","lat":17.55435,"lng":-92.33941},{"id":73230,"name":"Salvador Urbina","lat":15.03535,"lng":-92.20805},{"id":73278,"name":"San Andrés Duraznal","lat":17.15653,"lng":-92.79606},{"id":73325,"name":"San Antonio Buenavista","lat":16.15234,"lng":-91.6502},{"id":73326,"name":"San Antonio Bulujib","lat":16.99667,"lng":-92.29667},{"id":73380,"name":"San Antonio del Monte","lat":16.76028,"lng":-92.65306},{"id":73455,"name":"San Caralampio","lat":15.82935,"lng":-92.03555},{"id":73466,"name":"San Cayetano","lat":16.96119,"lng":-92.76016},{"id":73483,"name":"San Cristóbal de las Casas","lat":16.73176,"lng":-92.64126},{"id":73526,"name":"San Felipe Tizapa","lat":15.27616,"lng":-92.613},{"id":73535,"name":"San Fernando","lat":16.87153,"lng":-93.20759},{"id":73547,"name":"San Francisco (El Calvito)","lat":16.32167,"lng":-92.56194},{"id":73569,"name":"San Francisco Jaconá","lat":17.26278,"lng":-93.0325},{"id":73588,"name":"San Francisco Pujiltic","lat":16.27922,"lng":-92.45319},{"id":73665,"name":"San Isidro","lat":15.74373,"lng":-93.35276},{"id":73691,"name":"San Isidro las Banderas","lat":17.23028,"lng":-93.06028},{"id":73720,"name":"San Jerónimo Tulijá","lat":17.22361,"lng":-91.78972},{"id":73756,"name":"San José Chapayal","lat":17.30056,"lng":-92.89028},{"id":73855,"name":"San José las Chicharras","lat":15.64363,"lng":-92.20659},{"id":73803,"name":"San José Yashitinín","lat":16.65472,"lng":-92.445},{"id":73804,"name":"San José Yocnajab","lat":16.25383,"lng":-92.08698},{"id":74021,"name":"San Lucas","lat":16.61167,"lng":-92.71806},{"id":74061,"name":"San Luqueño","lat":16.01278,"lng":-93.84583},{"id":74150,"name":"San Miguel","lat":17.36324,"lng":-92.00762},{"id":74242,"name":"San Miguel la Sardina","lat":17.29417,"lng":-93.3525},{"id":74290,"name":"San Pablo Huacano","lat":17.19583,"lng":-93.2075},{"id":74321,"name":"San Pedro Buenavista","lat":16.08333,"lng":-93.11667},{"id":74362,"name":"San Pedro Nichtalucum","lat":17.03444,"lng":-92.72694},{"id":74420,"name":"San Quintín","lat":16.40672,"lng":-91.34575},{"id":74510,"name":"San Vicente la Mesilla","lat":16.17861,"lng":-92.29333},{"id":74653,"name":"Santa Elena","lat":16.89267,"lng":-91.58987},{"id":74704,"name":"Santa María","lat":17.3523,"lng":-92.07679},{"id":74829,"name":"Santa Rita","lat":16.13167,"lng":-91.975},{"id":74989,"name":"Santiago el Pinar","lat":16.94838,"lng":-92.72074},{"id":74936,"name":"Santiago Pojcol","lat":16.99148,"lng":-91.98071},{"id":74993,"name":"Santo Domingo","lat":15.03067,"lng":-92.10361},{"id":75019,"name":"Santo Domingo de las Palmas","lat":16.13667,"lng":-91.32194},{"id":75068,"name":"Señor del Pozo","lat":16.29625,"lng":-92.11165},{"id":75069,"name":"Shoctic","lat":17.22361,"lng":-92.48806},{"id":75070,"name":"Sibacá","lat":16.93093,"lng":-92.14006},{"id":75071,"name":"Sibaniljá Pocolum","lat":16.87639,"lng":-92.46111},{"id":75081,"name":"Siltepec","lat":15.55717,"lng":-92.32314},{"id":75084,"name":"Simojovel","lat":17.14736,"lng":-92.67154},{"id":75085,"name":"Simojovel de Allende","lat":17.14036,"lng":-92.71394},{"id":75089,"name":"Sinaloa","lat":15.89261,"lng":-92.12896},{"id":75099,"name":"Sitalá","lat":17.02417,"lng":-92.30694},{"id":75107,"name":"Socoltenango","lat":16.17412,"lng":-92.36658},{"id":75109,"name":"Soconusco","lat":15.31502,"lng":-92.72645},{"id":75119,"name":"Solosuchiapa","lat":17.39364,"lng":-93.01301},{"id":75129,"name":"Soyaló","lat":16.91352,"lng":-92.96579},{"id":75133,"name":"Soyatitán","lat":16.29427,"lng":-92.42402},{"id":75138,"name":"Suchiapa","lat":16.60775,"lng":-93.10003},{"id":75139,"name":"Suchiate","lat":14.64138,"lng":-92.22252},{"id":75161,"name":"Tacuba Nueva","lat":17.09028,"lng":-92.37028},{"id":75172,"name":"Talismán","lat":14.96333,"lng":-92.14722},{"id":75176,"name":"Tamaulipas","lat":15.77189,"lng":-93.40718},{"id":75214,"name":"Taniperla","lat":16.82222,"lng":-91.52333},{"id":75221,"name":"Tapachula","lat":14.90385,"lng":-92.25749},{"id":75222,"name":"Tapalapa","lat":17.22618,"lng":-93.11552},{"id":75227,"name":"Tapilula","lat":17.25355,"lng":-93.00933},{"id":75288,"name":"Tecpatán","lat":17.13676,"lng":-93.31133},{"id":75352,"name":"Tenango","lat":16.96667,"lng":-92.41667},{"id":75371,"name":"Tentic","lat":16.86333,"lng":-92.68222},{"id":75381,"name":"Teopisca","lat":16.54182,"lng":-92.47405},{"id":75506,"name":"Texcaltic","lat":14.7955,"lng":-92.18737},{"id":75556,"name":"Tierra y Libertad","lat":16.37889,"lng":-93.86056},{"id":75565,"name":"Tila","lat":17.30054,"lng":-92.4273},{"id":75569,"name":"Tiltepec","lat":16.39389,"lng":-93.86972},{"id":75574,"name":"Tinajas 1ra. Sección","lat":14.7175,"lng":-92.32861},{"id":75715,"name":"Tocob Leglemal","lat":17.23389,"lng":-92.37833},{"id":75738,"name":"Tonalá","lat":16.08977,"lng":-93.75489},{"id":75750,"name":"Totolapa","lat":16.54357,"lng":-92.68019},{"id":75771,"name":"Tres Cerros","lat":16.91556,"lng":-92.47278},{"id":75777,"name":"Tres Picos","lat":15.88209,"lng":-93.52867},{"id":75805,"name":"Tumbala","lat":17.27746,"lng":-92.317},{"id":75825,"name":"Tuxtla","lat":16.75973,"lng":-93.11308},{"id":75827,"name":"Tuxtla Chico","lat":14.93945,"lng":-92.1673},{"id":75831,"name":"Tuzantán","lat":15.14711,"lng":-92.42237},{"id":75833,"name":"Tz'Aquiviljok","lat":16.85528,"lng":-92.45972},{"id":75835,"name":"Tzajalá","lat":17.13559,"lng":-92.39328},{"id":75834,"name":"Tzajalchén","lat":16.84165,"lng":-92.46014},{"id":75836,"name":"Tzeltal","lat":16.93944,"lng":-92.47778},{"id":75840,"name":"Tzimol","lat":16.18356,"lng":-92.18934},{"id":75842,"name":"Tzinil","lat":16.25778,"lng":-92.32222},{"id":75848,"name":"Tziscao","lat":16.08155,"lng":-91.66641},{"id":75850,"name":"Tzoeptic","lat":16.88278,"lng":-92.56806},{"id":75852,"name":"Tzontehuitz","lat":16.83314,"lng":-92.57965},{"id":75853,"name":"Tzopilja","lat":16.73972,"lng":-92.30917},{"id":75860,"name":"Ubilio García","lat":17.08405,"lng":-91.47241},{"id":75881,"name":"Unión Buena Vista","lat":16.48582,"lng":-92.81823},{"id":75882,"name":"Unión Buenavista","lat":15.79527,"lng":-92.54417},{"id":75885,"name":"Unión Juárez","lat":17.28083,"lng":-92.39972},{"id":75886,"name":"Unión Roja","lat":15.04658,"lng":-92.21653},{"id":75901,"name":"Usipa","lat":17.50028,"lng":-92.43806},{"id":75940,"name":"Vega del Rosario","lat":15.52083,"lng":-92.3072},{"id":75943,"name":"Veinte de Noviembre","lat":14.9773,"lng":-92.26509},{"id":75963,"name":"Venustiano Carranza","lat":16.32314,"lng":-92.55844},{"id":75966,"name":"Veracruz","lat":16.40417,"lng":-91.99944},{"id":75967,"name":"Verapaz","lat":15.71166,"lng":-92.06199},{"id":75973,"name":"Vicente Guerrero","lat":16.66028,"lng":-93.58306},{"id":75986,"name":"Vida Mejor I","lat":14.86972,"lng":-92.30778},{"id":75995,"name":"Villa Comaltitlán","lat":15.18645,"lng":-92.59053},{"id":75996,"name":"Villa Corzo","lat":16.1851,"lng":-93.26881},{"id":76010,"name":"Villa Hidalgo","lat":16.30457,"lng":-93.15466},{"id":76077,"name":"Villaflores","lat":16.34149,"lng":-93.33191},{"id":76081,"name":"Villahermosa Yaluma","lat":16.33366,"lng":-92.07771},{"id":76084,"name":"Villamorelos","lat":16.48,"lng":-93.92778},{"id":76100,"name":"Viva Cárdenas","lat":16.8357,"lng":-93.19333},{"id":76101,"name":"Viva México","lat":14.91008,"lng":-92.32609},{"id":76163,"name":"Xochiltepec","lat":15.1278,"lng":-92.43388},{"id":76211,"name":"Yajalón","lat":17.18519,"lng":-92.32715},{"id":76214,"name":"Yaltem","lat":16.84402,"lng":-92.79057},{"id":76217,"name":"Yasha","lat":16.39141,"lng":-92.06878},{"id":76218,"name":"Yashanal","lat":16.82889,"lng":-92.45194},{"id":76238,"name":"Yibeljoj","lat":16.9575,"lng":-92.50361},{"id":76244,"name":"Yoshib","lat":16.84528,"lng":-92.44611},{"id":76278,"name":"Zacatonal de Juárez","lat":17.27097,"lng":-92.79936},{"id":76282,"name":"Zacualpa","lat":15.1682,"lng":-92.62705},{"id":76295,"name":"Zamora Pico de Oro","lat":16.33205,"lng":-90.7656},{"id":76317,"name":"Zaragoza","lat":17.00906,"lng":-91.64033},{"id":76323,"name":"Zaragoza la Montaña","lat":16.41653,"lng":-92.20512},{"id":76331,"name":"Zequentic","lat":16.71694,"lng":-92.82667},{"id":76340,"name":"Zinacantán","lat":16.7602,"lng":-92.72257}]