[{"id":68123,"name":"Agualeguas","lat":26.31362,"lng":-99.53728},{"id":149670,"name":"Agualeguas Nuevo León","lat":26.31083333,"lng":-99.53916667},{"id":149671,"name":"Alberto Villarreal","lat":25.94389,"lng":-100.41167},{"id":149672,"name":"Aldama Estación","lat":26.02444,"lng":-99.2025},{"id":149673,"name":"Alfonso Reyes","lat":26.07667,"lng":-99.59611},{"id":68203,"name":"Alianza Real","lat":25.85139,"lng":-100.38278},{"id":149674,"name":"Allende","lat":25.28333333,"lng":-100.01666667},{"id":149675,"name":"Altamira","lat":25.6891,"lng":-99.6194},{"id":149676,"name":"Ampliación de la Laguna","lat":25.29785,"lng":-99.72584},{"id":68285,"name":"Anáhuac","lat":27.3227986,"lng":-100.0663184},{"id":149677,"name":"Apodaca","lat":25.78166667,"lng":-100.18861111},{"id":149678,"name":"Aquiles Serdán","lat":24.96056,"lng":-100.71556},{"id":68328,"name":"Aramberri","lat":24.09984,"lng":-99.81729},{"id":149679,"name":"Armando Fernández Garza","lat":25.82278,"lng":-100.62778},{"id":68375,"name":"Artemio Treviño","lat":25.83528,"lng":-100.14278},{"id":149680,"name":"Barrio Aldamas","lat":26.08056,"lng":-99.18139},{"id":149681,"name":"Barrio de Jalisco","lat":24.82093,"lng":-100.10461},{"id":149682,"name":"Bello Amanecer","lat":25.69806,"lng":-100.13528},{"id":68644,"name":"Bosques de San Pedro","lat":25.60139,"lng":-100.17972},{"id":68661,"name":"Buena Vista","lat":25.85222,"lng":-100.36},{"id":68694,"name":"Bustamante","lat":26.55567,"lng":-100.50603},{"id":68717,"name":"Cadereyta","lat":25.58333,"lng":-99.98333},{"id":68718,"name":"Cadereyta Jiménez","lat":25.58896,"lng":-100.00156},{"id":149683,"name":"Caja Pinta","lat":24.71708,"lng":-99.66759},{"id":149684,"name":"Campestre el Montesito","lat":25.46861,"lng":-100.0875},{"id":149688,"name":"Cañón de Vacas","lat":24.29472,"lng":-99.72},{"id":149685,"name":"Cantú","lat":25.88,"lng":-99.17944},{"id":149686,"name":"Carboneras","lat":26.49222,"lng":-100.07639},{"id":68826,"name":"Carmen","lat":25.9365,"lng":-100.36396},{"id":149687,"name":"Casa Rosa","lat":25.94667,"lng":-100.40389},{"id":68861,"name":"Catarino Rodríguez","lat":24.84542,"lng":-100.32046},{"id":149689,"name":"Centro Habitacional Burócratas de Guadalupe","lat":25.63667,"lng":-100.15333},{"id":68908,"name":"Cerralvo","lat":26.09766,"lng":-99.6534},{"id":149690,"name":"Charco Redondo","lat":26.06194,"lng":-99.56194},{"id":69080,"name":"China","lat":25.69997,"lng":-99.23454},{"id":69198,"name":"Ciénega de Flores","lat":25.95467,"lng":-100.16695},{"id":149691,"name":"Cinco Señores","lat":24.8748,"lng":-99.62277},{"id":69144,"name":"Ciudad Apodaca","lat":25.78195,"lng":-100.18839},{"id":69146,"name":"Ciudad Benito Juárez","lat":25.64724,"lng":-100.09582},{"id":69148,"name":"Ciudad Cerralvo","lat":26.08499,"lng":-99.61508},{"id":69185,"name":"Ciudad de Allende","lat":25.27673,"lng":-100.01442},{"id":69194,"name":"Ciudad de Villaldama","lat":26.5007289,"lng":-100.426537},{"id":69156,"name":"Ciudad General Escobedo","lat":25.79698,"lng":-100.31791},{"id":69157,"name":"Ciudad General Terán","lat":25.25857,"lng":-99.68371},{"id":69177,"name":"Ciudad Sabinas Hidalgo","lat":26.50358,"lng":-100.18187},{"id":69180,"name":"Ciudad Satélite del Norte","lat":25.91448,"lng":-100.26542},{"id":69259,"name":"Colinas del Aeropuerto","lat":25.81705,"lng":-100.10258},{"id":149693,"name":"Colinas del Río Juárez","lat":25.66944,"lng":-100.1225},{"id":149694,"name":"Colombia","lat":27.70333333,"lng":-99.75944444},{"id":149695,"name":"Colonia Independencia (Monterrey)","lat":25.65917,"lng":-100.32416},{"id":149696,"name":"Colonia la Mesa","lat":25.81389,"lng":-100.07306},{"id":149697,"name":"Conferín Arizpe","lat":25.80833,"lng":-99.15806},{"id":69450,"name":"Congregación Calles","lat":25.22528,"lng":-99.93472},{"id":149698,"name":"Constitución","lat":26.47611,"lng":-100.11972},{"id":149699,"name":"Dieciocho de Marzo","lat":24.88951,"lng":-100.18001},{"id":149700,"name":"Dieciséis de Septiembre","lat":25.59111,"lng":-100.15},{"id":149701,"name":"Doce de Octubre","lat":25.62333,"lng":-100.06583},{"id":69692,"name":"Doctor Arroyo","lat":23.67211,"lng":-100.18134},{"id":69694,"name":"Doctor Coss","lat":25.92492,"lng":-99.18316},{"id":149702,"name":"Doctor Coss Nuevo León","lat":25.92589722,"lng":-99.18437222},{"id":69696,"name":"Doctor González","lat":25.85983,"lng":-99.94409},{"id":149703,"name":"Dolores","lat":23.51333,"lng":-100.23194},{"id":149704,"name":"El Bajío","lat":25.19972,"lng":-99.86583},{"id":149705,"name":"El Barco","lat":25.37722,"lng":-99.8575},{"id":149706,"name":"El Bosque","lat":25.21861,"lng":-99.8675},{"id":149707,"name":"El Brasil","lat":25.89417,"lng":-98.99028},{"id":149708,"name":"El Carmen de los Elizondo","lat":24.9767,"lng":-99.43876},{"id":149709,"name":"El Carmen Nuevo León","lat":25.93222778,"lng":-100.36412222},{"id":149710,"name":"El Cedral","lat":24.89528,"lng":-100.185},{"id":149711,"name":"El Cerrito","lat":25.29542,"lng":-99.98675},{"id":149712,"name":"El Chamizal","lat":24.9025,"lng":-99.52028},{"id":149713,"name":"El Dieciséis","lat":23.55591,"lng":-100.37882},{"id":149714,"name":"El Diez","lat":24.86472,"lng":-99.45667},{"id":149715,"name":"El Fraile","lat":25.80722,"lng":-100.50361},{"id":149716,"name":"El Leal","lat":25.885,"lng":-100.2925},{"id":149717,"name":"El Maguey","lat":25.30784,"lng":-100.00779},{"id":149718,"name":"El Mosquito Linares","lat":24.66417,"lng":-99.67417},{"id":149719,"name":"El Nogalito","lat":25.28556,"lng":-99.87639},{"id":149720,"name":"El Palmital","lat":25.83088,"lng":-100.59476},{"id":149721,"name":"El Pastor","lat":25.14907,"lng":-99.92974},{"id":149722,"name":"El Ranchito Número Uno","lat":25.69167,"lng":-100.16667},{"id":149723,"name":"El Realito","lat":24.10222,"lng":-99.83694},{"id":149724,"name":"El Refugio","lat":24.90583,"lng":-99.52861},{"id":149725,"name":"El Refugio y el Reparo","lat":23.65972,"lng":-100.34028},{"id":149726,"name":"El Rucio","lat":24.39758,"lng":-99.80775},{"id":149727,"name":"El Saladito","lat":25.89833,"lng":-100.03139},{"id":149728,"name":"El Salitre","lat":23.9599,"lng":-99.83058},{"id":70288,"name":"Emiliano Zapata","lat":25.91028,"lng":-100.28056},{"id":70308,"name":"Entronque Laredo-Salinas Victoria","lat":25.855,"lng":-100.24722},{"id":149729,"name":"Estados Unidos","lat":25.12444,"lng":-100.47639},{"id":70417,"name":"Fraccionamiento Cosmópolis Octavo Sector","lat":25.82528,"lng":-100.24611},{"id":149730,"name":"Fraccionamiento del Valle","lat":25.92306,"lng":-100.37944},{"id":70427,"name":"Fraccionamiento Misión de San Javier","lat":25.74556,"lng":-100.15194},{"id":70435,"name":"Fraccionamiento Real Palmas","lat":25.90417,"lng":-100.15972},{"id":149731,"name":"Francisco I. Madero","lat":25.09139,"lng":-98.9225},{"id":149732,"name":"Francisco Villa","lat":25.705,"lng":-99.99639},{"id":70509,"name":"Galeana","lat":24.82455,"lng":-100.07601},{"id":70520,"name":"García","lat":25.81201,"lng":-100.59874},{"id":149733,"name":"Garza García","lat":25.65384,"lng":-100.37758},{"id":149734,"name":"Garza González","lat":25.83139,"lng":-99.62417},{"id":70526,"name":"General Bravo","lat":25.79239,"lng":-99.18147},{"id":149735,"name":"General Escobedo","lat":25.80833333,"lng":-100.32666667},{"id":149736,"name":"General Tapia","lat":25.82556,"lng":-99.03972},{"id":149737,"name":"General Terán Nuevo León","lat":25.26666667,"lng":-99.68333333},{"id":149738,"name":"General Treviño","lat":26.21666667,"lng":-99.48333333},{"id":70546,"name":"General Zuazua","lat":25.89491,"lng":-100.108},{"id":149739,"name":"Graciano Bortoni","lat":26.48583,"lng":-100.14333},{"id":70573,"name":"Guadalupe","lat":25.67678,"lng":-100.25646},{"id":149741,"name":"Hacienda de Enmedio","lat":25.23389,"lng":-99.84944},{"id":149740,"name":"Hacienda San Juan","lat":26.48306,"lng":-100.16778},{"id":70653,"name":"Hacienda San Pedro","lat":25.91472,"lng":-100.16278},{"id":70827,"name":"Héctor Caballero","lat":25.63556,"lng":-100.12667},{"id":149742,"name":"Hidalgo","lat":25.97555556,"lng":-100.45083333},{"id":149743,"name":"Higueras Nuevo León","lat":25.96195556,"lng":-100.01435},{"id":70724,"name":"Hualahuises","lat":24.88295,"lng":-99.6749},{"id":149744,"name":"Huertas Estación","lat":25.03778,"lng":-99.70861},{"id":149745,"name":"Ibarrilla","lat":24.3725,"lng":-99.67306},{"id":149746,"name":"Ismael Flores","lat":25.62389,"lng":-100.07222},{"id":70893,"name":"Iturbide","lat":24.72596,"lng":-99.90406},{"id":149747,"name":"Iturbide Nuevo León","lat":24.72527778,"lng":-99.9},{"id":149748,"name":"Jardines de la Silla","lat":25.629267,"lng":-100.1866779},{"id":71005,"name":"Jardines de la Silla (Jardines)","lat":25.6390507,"lng":-100.1868425},{"id":149754,"name":"Jáuregui","lat":25.295,"lng":-99.95167},{"id":149749,"name":"Jesús María Aguirre Galeana","lat":24.4134,"lng":-100.37303},{"id":149750,"name":"Jesús María de Berrones","lat":23.91748,"lng":-100.02869},{"id":149751,"name":"Jesús María del Terrero","lat":23.39944,"lng":-100.17806},{"id":149752,"name":"Juan Salazar","lat":27.46918,"lng":-100.38395},{"id":149753,"name":"Juárez Nuevo León","lat":25.65,"lng":-100.08333333},{"id":149755,"name":"Kilómetro Dieciséis","lat":24.77361,"lng":-99.67722},{"id":149756,"name":"La Agüita","lat":23.965,"lng":-100.18361},{"id":149757,"name":"La Aldea","lat":24.08064,"lng":-99.80357},{"id":149758,"name":"La Arena","lat":24.97472,"lng":-99.72167},{"id":71176,"name":"La Ascensión","lat":24.32392,"lng":-99.9141},{"id":149759,"name":"La Barreta","lat":25.07694,"lng":-98.98306},{"id":149760,"name":"La Baticolla","lat":23.88702,"lng":-100.47412},{"id":149761,"name":"La Boquilla","lat":25.27028,"lng":-100.04361},{"id":149762,"name":"La Campana","lat":25.29898,"lng":-98.67721},{"id":149763,"name":"La Candelaria","lat":25.67833,"lng":-100.70333},{"id":149764,"name":"La Cardona","lat":23.40328,"lng":-99.98111},{"id":149765,"name":"La Chiripa","lat":23.72129,"lng":-100.37007},{"id":149766,"name":"La Chueca Cadereyta Jiménez","lat":25.51917,"lng":-99.98083},{"id":149767,"name":"La Colmena de Arriba","lat":25.28284,"lng":-100.05473},{"id":149768,"name":"La Escuadra","lat":25.25284,"lng":-99.99029},{"id":149769,"name":"La Esperanza","lat":24.71556,"lng":-100.56},{"id":149770,"name":"La Estrella","lat":24.9475,"lng":-99.78722},{"id":149771,"name":"La Fama","lat":25.66341,"lng":-100.4265},{"id":149772,"name":"La Florida","lat":24.12111,"lng":-99.82361},{"id":149773,"name":"La Gloria","lat":25.67139,"lng":-100.71417},{"id":149774,"name":"La Haciendita","lat":25.51853,"lng":-99.76589},{"id":149775,"name":"La Joya de Alardín","lat":23.99917,"lng":-99.79472},{"id":149776,"name":"La Lagunita","lat":24.93472,"lng":-100.23917},{"id":149777,"name":"La Lobera de Portillo","lat":23.5725,"lng":-100.21333},{"id":149778,"name":"La Maestranza","lat":25.61028,"lng":-100.16833},{"id":149779,"name":"La Mesa de Berrones","lat":23.64139,"lng":-100.09667},{"id":149780,"name":"La Palmita Nuevo Leon","lat":25.929525,"lng":-99.30310278},{"id":149781,"name":"La Presita de Berlanga","lat":24.43655,"lng":-100.15287},{"id":149782,"name":"La Providencia","lat":25.745,"lng":-99.88639},{"id":149783,"name":"La Purísima","lat":24.53536,"lng":-99.83052},{"id":149784,"name":"La Reforma","lat":24.69781,"lng":-99.54136},{"id":149785,"name":"La Soledad","lat":24.70889,"lng":-99.535},{"id":149786,"name":"La Tinaja","lat":25.48034,"lng":-100.1053},{"id":149787,"name":"La Trinidad","lat":25.23148,"lng":-100.14323},{"id":149788,"name":"La Unión y el Cardonal","lat":23.84741,"lng":-100.09433},{"id":149789,"name":"La Ventana","lat":25.14284,"lng":-100.15445},{"id":149790,"name":"Ladrillera","lat":25.7960495,"lng":-100.0921631},{"id":71567,"name":"Lampazos de Naranjo","lat":27.02549,"lng":-100.50528},{"id":149791,"name":"Las Barretas","lat":24.8487,"lng":-99.43584},{"id":149792,"name":"Las Brisas","lat":25.39284,"lng":-99.54898},{"id":149793,"name":"Las Mesas de San Juan","lat":23.50675,"lng":-100.1391},{"id":149794,"name":"Las Palomas","lat":23.54611,"lng":-100.18083},{"id":71643,"name":"Las Torres","lat":25.95167,"lng":-100.31806},{"id":71644,"name":"Las Torres de Guadalupe","lat":25.80611,"lng":-100.6225},{"id":71679,"name":"Linares","lat":24.85798,"lng":-99.56768},{"id":149795,"name":"Linares Nuevo León","lat":24.85965278,"lng":-99.56786944},{"id":71740,"name":"Loma la Paz","lat":25.71111,"lng":-100.13472},{"id":149796,"name":"Lomas de San Francisco","lat":25.21056,"lng":-100.0025},{"id":71750,"name":"Lomas de San Martín","lat":25.74722,"lng":-100.11972},{"id":149801,"name":"Los Álamos","lat":25.07807,"lng":-98.95178},{"id":149797,"name":"Los Aldamas","lat":26.05,"lng":-99.18333333},{"id":149802,"name":"Los Ángeles Nuevo León","lat":25.20257,"lng":-99.74834},{"id":149798,"name":"Los Dos Ríos","lat":25.66812,"lng":-99.63752},{"id":149799,"name":"Los Herreras","lat":25.905,"lng":-99.4025},{"id":71828,"name":"Los Parques","lat":25.79073,"lng":-100.46992},{"id":149800,"name":"Los Pocitos","lat":25.23478,"lng":-100.19335},{"id":71839,"name":"Los Ramones","lat":25.69716,"lng":-99.62529},{"id":149803,"name":"María Aurora","lat":25.86923,"lng":-99.80864},{"id":149804,"name":"María Auxiliadora","lat":25.23812,"lng":-99.79417},{"id":72007,"name":"Marín","lat":25.87946,"lng":-100.03028},{"id":72045,"name":"Mazatlan","lat":25.18909,"lng":-99.82865},{"id":149805,"name":"Melchor Ocampo Nuevo León","lat":26.05861111,"lng":-99.54222222},{"id":149806,"name":"Mexiquito","lat":25.19951,"lng":-99.80723},{"id":149807,"name":"Mier y Noriega","lat":23.42671,"lng":-100.17282},{"id":72141,"name":"Mina","lat":26.2993869,"lng":-100.8025046},{"id":72159,"name":"Misión San Pablo","lat":25.74,"lng":-100.14417},{"id":72162,"name":"Mitras Poniente","lat":25.77583,"lng":-100.42583},{"id":72192,"name":"Monclova Primer Sector","lat":25.81472,"lng":-100.40306},{"id":72193,"name":"Monclova Segundo Sector","lat":25.81531,"lng":-100.39682},{"id":72202,"name":"Monte Kristal","lat":25.62611,"lng":-100.15694},{"id":72215,"name":"Montemorelos","lat":25.16697,"lng":-99.8443},{"id":72219,"name":"Monterrey","lat":25.67507,"lng":-100.31847},{"id":149809,"name":"Náñez González","lat":25.45451,"lng":-100.07002},{"id":72664,"name":"Parás","lat":26.50013,"lng":-99.52156},{"id":149810,"name":"Parás Nuevo León","lat":26.49888889,"lng":-99.5225},{"id":72657,"name":"Parque Industrial Ciudad Mitras","lat":25.78861,"lng":-100.44778},{"id":72668,"name":"Paseo de San Javier","lat":25.73972,"lng":-100.13444},{"id":149811,"name":"Pedro Ibarra Hernández","lat":23.40508,"lng":-100.1727},{"id":72740,"name":"Pesquería","lat":25.78543,"lng":-100.05098},{"id":72854,"name":"Portal de las Salinas","lat":25.98222,"lng":-100.14333},{"id":72878,"name":"Praderas de San Francisco","lat":25.81833,"lng":-100.4025},{"id":72882,"name":"Prados de Santa Rosa","lat":25.79808,"lng":-100.22687},{"id":72937,"name":"Pueblo Nuevo","lat":25.48409,"lng":-99.75987},{"id":149812,"name":"Puerto Genovevo Santiago","lat":25.34264,"lng":-100.18364},{"id":73085,"name":"Rayones","lat":25.01799,"lng":-100.07362},{"id":73091,"name":"Real del Sol","lat":25.93833,"lng":-100.18111},{"id":73185,"name":"Río Verde","lat":24.90081,"lng":-99.54345},{"id":149813,"name":"Rubén Carlos Gallegos Reyes Villaldama","lat":26.48254,"lng":-100.42588},{"id":149814,"name":"Sabinas Hidalgo","lat":26.49833333,"lng":-100.18111111},{"id":73215,"name":"Salinas Victoria","lat":25.96329,"lng":-100.29091},{"id":73316,"name":"San Antonio","lat":25.63868,"lng":-100.05844},{"id":149815,"name":"San Antonio de Alamitos","lat":23.46476,"lng":-100.21659},{"id":149816,"name":"San Bernardo Nuevo León","lat":25.63333333,"lng":-98.93333333},{"id":149817,"name":"San José de Cuatro Caminos","lat":23.5025,"lng":-100.27528},{"id":149818,"name":"San José de Medina","lat":23.40508,"lng":-100.10687},{"id":73825,"name":"San José de Raíces","lat":24.57145,"lng":-100.24002},{"id":149819,"name":"San José Linares","lat":24.69202,"lng":-99.69665},{"id":73858,"name":"San Juan","lat":25.5428,"lng":-99.84091},{"id":149820,"name":"San Mateo Doctor Arroyo","lat":23.83925,"lng":-100.06995},{"id":74273,"name":"San Nicolás de los Garza","lat":25.74167,"lng":-100.30222},{"id":74335,"name":"San Pedro Garza Garcia","lat":25.65716,"lng":-100.40268},{"id":74427,"name":"San Rafael","lat":25.0306,"lng":-100.55139},{"id":149821,"name":"Santa Catarina","lat":25.67325,"lng":-100.45813},{"id":74837,"name":"Santa Rosa","lat":25.82463,"lng":-100.22164},{"id":149822,"name":"Santa Teresita","lat":25.87255,"lng":-100.11531},{"id":149823,"name":"Santa Verónica","lat":24.72306,"lng":-99.64778},{"id":74868,"name":"Santiago","lat":25.42533,"lng":-100.15205},{"id":75083,"name":"Simeprodeso (Colectivo Nuevo)","lat":25.85306,"lng":-100.29167},{"id":75880,"name":"Unión Agropecuarios Lázaro Cárdenas del Norte","lat":25.83222,"lng":-100.38417},{"id":149824,"name":"Valle Alto","lat":25.5667,"lng":-100.25},{"id":75922,"name":"Valle de Juárez","lat":25.63778,"lng":-100.15833},{"id":75923,"name":"Valle de Lincoln","lat":25.79333,"lng":-100.47778},{"id":75925,"name":"Valle de Vaquerías","lat":25.6325,"lng":-100.14694},{"id":75930,"name":"Vallecillo","lat":26.66033,"lng":-99.98744},{"id":76082,"name":"Villaldama","lat":26.47039,"lng":-100.38726},{"id":149825,"name":"Villaldama Nuevo León","lat":26.470747,"lng":-100.3707064},{"id":76087,"name":"Villas de Alcalá","lat":25.91528,"lng":-100.18528}]