[{"id":68103,"name":"Agua Azul","lat":20.60271,"lng":-100.20472},{"id":68112,"name":"Agua Fría","lat":21.15304,"lng":-99.80638},{"id":68118,"name":"Agua Zarca","lat":21.22003,"lng":-99.09075},{"id":68138,"name":"Ahuacatlán de Guadalupe","lat":21.21472,"lng":-99.54056},{"id":68167,"name":"Ajuchitlán","lat":20.70713,"lng":-100.02008},{"id":68166,"name":"Ajuchitlancito","lat":20.47601,"lng":-100.21583},{"id":68189,"name":"Alfajayucan","lat":20.7537,"lng":-100.21773},{"id":68250,"name":"Amazcala","lat":20.70339,"lng":-100.26511},{"id":68251,"name":"Amealco","lat":20.18758,"lng":-100.14485},{"id":68294,"name":"Apapátaro","lat":20.46806,"lng":-100.36861},{"id":68340,"name":"Arcila","lat":20.41037,"lng":-100.10993},{"id":68365,"name":"Arroyo Seco","lat":21.54777,"lng":-99.68832},{"id":68428,"name":"Atongo","lat":20.77288,"lng":-100.23953},{"id":68577,"name":"Bella Vista del Río","lat":20.69,"lng":-99.57139},{"id":68610,"name":"Bernal","lat":20.7403,"lng":-99.94125},{"id":68641,"name":"Bordo Blanco","lat":20.49631,"lng":-99.92855},{"id":68646,"name":"Boxasní","lat":20.67083,"lng":-99.84861},{"id":68647,"name":"Boyé","lat":20.68091,"lng":-99.73933},{"id":68648,"name":"Bravo","lat":20.39977,"lng":-100.42423},{"id":68672,"name":"Buenavista","lat":20.82372,"lng":-100.47009},{"id":68716,"name":"Cadereyta","lat":20.69701,"lng":-99.81624},{"id":68727,"name":"Calamanda","lat":20.54672,"lng":-100.18616},{"id":68817,"name":"Carbonera","lat":20.80518,"lng":-100.17117},{"id":68848,"name":"Casa Blanca","lat":20.38658,"lng":-100.02009},{"id":68890,"name":"Ceja de Bravo","lat":20.37856,"lng":-100.39423},{"id":68937,"name":"Cerro de la Cruz","lat":20.81474,"lng":-100.50109},{"id":68926,"name":"Cerro Gordo","lat":20.37329,"lng":-99.91385},{"id":68995,"name":"Charco Blanco","lat":20.43404,"lng":-100.47244},{"id":69028,"name":"Chichimequillas","lat":20.76512,"lng":-100.33588},{"id":69258,"name":"Colinas de Santa Cruz Segunda Sección","lat":20.62361,"lng":-100.46667},{"id":69414,"name":"Colón","lat":20.78323,"lng":-100.05149},{"id":69403,"name":"Colonia los Ángeles","lat":20.53523,"lng":-100.48828},{"id":69446,"name":"Concá","lat":21.44477,"lng":-99.63582},{"id":69524,"name":"Coyotillos","lat":20.59938,"lng":-100.20898},{"id":69703,"name":"Dolores Cuadrilla de Enmedio","lat":20.35257,"lng":-100.07967},{"id":69847,"name":"El Blanco","lat":20.61119,"lng":-100.10159},{"id":69873,"name":"El Carmen","lat":20.57445,"lng":-100.28804},{"id":69889,"name":"El Cazadero","lat":20.30011,"lng":-99.87186},{"id":69905,"name":"El Ciervo","lat":20.61834,"lng":-99.87242},{"id":69912,"name":"El Colorado","lat":20.56185,"lng":-100.2452},{"id":69931,"name":"El Coto","lat":20.39491,"lng":-100.13465},{"id":69976,"name":"El Gallo","lat":20.66973,"lng":-100.04677},{"id":69999,"name":"El Jaral","lat":20.40647,"lng":-100.45524},{"id":70002,"name":"El Jazmín","lat":20.34444,"lng":-100.04667},{"id":70026,"name":"El Lobo","lat":20.72904,"lng":-100.20226},{"id":70037,"name":"El Milagro","lat":20.47429,"lng":-100.34918},{"id":70052,"name":"El Nabo","lat":20.69389,"lng":-100.48028},{"id":70073,"name":"El Organal","lat":20.47751,"lng":-100.05457},{"id":70078,"name":"El Palmar","lat":20.69347,"lng":-99.70645},{"id":70089,"name":"El Paraíso","lat":20.56402,"lng":-100.21617},{"id":70105,"name":"El Pinto","lat":20.8027,"lng":-100.41096},{"id":70129,"name":"El Pozo","lat":20.6375,"lng":-100.33306},{"id":70136,"name":"El Pueblito","lat":20.53996,"lng":-100.43817},{"id":70159,"name":"El Rincón","lat":20.74111,"lng":-99.78472},{"id":70177,"name":"El Rosario","lat":20.3918,"lng":-100.06583},{"id":70187,"name":"El Salitre","lat":20.66596,"lng":-100.42288},{"id":70204,"name":"El Saúz","lat":20.47774,"lng":-100.1154},{"id":70215,"name":"El Tejocote","lat":20.61976,"lng":-100.03447},{"id":70250,"name":"El Vegil","lat":20.43111,"lng":-100.35024},{"id":70311,"name":"Epigmenio González","lat":20.5509,"lng":-100.16505},{"id":70319,"name":"Escolasticas","lat":20.42809,"lng":-100.21186},{"id":70328,"name":"Esperanza","lat":20.6461,"lng":-100.11128},{"id":70391,"name":"Ezequiel Montes","lat":20.66481,"lng":-99.8996},{"id":70497,"name":"Fuentezuelas","lat":20.55586,"lng":-99.98209},{"id":70514,"name":"Galeras","lat":20.61759,"lng":-100.15731},{"id":70515,"name":"Galindo","lat":20.39725,"lng":-100.0984},{"id":70541,"name":"General Lázaro Cárdenas (El Colorado)","lat":20.56389,"lng":-100.24389},{"id":70591,"name":"Guadalupe Septién","lat":20.52746,"lng":-100.11352},{"id":70660,"name":"Hacienda la Cruz [Fraccionamiento]","lat":20.63333,"lng":-100.26278},{"id":70697,"name":"Higuerillas","lat":20.91625,"lng":-99.76556},{"id":70796,"name":"Huimilpan","lat":20.37199,"lng":-100.27737},{"id":70844,"name":"Ignacio Pérez","lat":20.52225,"lng":-100.11129},{"id":70979,"name":"Jalpan","lat":21.21802,"lng":-99.47152},{"id":71031,"name":"Jesús María","lat":20.62274,"lng":-100.25631},{"id":71063,"name":"Joaquín Herrera","lat":20.483,"lng":-100.43854},{"id":71068,"name":"Jofrito","lat":20.86154,"lng":-100.41884},{"id":71142,"name":"Juriquilla","lat":20.71277,"lng":-100.45568},{"id":71182,"name":"La Barreta","lat":20.82806,"lng":-100.50647},{"id":71206,"name":"La Cañada","lat":20.60805,"lng":-100.33275},{"id":71211,"name":"La Ceja","lat":20.38026,"lng":-100.26505},{"id":71257,"name":"La D","lat":20.44046,"lng":-100.15296},{"id":71279,"name":"La Estacada","lat":20.82151,"lng":-100.40763},{"id":71281,"name":"La Estancia","lat":20.42123,"lng":-100.06616},{"id":71296,"name":"La Fuente","lat":20.55255,"lng":-100.03591},{"id":71306,"name":"La Gotera","lat":20.86319,"lng":-100.37575},{"id":71308,"name":"La Griega","lat":20.66642,"lng":-100.24012},{"id":71349,"name":"La Laja","lat":20.57468,"lng":-99.9807},{"id":71360,"name":"La Lira","lat":20.47554,"lng":-100.16145},{"id":71361,"name":"La Llave","lat":20.46628,"lng":-99.99373},{"id":71366,"name":"La Loma","lat":20.6,"lng":-100.23889},{"id":71377,"name":"La Luz","lat":20.86857,"lng":-100.43839},{"id":71403,"name":"La Monja","lat":20.84275,"lng":-100.49754},{"id":71404,"name":"La Negreta","lat":20.52647,"lng":-100.45053},{"id":71406,"name":"La Noria","lat":20.51261,"lng":-100.3461},{"id":71420,"name":"La Palma","lat":20.52219,"lng":-100.17392},{"id":71446,"name":"La Piedad","lat":20.5789,"lng":-100.25573},{"id":71456,"name":"La Pradera","lat":20.65889,"lng":-100.34222},{"id":71489,"name":"La Solana","lat":20.73835,"lng":-100.39469},{"id":71495,"name":"La Soledad","lat":20.16944,"lng":-100.19111},{"id":71506,"name":"La Tortuga","lat":20.56703,"lng":-99.92317},{"id":71508,"name":"La Trinidad","lat":20.5156,"lng":-99.96283},{"id":71526,"name":"La Valla","lat":20.49966,"lng":-100.02689},{"id":71530,"name":"La Versolilla","lat":20.87306,"lng":-100.37889},{"id":71556,"name":"Laguna de Vaquerías","lat":20.35392,"lng":-100.13515},{"id":71564,"name":"Lagunillas","lat":20.45876,"lng":-100.295},{"id":71568,"name":"Landa de Matamoros","lat":21.18484,"lng":-99.31985},{"id":71608,"name":"Las Lajitas","lat":20.8036,"lng":-100.40107},{"id":71641,"name":"Las Taponas","lat":20.41747,"lng":-100.38421},{"id":71722,"name":"Loma Linda","lat":20.40079,"lng":-100.03132},{"id":71778,"name":"Los Baños","lat":20.7905,"lng":-100.3131},{"id":71779,"name":"Los Benitos","lat":20.685,"lng":-99.95611},{"id":71788,"name":"Los Cerritos","lat":20.56204,"lng":-100.06338},{"id":71795,"name":"Los Cues","lat":20.50194,"lng":-100.26417},{"id":71825,"name":"Los Olvera","lat":20.53434,"lng":-100.40795},{"id":71835,"name":"Los Pocitos","lat":20.8,"lng":-100.31408},{"id":71875,"name":"Lourdes","lat":20.51271,"lng":-100.47643},{"id":72084,"name":"Mesillas","lat":20.13653,"lng":-100.00157},{"id":72190,"name":"Mompaní","lat":20.69214,"lng":-100.50679},{"id":72216,"name":"Montenegro","lat":20.76333,"lng":-100.42861},{"id":72333,"name":"Ninguno [CERESO]","lat":20.67361,"lng":-100.36028},{"id":72351,"name":"Noria Nueva","lat":20.55671,"lng":-100.12502},{"id":72488,"name":"Ojo de Agua","lat":20.34746,"lng":-100.03528},{"id":72595,"name":"Palmillas","lat":20.33631,"lng":-99.94035},{"id":72605,"name":"Palo Alto","lat":20.54065,"lng":-100.2213},{"id":72673,"name":"Paseos del Marqués","lat":20.60389,"lng":-100.24028},{"id":72674,"name":"Paseos del Pedregal","lat":20.66417,"lng":-100.39806},{"id":72688,"name":"Paso de Mata","lat":20.3423,"lng":-99.92712},{"id":72711,"name":"Patria Nueva","lat":20.63222,"lng":-100.47694},{"id":72725,"name":"Pedro Escobedo","lat":20.49963,"lng":-100.14278},{"id":72752,"name":"Peñamiller","lat":21.05408,"lng":-99.81573},{"id":72763,"name":"Pie de Gallo","lat":20.78351,"lng":-100.49243},{"id":72778,"name":"Pinal de Amoles","lat":21.13448,"lng":-99.6259},{"id":72783,"name":"Pintillo","lat":20.79667,"lng":-100.41694},{"id":72888,"name":"Presa de Rayas","lat":20.80712,"lng":-100.22252},{"id":72962,"name":"Puerta de Palmillas","lat":20.31204,"lng":-99.91629},{"id":72975,"name":"Puerto de Aguirre","lat":20.80652,"lng":-100.43213},{"id":72977,"name":"Puerto de Carroza","lat":20.89862,"lng":-100.41164},{"id":72978,"name":"Puerto de Chiquihuite","lat":20.70083,"lng":-99.83528},{"id":72979,"name":"Puerto de Nieto","lat":20.88975,"lng":-100.53814},{"id":72995,"name":"Purísima de Arista","lat":21.3109,"lng":-99.51215},{"id":72998,"name":"Purísima de Cubos (La Purísima)","lat":20.60028,"lng":-100.11833},{"id":73025,"name":"Querétaro","lat":20.72105,"lng":-100.44738},{"id":73058,"name":"Rancho Bellavista [Fraccionamiento]","lat":20.60667,"lng":-100.44972},{"id":73211,"name":"Saldarriaga","lat":20.62781,"lng":-100.29307},{"id":73367,"name":"San Antonio de la Cal","lat":20.76693,"lng":-99.93771},{"id":73468,"name":"San Clemente","lat":20.51509,"lng":-100.08459},{"id":73615,"name":"San Francisco de la Palma","lat":20.66028,"lng":-100.51528},{"id":73659,"name":"San Ildefonso","lat":20.5675,"lng":-100.17262},{"id":73661,"name":"San Ildefonso Tultepec","lat":20.14381,"lng":-99.95946},{"id":73677,"name":"San Isidro Buenavista","lat":20.78874,"lng":-100.44908},{"id":73680,"name":"San Isidro Miranda","lat":20.57018,"lng":-100.32425},{"id":73696,"name":"San Javier","lat":20.75265,"lng":-99.71683},{"id":73751,"name":"San José Buenavista","lat":20.73482,"lng":-100.40997},{"id":73830,"name":"San José de la Laja","lat":20.61844,"lng":-99.9755},{"id":73736,"name":"San Jose de los Olvera","lat":20.55307,"lng":-100.41518},{"id":73836,"name":"San José del Jagüey","lat":20.73722,"lng":-99.92444},{"id":73847,"name":"San José el Alto","lat":20.65339,"lng":-100.38218},{"id":73768,"name":"San José Itho","lat":20.16544,"lng":-100.12704},{"id":73791,"name":"San José Tepuzas","lat":20.35417,"lng":-100.37528},{"id":73976,"name":"San Juan del Río","lat":20.38886,"lng":-99.99577},{"id":74084,"name":"San Martín","lat":20.72282,"lng":-99.97522},{"id":74097,"name":"San Martín Florida","lat":20.75662,"lng":-99.82508},{"id":74161,"name":"San Miguel Amazcala","lat":20.75056,"lng":-100.23556},{"id":74243,"name":"San Miguelito","lat":20.73709,"lng":-100.50276},{"id":74248,"name":"San Nicolás","lat":20.47689,"lng":-99.93749},{"id":74271,"name":"San Nicolás de la Torre","lat":20.07806,"lng":-100.10139},{"id":74302,"name":"San Pablo Tolimán","lat":20.85703,"lng":-99.89985},{"id":74309,"name":"San Pedro","lat":20.32055,"lng":-100.28466},{"id":74357,"name":"San Pedro Mártir","lat":20.61795,"lng":-100.47024},{"id":74426,"name":"San Rafael","lat":20.75246,"lng":-100.28583},{"id":74477,"name":"San Sebastián de Las Barrancas Sur","lat":20.26565,"lng":-99.93622},{"id":74509,"name":"San Vicente el Alto","lat":20.56857,"lng":-100.16495},{"id":74500,"name":"San Vicente Ferrer","lat":20.72703,"lng":-100.34584},{"id":74568,"name":"Santa Bárbara de La Cueva","lat":20.29632,"lng":-99.96296},{"id":74578,"name":"Santa Catarina","lat":20.77678,"lng":-100.45233},{"id":74610,"name":"Santa Cruz","lat":20.71179,"lng":-100.30414},{"id":74623,"name":"Santa Cruz Escandón","lat":20.41603,"lng":-99.95563},{"id":74721,"name":"Santa María Begoña","lat":20.74662,"lng":-100.31765},{"id":74755,"name":"Santa María Magdalena","lat":20.5969,"lng":-100.44749},{"id":74824,"name":"Santa Matilde","lat":20.43268,"lng":-100.02611},{"id":74848,"name":"Santa Rosa de Lima","lat":20.66565,"lng":-99.97851},{"id":74843,"name":"Santa Rosa Jauregui","lat":20.74122,"lng":-100.44843},{"id":74847,"name":"Santa Rosa Xajay","lat":20.43667,"lng":-99.89923},{"id":74985,"name":"Santiago de Querétaro","lat":20.58806,"lng":-100.38806},{"id":74923,"name":"Santiago Mexquititlán Barrio 4to.","lat":20.06306,"lng":-100.06833},{"id":74992,"name":"Santillán","lat":20.60073,"lng":-99.93951},{"id":75062,"name":"Sergio Villaseñor","lat":20.645,"lng":-100.42083},{"id":75463,"name":"Tequisquiapan","lat":20.5225,"lng":-99.89167},{"id":75543,"name":"Tierra Blanca","lat":20.78026,"lng":-100.38},{"id":75614,"name":"Tlacote el Bajo","lat":20.66139,"lng":-100.50769},{"id":75721,"name":"Tolimán","lat":20.90845,"lng":-99.9304},{"id":75889,"name":"Urecho","lat":20.65388,"lng":-100.07402},{"id":75951,"name":"Venceremos","lat":20.55083,"lng":-100.39806},{"id":75968,"name":"Viborillas","lat":20.60882,"lng":-100.18558},{"id":76006,"name":"Villa Guerrero","lat":20.69704,"lng":-99.76093},{"id":76041,"name":"Villa Progreso","lat":20.64234,"lng":-99.83501},{"id":76086,"name":"Villas Fundadores [Fraccionamiento]","lat":20.37778,"lng":-99.90944},{"id":76096,"name":"Vista Hermosa (Cuasinada)","lat":20.36861,"lng":-100.0125},{"id":76098,"name":"Visthá","lat":20.4467,"lng":-99.97673},{"id":76102,"name":"Vizarrón","lat":20.83218,"lng":-99.72011},{"id":76245,"name":"Yosphí","lat":20.17083,"lng":-99.95222},{"id":76296,"name":"Zamorano","lat":20.80819,"lng":-100.11797}]