[{"id":68012,"name":"Abasolo","lat":24.05844,"lng":-98.37333},{"id":68184,"name":"Aldama","lat":22.92157,"lng":-98.07519},{"id":68196,"name":"Alfredo V. Bonfil","lat":25.56203,"lng":-98.23952},{"id":68221,"name":"Altamira","lat":22.39215,"lng":-97.93867},{"id":68284,"name":"Anáhuac","lat":25.77638,"lng":-97.77413},{"id":68277,"name":"Antiguo Morelos","lat":22.5495,"lng":-99.08123},{"id":68522,"name":"Barretal","lat":24.08337,"lng":-99.12526},{"id":68692,"name":"Burgos","lat":24.94722,"lng":-98.79921},{"id":68693,"name":"Bustamante","lat":23.43524,"lng":-99.75875},{"id":68759,"name":"Camargo","lat":26.2313,"lng":-98.85019},{"id":68818,"name":"Carboneras","lat":24.62766,"lng":-97.71755},{"id":68839,"name":"Carrillo Puerto","lat":22.43139,"lng":-97.96417},{"id":68852,"name":"Casas","lat":23.72686,"lng":-98.73662},{"id":68699,"name":"CEFERESO Número 3","lat":25.84722,"lng":-97.63333},{"id":69147,"name":"Ciudad Camargo","lat":26.31437,"lng":-98.83378},{"id":69159,"name":"Ciudad Gustavo Díaz Ordaz","lat":26.23186,"lng":-98.5956},{"id":69166,"name":"Ciudad Madero","lat":22.27228,"lng":-97.83623},{"id":69167,"name":"Ciudad Mante","lat":22.74304,"lng":-98.9739},{"id":69171,"name":"Ciudad Miguel Alemán","lat":26.39952,"lng":-99.02836},{"id":69176,"name":"Ciudad Río Bravo","lat":25.98729,"lng":-98.09414},{"id":69182,"name":"Ciudad Tula","lat":22.99732,"lng":-99.71101},{"id":69184,"name":"Ciudad Victoria","lat":23.74174,"lng":-99.14599},{"id":69419,"name":"Comales","lat":26.18187,"lng":-98.92037},{"id":69540,"name":"Cruillas","lat":24.75658,"lng":-98.53739},{"id":69578,"name":"Cuauhtémoc","lat":22.54408,"lng":-98.15074},{"id":69822,"name":"El Abra","lat":22.62058,"lng":-99.02142},{"id":69839,"name":"El Barrancón del Tío Blas (El Barrancón)","lat":25.01556,"lng":-97.71694},{"id":69859,"name":"El Campanario y Oradel","lat":27.47306,"lng":-99.62},{"id":69922,"name":"El Control","lat":25.95867,"lng":-97.81281},{"id":69974,"name":"El Galaneño","lat":25.76091,"lng":-97.54507},{"id":70016,"name":"El Limón","lat":22.82498,"lng":-99.00512},{"id":70033,"name":"El Mante","lat":22.67241,"lng":-98.9382},{"id":70145,"name":"El Realito","lat":25.66528,"lng":-97.8754},{"id":70355,"name":"Estación Santa Engracia","lat":24.01528,"lng":-99.20194},{"id":70371,"name":"Esteros","lat":22.52005,"lng":-98.12607},{"id":70555,"name":"González","lat":22.82735,"lng":-98.42713},{"id":70558,"name":"Graciano Sánchez","lat":22.6543,"lng":-98.55467},{"id":70595,"name":"Guadalupe Victoria","lat":24.08205,"lng":-98.2334},{"id":70629,"name":"Guemes","lat":23.91865,"lng":-99.00609},{"id":70648,"name":"Güémez","lat":23.90693,"lng":-99.06872},{"id":70632,"name":"Guerrero","lat":26.90952,"lng":-99.45995},{"id":70635,"name":"Guillermo Zúñiga","lat":24.01548,"lng":-99.20074},{"id":70641,"name":"Gustavo Díaz Ordaz","lat":26.1613,"lng":-98.64045},{"id":70680,"name":"Heroica Matamoros","lat":25.87972,"lng":-97.50417},{"id":70684,"name":"Hidalgo","lat":24.24812,"lng":-99.43897},{"id":71012,"name":"Jaumave","lat":23.40621,"lng":-99.38072},{"id":71052,"name":"Jiménez","lat":24.26262,"lng":-98.49656},{"id":71218,"name":"La Colonia","lat":22.4388,"lng":-98.01729},{"id":71352,"name":"La Libertad","lat":23.79079,"lng":-99.19132},{"id":71399,"name":"La Misión","lat":23.80326,"lng":-99.17025},{"id":71438,"name":"La Pedrera","lat":22.39353,"lng":-97.8821},{"id":71443,"name":"La Pesca","lat":23.7866,"lng":-97.77712},{"id":71603,"name":"Las Higuerillas","lat":25.26222,"lng":-97.43611},{"id":71889,"name":"Lázaro Cárdenas","lat":22.9709,"lng":-100.05357},{"id":71698,"name":"Llera","lat":23.26609,"lng":-98.91836},{"id":71699,"name":"Llera de Canales","lat":23.31774,"lng":-99.02608},{"id":71759,"name":"Lomas del Real","lat":22.52052,"lng":-97.89913},{"id":71901,"name":"López Rayón","lat":22.49758,"lng":-98.45979},{"id":71775,"name":"Los Aztecas","lat":22.50093,"lng":-98.61417},{"id":71784,"name":"Los Cavazos","lat":26.14803,"lng":-98.34508},{"id":71805,"name":"Los Guerra","lat":26.39429,"lng":-99.07972},{"id":71907,"name":"Maclovio Herrera","lat":22.50062,"lng":-98.08545},{"id":71935,"name":"Magdaleno Cedillo","lat":22.78882,"lng":-99.93799},{"id":71940,"name":"Mainero","lat":24.58503,"lng":-99.56313},{"id":72019,"name":"Matamoros","lat":25.72171,"lng":-97.60135},{"id":72260,"name":"Méndez","lat":25.11819,"lng":-98.58666},{"id":72121,"name":"Mier","lat":26.42969,"lng":-99.15212},{"id":72123,"name":"Miguel Alemán","lat":26.26713,"lng":-99.06203},{"id":72151,"name":"Miquihuana","lat":23.57575,"lng":-99.75438},{"id":72154,"name":"Miramar","lat":22.36094,"lng":-97.89997},{"id":72320,"name":"Nicolás Bravo","lat":24.0018,"lng":-98.25927},{"id":72360,"name":"Nueva Apolonia","lat":22.49743,"lng":-98.63103},{"id":72361,"name":"Nueva Ciudad Guerrero","lat":26.56219,"lng":-99.22863},{"id":72377,"name":"Nueva Villa de Padilla","lat":24.04784,"lng":-98.90085},{"id":72383,"name":"Nuevo Cereso Regional de Altamira","lat":22.46056,"lng":-98.00833},{"id":72390,"name":"Nuevo Laredo","lat":27.47629,"lng":-99.51639},{"id":72396,"name":"Nuevo Morelos","lat":22.53604,"lng":-99.21934},{"id":72404,"name":"Nuevo Progreso","lat":26.0553,"lng":-97.95217},{"id":72415,"name":"Nuevo Tantoán","lat":22.42623,"lng":-98.56834},{"id":72436,"name":"Ocampo","lat":22.84695,"lng":-99.33866},{"id":72572,"name":"Padilla","lat":24.05571,"lng":-98.89671},{"id":72597,"name":"Palmillas","lat":23.30225,"lng":-99.54896},{"id":72799,"name":"Plan de Ayala","lat":22.54028,"lng":-98.76722},{"id":72898,"name":"Primero de Mayo","lat":22.96058,"lng":-98.94992},{"id":73038,"name":"Quintero","lat":22.66289,"lng":-99.03584},{"id":73050,"name":"Ramírez","lat":25.9518,"lng":-97.78558},{"id":73104,"name":"Reynosa","lat":26.08061,"lng":-98.28835},{"id":73105,"name":"Ricardo Flores Magón","lat":22.45115,"lng":-97.90739},{"id":73170,"name":"Río Bravo","lat":25.83854,"lng":-98.03879},{"id":73346,"name":"San Antonio Rayón","lat":22.42079,"lng":-98.41648},{"id":73458,"name":"San Carlos","lat":24.58223,"lng":-98.94208},{"id":73534,"name":"San Fernando","lat":24.84749,"lng":-98.14828},{"id":73637,"name":"San Germán","lat":25.21681,"lng":-97.92186},{"id":74249,"name":"San Nicolás","lat":24.69377,"lng":-98.83},{"id":74518,"name":"Santa Adelaida","lat":25.85414,"lng":-97.65216},{"id":74562,"name":"Santa Apolonia","lat":25.64303,"lng":-97.98486},{"id":74865,"name":"Santander Jiménez","lat":24.21682,"lng":-98.48433},{"id":75127,"name":"Soto la Marina","lat":23.76953,"lng":-98.20442},{"id":75191,"name":"Tampico","lat":22.29508,"lng":-97.93595},{"id":75193,"name":"Tampiquito","lat":23.83333,"lng":-98.19469},{"id":75790,"name":"Tula","lat":22.97028,"lng":-99.70257},{"id":75879,"name":"Unidos Avanzamos","lat":22.43389,"lng":-97.97167},{"id":75896,"name":"Ursulo Galván","lat":22.72779,"lng":-98.32191},{"id":75905,"name":"Valadeces","lat":26.23176,"lng":-98.67726},{"id":75914,"name":"Valle Hermoso","lat":25.67207,"lng":-97.81313},{"id":75935,"name":"Vamos Tamaulipas","lat":25.98667,"lng":-98.22167},{"id":75983,"name":"Victoria","lat":23.75836,"lng":-99.13489},{"id":76033,"name":"Villa Mainero","lat":24.56007,"lng":-99.61561},{"id":76078,"name":"Villagrán","lat":24.47264,"lng":-99.49107},{"id":76143,"name":"Xicoténcatl","lat":22.99623,"lng":-98.94218}]