[{"id":68015,"name":"Abasolo","lat":20.44997,"lng":-101.53073},{"id":68087,"name":"Acámbaro","lat":20.03085,"lng":-100.72194},{"id":68088,"name":"Adjuntas del Río","lat":21.11667,"lng":-100.86806},{"id":68125,"name":"Aguas Buenas","lat":20.97028,"lng":-101.3725},{"id":68181,"name":"Alcocer","lat":20.86867,"lng":-100.70456},{"id":68185,"name":"Aldama","lat":20.81641,"lng":-101.31467},{"id":68191,"name":"Alfaro","lat":21.14941,"lng":-101.60611},{"id":68253,"name":"Ameche","lat":20.55261,"lng":-100.58367},{"id":68296,"name":"Apaseo el Alto","lat":20.45798,"lng":-100.62081},{"id":68297,"name":"Apaseo el Grande","lat":20.54495,"lng":-100.68462},{"id":68329,"name":"Arandas","lat":20.72468,"lng":-101.37296},{"id":68392,"name":"Atarjea","lat":21.26777,"lng":-99.71914},{"id":68505,"name":"Bajío de Bonillas","lat":20.94944,"lng":-101.49528},{"id":68523,"name":"Barretos","lat":20.93933,"lng":-101.64282},{"id":68543,"name":"Barrio de Guadalupe del Mezquitillo","lat":20.94417,"lng":-101.80083},{"id":68562,"name":"Barrón","lat":20.67667,"lng":-101.08423},{"id":68640,"name":"Boquillas","lat":20.41642,"lng":-101.43333},{"id":68681,"name":"Buenavista de Cortés","lat":20.37326,"lng":-101.87021},{"id":68733,"name":"Caleras de Ameche","lat":20.56133,"lng":-100.56013},{"id":68754,"name":"Calzada del Tepozán","lat":20.73762,"lng":-101.88299},{"id":68874,"name":"Cañada de Bustos","lat":20.90436,"lng":-101.3126},{"id":68875,"name":"Cañada de Caracheo","lat":20.37552,"lng":-100.94549},{"id":68879,"name":"Cañada de Negros","lat":20.92636,"lng":-101.92115},{"id":68813,"name":"Capulín de Bustos","lat":20.88242,"lng":-101.3068},{"id":69660,"name":"Cárdenas","lat":20.63012,"lng":-101.2204},{"id":68842,"name":"Carrizal Grande","lat":20.70634,"lng":-101.306},{"id":68891,"name":"Celaya","lat":20.52353,"lng":-100.8157},{"id":68899,"name":"Centro Familiar la Soledad","lat":21.135,"lng":-101.74972},{"id":68904,"name":"Cerano","lat":20.10877,"lng":-101.3871},{"id":68910,"name":"Cerrito de Gasca","lat":20.61829,"lng":-101.062},{"id":68915,"name":"Cerritos","lat":20.88552,"lng":-100.5988},{"id":68923,"name":"Cerro Colorado","lat":20.40111,"lng":-101.32451},{"id":68928,"name":"Cerro Gordo","lat":20.59294,"lng":-101.12684},{"id":68971,"name":"Chamácuaro","lat":20.10444,"lng":-100.82756},{"id":68997,"name":"Charco de Pantoja","lat":20.38949,"lng":-101.35436},{"id":69029,"name":"Chichimequillas","lat":21.03716,"lng":-101.44274},{"id":69094,"name":"Chirimoya (Estación Chirimoya)","lat":21.59278,"lng":-101.09139},{"id":69124,"name":"Churipitzeo","lat":20.41185,"lng":-101.74206},{"id":69129,"name":"Cieneguilla","lat":21.24833,"lng":-100.27389},{"id":69168,"name":"Ciudad Manuel Doblado","lat":20.72888,"lng":-101.95226},{"id":69205,"name":"Coachiti","lat":20.55944,"lng":-100.58944},{"id":69264,"name":"Colonia 18 de Marzo","lat":20.55556,"lng":-101.03556},{"id":69302,"name":"Colonia Fraccionamiento el Puente","lat":20.52361,"lng":-100.89667},{"id":69304,"name":"Colonia Francisco Javier Mina","lat":20.97944,"lng":-101.41639},{"id":69393,"name":"Colonia la Calzada (La Olla)","lat":20.50278,"lng":-100.95889},{"id":69319,"name":"Colonia Latinoamericana","lat":21.03028,"lng":-101.70583},{"id":69332,"name":"Colonia Morelos","lat":20.36832,"lng":-101.89937},{"id":69336,"name":"Colonia Morelos de Guadalupe de Rivera","lat":20.59556,"lng":-101.44833},{"id":69341,"name":"Colonia Nuevo México","lat":20.98475,"lng":-101.48502},{"id":69345,"name":"Colonia Padre Hidalgo","lat":21.17056,"lng":-100.93556},{"id":69349,"name":"Colonia Patria Nueva","lat":20.52833,"lng":-100.87944},{"id":69350,"name":"Colonia Pedro María Anaya","lat":20.52611,"lng":-100.87778},{"id":69353,"name":"Colonia Rafael Corrales Ayala","lat":20.90194,"lng":-101.51611},{"id":69367,"name":"Colonia San Luis Rey","lat":20.93556,"lng":-100.73611},{"id":69421,"name":"Comanjilla","lat":21.0651,"lng":-101.47303},{"id":69428,"name":"Comonfort","lat":20.72278,"lng":-100.75946},{"id":69482,"name":"Coroneo","lat":20.20001,"lng":-100.36546},{"id":69488,"name":"Corral de Piedras de Arriba","lat":20.97577,"lng":-100.59474},{"id":69490,"name":"Corralejo de Arriba","lat":20.89667,"lng":-100.65444},{"id":69494,"name":"Cortazar","lat":20.48362,"lng":-100.96237},{"id":69565,"name":"Cuarta Brigada","lat":20.62194,"lng":-101.28001},{"id":69605,"name":"Cuchicuato","lat":20.66092,"lng":-101.46203},{"id":69616,"name":"Cuerámaro","lat":20.62546,"lng":-101.67242},{"id":69620,"name":"Cuesta de Peñones","lat":21.084,"lng":-100.23671},{"id":69642,"name":"Cupareo","lat":20.22876,"lng":-101.01806},{"id":69670,"name":"De Parral","lat":20.45611,"lng":-101.00778},{"id":69674,"name":"Delgado de Abajo","lat":20.71749,"lng":-100.89338},{"id":69675,"name":"Delgado de Arriba","lat":20.72222,"lng":-100.9008},{"id":69680,"name":"Derramadero Segundo (Infiernillo)","lat":21.0975,"lng":-100.51417},{"id":69699,"name":"Doctor Mora","lat":21.14246,"lng":-100.31966},{"id":69706,"name":"Dolores Hidalgo Cuna de la Independencia Nacional","lat":21.15611,"lng":-100.9325},{"id":69710,"name":"Don Diego","lat":20.69791,"lng":-100.90209},{"id":69711,"name":"Don Francisco","lat":20.90281,"lng":-100.91873},{"id":69730,"name":"Duarte","lat":21.08712,"lng":-101.52431},{"id":69769,"name":"Ejido Jesús María","lat":21.14194,"lng":-100.91167},{"id":69814,"name":"Ejido la Joya","lat":21.14325,"lng":-101.73922},{"id":69823,"name":"El Acebuche","lat":20.22311,"lng":-100.74196},{"id":69860,"name":"El Canario","lat":20.15694,"lng":-101.33556},{"id":69865,"name":"El Capulín","lat":21.04043,"lng":-100.3222},{"id":69868,"name":"El Caracol","lat":20.56718,"lng":-100.9829},{"id":69872,"name":"El Carmen","lat":20.64009,"lng":-101.37259},{"id":69880,"name":"El Carretón","lat":21.63045,"lng":-100.98064},{"id":69883,"name":"El Carrizalito","lat":20.70371,"lng":-101.32439},{"id":69887,"name":"El Castillo","lat":20.58072,"lng":-100.49297},{"id":69852,"name":"El CERESO","lat":21.02222,"lng":-101.68917},{"id":69901,"name":"El Chinaco (El Pujido)","lat":20.52222,"lng":-100.91972},{"id":69909,"name":"El Coecillo","lat":20.97651,"lng":-101.4501},{"id":69925,"name":"El Copalillo","lat":20.72745,"lng":-101.3457},{"id":69944,"name":"El Divisador","lat":20.57722,"lng":-101.15806},{"id":69957,"name":"El Escoplo","lat":20.91004,"lng":-101.51127},{"id":69959,"name":"El Espejo","lat":20.44094,"lng":-100.55417},{"id":69968,"name":"El Fresno","lat":20.27322,"lng":-100.49154},{"id":69975,"name":"El Gallinero","lat":21.18208,"lng":-100.95996},{"id":69992,"name":"El Huizache","lat":20.41934,"lng":-100.95978},{"id":69997,"name":"El Jaguey","lat":20.91499,"lng":-101.63426},{"id":70020,"name":"El Llanito","lat":21.12143,"lng":-100.9511},{"id":70029,"name":"El Maguey","lat":20.98035,"lng":-101.84651},{"id":70036,"name":"El Mezquitillo","lat":20.96213,"lng":-101.80857},{"id":70049,"name":"El Moral","lat":20.1303,"lng":-101.28862},{"id":70053,"name":"El Nacimiento","lat":20.53596,"lng":-100.61017},{"id":70054,"name":"El Naranjillo","lat":20.71417,"lng":-101.00056},{"id":70102,"name":"El Picacho","lat":20.71016,"lng":-100.63704},{"id":70141,"name":"El Puesto","lat":20.4689,"lng":-100.82763},{"id":70149,"name":"El Recuerdo de Ancón (Xoconoxtle de Arriba)","lat":20.63806,"lng":-101.12694},{"id":70156,"name":"El Refugio de los Sauces","lat":21.01488,"lng":-101.53084},{"id":70181,"name":"El Sabino","lat":20.28131,"lng":-101.00224},{"id":70192,"name":"El Salto de Espejo","lat":20.45045,"lng":-100.50587},{"id":70195,"name":"El Salvador (Ranchito San José del Carmen)","lat":20.2875,"lng":-100.87722},{"id":70201,"name":"El Sauz (El Sauz de Villaseñor)","lat":20.41056,"lng":-100.79667},{"id":70212,"name":"El Tecolote","lat":20.88407,"lng":-101.92432},{"id":70216,"name":"El Tejocote (El Domingo)","lat":21.67611,"lng":-100.915},{"id":70245,"name":"El Tunal","lat":20.56944,"lng":-100.61995},{"id":70248,"name":"El Varal","lat":20.34845,"lng":-101.60028},{"id":70257,"name":"El Vicarlo","lat":20.58211,"lng":-100.6712},{"id":70261,"name":"El Zapote","lat":21.73563,"lng":-101.04905},{"id":70299,"name":"Empalme Escobedo","lat":20.6725,"lng":-100.74675},{"id":70341,"name":"Estación Corralejo","lat":20.47,"lng":-101.61639},{"id":70360,"name":"Estación de San Francisco","lat":21.03722,"lng":-101.82472},{"id":70344,"name":"Estación Joaquín","lat":20.56082,"lng":-101.51993},{"id":70361,"name":"Estación la Piedad","lat":20.3675,"lng":-101.99806},{"id":70350,"name":"Estación Pénjamo","lat":20.3947,"lng":-101.69188},{"id":70364,"name":"Estancia del Llano","lat":20.51101,"lng":-100.72637},{"id":70367,"name":"Estanzuela de Romero","lat":20.18477,"lng":-100.50448},{"id":70372,"name":"Estrada","lat":20.52918,"lng":-100.8655},{"id":70384,"name":"Ex-Hacienda del Copal","lat":20.74083,"lng":-101.33528},{"id":70499,"name":"Fábrica de Melchor","lat":21.67223,"lng":-100.90171},{"id":70451,"name":"Fraccionamiento la Mezquitera","lat":21.00972,"lng":-101.83472},{"id":70456,"name":"Fraccionamiento las Liebres","lat":20.6475,"lng":-101.39556},{"id":70431,"name":"Fraccionamiento Paraíso Real","lat":21.1125,"lng":-101.58083},{"id":70432,"name":"Fraccionamiento Paseo de las Torres","lat":21.16833,"lng":-101.75806},{"id":70433,"name":"Fraccionamiento Praderas de la Venta","lat":20.53611,"lng":-101.0},{"id":70445,"name":"Fraccionamiento Villa Jardín","lat":20.99167,"lng":-101.85194},{"id":70446,"name":"Fraccionamiento Villas de Guanajuato","lat":20.96028,"lng":-101.29806},{"id":70485,"name":"Franco","lat":20.94327,"lng":-101.4618},{"id":70486,"name":"Franco Tavera","lat":20.60595,"lng":-100.927},{"id":70495,"name":"Frías","lat":20.79945,"lng":-101.99644},{"id":70505,"name":"Gachupines","lat":21.76259,"lng":-101.56247},{"id":70513,"name":"Galerade Panales","lat":20.29452,"lng":-100.81452},{"id":70521,"name":"Gasca","lat":20.60444,"lng":-100.85639},{"id":70522,"name":"Gavia de Rionda","lat":20.83357,"lng":-101.61647},{"id":70574,"name":"Guadalupe","lat":21.71644,"lng":-100.97645},{"id":70609,"name":"Guadalupe de Paso Blanco","lat":20.75498,"lng":-101.40345},{"id":70610,"name":"Guadalupe de Rivera","lat":20.60499,"lng":-101.46745},{"id":70611,"name":"Guadalupe de Tambula","lat":20.86645,"lng":-100.5762},{"id":70612,"name":"Guadalupe del Monte","lat":20.55688,"lng":-100.64064},{"id":70618,"name":"Guanajuato","lat":21.01858,"lng":-101.2591},{"id":70650,"name":"Hacienda Arriba","lat":21.23366,"lng":-101.70393},{"id":70659,"name":"Hacienda de la Bolsa","lat":20.37524,"lng":-101.10425},{"id":70658,"name":"Hacienda de Márquez","lat":20.78037,"lng":-101.35979},{"id":70712,"name":"Hoya de Cintora (La Hoya de Arriba)","lat":20.36444,"lng":-101.20833},{"id":70734,"name":"Huanímaro","lat":20.36783,"lng":-101.49869},{"id":70803,"name":"Huitzatarito","lat":20.49213,"lng":-101.57064},{"id":70832,"name":"Ibarrilla","lat":21.18664,"lng":-101.64576},{"id":70880,"name":"Irámuco","lat":19.96156,"lng":-100.92202},{"id":70876,"name":"Irapuato","lat":20.67675,"lng":-101.35628},{"id":70982,"name":"Jalpilla","lat":20.73129,"lng":-100.7209},{"id":70995,"name":"Jamaica","lat":21.14364,"lng":-100.7343},{"id":71004,"name":"Jaral del Progreso","lat":20.37237,"lng":-101.06249},{"id":71013,"name":"Jauregui","lat":20.5928,"lng":-100.7194},{"id":71021,"name":"Jerécuaro","lat":20.15467,"lng":-100.5086},{"id":71038,"name":"Jesús del Monte","lat":20.91504,"lng":-101.74129},{"id":71149,"name":"Jícamas","lat":20.27602,"lng":-101.35916},{"id":71066,"name":"Jocoqui","lat":20.58201,"lng":-100.6987},{"id":71123,"name":"Juan Martín","lat":20.47301,"lng":-100.74691},{"id":71144,"name":"Juventino Rosas","lat":20.64337,"lng":-100.99286},{"id":71170,"name":"La Aldea","lat":20.90166,"lng":-101.47852},{"id":71174,"name":"La Angostura","lat":20.27733,"lng":-101.11005},{"id":71178,"name":"La Aurora","lat":20.62667,"lng":-100.7575},{"id":71189,"name":"La Caja","lat":20.71146,"lng":-101.43769},{"id":71190,"name":"La Calera","lat":20.80119,"lng":-101.33207},{"id":71203,"name":"La Capilla","lat":20.55655,"lng":-101.30019},{"id":71216,"name":"La Ciénega","lat":21.3005,"lng":-100.48027},{"id":71214,"name":"La Cieneguita","lat":20.9463,"lng":-100.78966},{"id":71224,"name":"La Compañía","lat":20.3776,"lng":-101.15852},{"id":71251,"name":"La Cruz","lat":20.45694,"lng":-100.79583},{"id":71252,"name":"La Cruz del Palmar","lat":20.96973,"lng":-100.84354},{"id":71255,"name":"La Cuevita","lat":20.33872,"lng":-100.57891},{"id":71262,"name":"La Ermita","lat":21.15194,"lng":-101.73306},{"id":71266,"name":"La Escondida","lat":21.68723,"lng":-101.53446},{"id":71285,"name":"La Estancia de San José del Carmen","lat":20.29555,"lng":-100.86083},{"id":71288,"name":"La Estrella","lat":20.3905,"lng":-101.92109},{"id":71299,"name":"La Gavia","lat":20.39431,"lng":-100.88122},{"id":71334,"name":"La Joya de Calvillo","lat":20.74883,"lng":-101.60847},{"id":71338,"name":"La Labor","lat":20.53388,"lng":-100.702},{"id":71341,"name":"La Laborcita","lat":21.10636,"lng":-101.5517},{"id":71350,"name":"La Laja","lat":20.52946,"lng":-100.7617},{"id":71362,"name":"La Lobera","lat":20.35815,"lng":-101.5403},{"id":71376,"name":"La Luz","lat":20.55386,"lng":-101.18097},{"id":71402,"name":"La Moncada","lat":20.28348,"lng":-100.80502},{"id":71409,"name":"La Norita","lat":20.55409,"lng":-100.5166},{"id":71412,"name":"La Ordeña","lat":20.68988,"lng":-101.1183},{"id":71415,"name":"La Ortiga","lat":19.96222,"lng":-101.00056},{"id":71421,"name":"La Palma","lat":20.5156,"lng":-100.69787},{"id":71429,"name":"La Palmita (La Palmita de San Gabriel)","lat":20.49806,"lng":-100.87806},{"id":71470,"name":"La Purísima","lat":20.51444,"lng":-100.6725},{"id":71481,"name":"La Sabana","lat":21.19956,"lng":-100.68956},{"id":71484,"name":"La Sardina","lat":20.88118,"lng":-101.6644},{"id":71485,"name":"La Sauceda","lat":20.89831,"lng":-101.19124},{"id":71491,"name":"La Soledad","lat":20.60792,"lng":-101.41558},{"id":71504,"name":"La Tinaja","lat":20.49028,"lng":-101.21556},{"id":71511,"name":"La Trinidad","lat":20.56333,"lng":-100.78361},{"id":71539,"name":"Labor de Peralta","lat":20.40885,"lng":-101.40901},{"id":71544,"name":"Ladrilleras del Refugio","lat":21.08472,"lng":-101.55361},{"id":71552,"name":"Laguna de Guadalupe","lat":21.80046,"lng":-101.35689},{"id":71548,"name":"Laguna Larga","lat":20.54131,"lng":-101.48451},{"id":71549,"name":"Laguna Larga de Cortés","lat":20.3927,"lng":-101.94062},{"id":71570,"name":"Landín","lat":20.75392,"lng":-100.90592},{"id":71657,"name":"Las Ánimas","lat":20.39709,"lng":-101.79964},{"id":71584,"name":"Las Cañas","lat":20.29586,"lng":-101.41823},{"id":71605,"name":"Las Huertas Tercera Sección","lat":20.65278,"lng":-101.39306},{"id":71610,"name":"Las Liebres","lat":20.83532,"lng":-101.47062},{"id":71620,"name":"Las Masas (La Luz Masas)","lat":20.59917,"lng":-101.54278},{"id":71646,"name":"Las Trojas","lat":20.71111,"lng":-100.78083},{"id":71666,"name":"León","lat":21.09309,"lng":-101.64501},{"id":71668,"name":"León de los Aldama","lat":21.12908,"lng":-101.67374},{"id":71701,"name":"Lo de Juárez","lat":20.76833,"lng":-101.34111},{"id":71735,"name":"Loma de la Esperanza","lat":20.65927,"lng":-101.5567},{"id":71733,"name":"Loma de Yerbabuena","lat":21.06056,"lng":-101.44944},{"id":71734,"name":"Loma de Zempoala","lat":20.29182,"lng":-101.08023},{"id":71723,"name":"Loma Pelada","lat":20.57222,"lng":-101.29417},{"id":71724,"name":"Loma Tendida","lat":20.3756,"lng":-101.31057},{"id":71871,"name":"Los Ángeles","lat":20.55361,"lng":-100.94167},{"id":71772,"name":"Los Arcos","lat":21.04928,"lng":-101.68864},{"id":71796,"name":"Los Desmontes","lat":19.95662,"lng":-100.73917},{"id":71798,"name":"Los Dolores (Las Quince Letras)","lat":21.31778,"lng":-100.56583},{"id":71799,"name":"Los Dulces Nombres","lat":20.64806,"lng":-100.96472},{"id":71801,"name":"Los Fierros","lat":20.19353,"lng":-100.75941},{"id":71802,"name":"Los Galvan","lat":21.06377,"lng":-100.80114},{"id":71812,"name":"Los Lorenzos","lat":21.07229,"lng":-101.3758},{"id":71813,"name":"Los Mancera","lat":20.47028,"lng":-100.80389},{"id":71815,"name":"Los Medranos","lat":20.88283,"lng":-101.4364},{"id":71822,"name":"Los Nicolases","lat":20.85806,"lng":-101.3175},{"id":71824,"name":"Los Ocotes","lat":20.4156,"lng":-101.96108},{"id":71838,"name":"Los Prietos","lat":20.57513,"lng":-101.26574},{"id":71841,"name":"Los Ramírez","lat":21.01942,"lng":-101.64411},{"id":71843,"name":"Los Remedios","lat":21.18492,"lng":-100.19919},{"id":71855,"name":"Los Rodríguez","lat":21.04311,"lng":-100.64361},{"id":71876,"name":"Loza de Barrera","lat":20.98461,"lng":-101.52972},{"id":71877,"name":"Loza de los Padres","lat":21.07181,"lng":-101.54603},{"id":71879,"name":"Lucio Blanco (Los Gavilanes)","lat":21.11528,"lng":-101.55111},{"id":71933,"name":"Magdalena de Araceo","lat":20.30935,"lng":-101.17861},{"id":71944,"name":"Malagana (San Antonio del Monte)","lat":21.0467,"lng":-101.7535},{"id":71959,"name":"Manuel Doblado","lat":20.72085,"lng":-101.856},{"id":71980,"name":"Maravatío del Encinal","lat":20.20513,"lng":-100.96211},{"id":71989,"name":"Marfil","lat":20.99165,"lng":-101.28434},{"id":71999,"name":"Marroquín","lat":20.51138,"lng":-100.55946},{"id":72065,"name":"Medina","lat":21.14972,"lng":-101.6225},{"id":72066,"name":"Medio Sitio","lat":20.86948,"lng":-101.35689},{"id":72074,"name":"Menores","lat":20.92028,"lng":-101.395},{"id":72078,"name":"Merino","lat":20.49424,"lng":-100.88411},{"id":72101,"name":"Mexicanos","lat":20.52903,"lng":-101.07064},{"id":72110,"name":"Mezquite de Luna","lat":20.29765,"lng":-101.8926},{"id":72111,"name":"Mezquite de Sotelo","lat":21.00825,"lng":-101.50287},{"id":72109,"name":"Mezquite Gordo","lat":20.81463,"lng":-101.49277},{"id":72148,"name":"Mineral de la Luz","lat":21.06456,"lng":-101.33806},{"id":72160,"name":"Misión de Chichimecas","lat":21.28496,"lng":-100.48658},{"id":72185,"name":"Molino de San José","lat":21.57083,"lng":-101.26389},{"id":72186,"name":"Molino de Santa Ana","lat":20.82874,"lng":-101.34929},{"id":72197,"name":"Monte Blanco","lat":20.35472,"lng":-101.5275},{"id":72209,"name":"Monte del Coecillo","lat":20.979,"lng":-101.43542},{"id":72201,"name":"Monte Grande","lat":20.99806,"lng":-101.86333},{"id":72223,"name":"Morales","lat":20.77821,"lng":-100.80932},{"id":72238,"name":"Moroleón","lat":20.12571,"lng":-101.19208},{"id":72314,"name":"Neutla","lat":20.708,"lng":-100.83957},{"id":72331,"name":"Nigromante","lat":20.96194,"lng":-100.78028},{"id":72435,"name":"Obrajuelo","lat":20.1082,"lng":-100.8495},{"id":72441,"name":"Ocampo","lat":21.64653,"lng":-101.48012},{"id":72489,"name":"Ojo de Agua de Ballesteros","lat":20.22821,"lng":-100.82424},{"id":72495,"name":"Ojo de Agua de la Trinidad","lat":20.39356,"lng":-100.63255},{"id":72492,"name":"Ojo de Agua de Mendoza","lat":20.16585,"lng":-100.56909},{"id":72496,"name":"Ojo de Agua del Refugio","lat":21.01386,"lng":-100.31687},{"id":72483,"name":"Ojo Seco","lat":20.38687,"lng":-100.79659},{"id":72517,"name":"Orduña de Abajo","lat":20.75806,"lng":-100.78278},{"id":72518,"name":"Orduña de Arriba","lat":20.76583,"lng":-100.79262},{"id":72537,"name":"Otates","lat":20.40064,"lng":-101.48169},{"id":72601,"name":"Palmillas de San Juan","lat":20.76873,"lng":-100.86432},{"id":72608,"name":"Palo Colorado","lat":21.00836,"lng":-100.72917},{"id":72621,"name":"Panales Jamaica (Cañones)","lat":20.29556,"lng":-100.82306},{"id":72663,"name":"Parácuaro","lat":20.14381,"lng":-100.76352},{"id":72649,"name":"Parangarico","lat":20.19232,"lng":-101.1655},{"id":72692,"name":"Paso de Pirules","lat":20.95028,"lng":-101.29972},{"id":72716,"name":"Paxtle","lat":21.05897,"lng":-101.4039},{"id":73011,"name":"Pénjamo","lat":20.43108,"lng":-101.72261},{"id":72754,"name":"Peñuelas","lat":20.71676,"lng":-101.29749},{"id":72731,"name":"Peralta","lat":20.4735,"lng":-101.40811},{"id":72773,"name":"Piedras de Lumbre","lat":20.25097,"lng":-100.59972},{"id":72771,"name":"Piedras Negras","lat":20.43059,"lng":-101.39158},{"id":72792,"name":"Piñícuaro","lat":20.04751,"lng":-101.24097},{"id":72800,"name":"Plan de Ayala","lat":21.07209,"lng":-101.72165},{"id":72794,"name":"Plan Guanajuato (La Sandía)","lat":20.92167,"lng":-101.69694},{"id":72805,"name":"Plancarte","lat":20.58681,"lng":-100.7962},{"id":72864,"name":"Potrerillos (Guanajal)","lat":21.08154,"lng":-101.86986},{"id":72874,"name":"Pozos","lat":20.62003,"lng":-100.8956},{"id":72883,"name":"Prados del Rosario","lat":21.02194,"lng":-100.3925},{"id":72887,"name":"Presa Blanca","lat":20.64146,"lng":-100.79241},{"id":72896,"name":"Primera Fracción de Crespo","lat":20.49638,"lng":-100.8515},{"id":72922,"name":"Providencia","lat":20.35439,"lng":-101.01895},{"id":72923,"name":"Providencia de Nápoles","lat":21.02297,"lng":-101.45775},{"id":72941,"name":"Pueblo Nuevo","lat":20.52516,"lng":-101.37196},{"id":72959,"name":"Puentecillas","lat":20.93187,"lng":-101.27873},{"id":72963,"name":"Puerta del Monte","lat":20.25853,"lng":-101.02597},{"id":72996,"name":"Purísima de Bustos","lat":21.0315,"lng":-101.87833},{"id":72997,"name":"Purísima de Covarrubias","lat":20.61932,"lng":-101.4834},{"id":72999,"name":"Purísima del Progreso","lat":20.79333,"lng":-101.33028},{"id":73000,"name":"Purísima del Rincón","lat":20.94704,"lng":-101.90939},{"id":72989,"name":"Puroagua","lat":20.07913,"lng":-100.45291},{"id":73078,"name":"Rancho de Guadalupe","lat":21.21639,"lng":-101.01},{"id":73068,"name":"Rancho Nuevo de la Cruz","lat":20.65105,"lng":-101.51786},{"id":73069,"name":"Rancho Nuevo de la Luz","lat":20.96246,"lng":-101.64573},{"id":73070,"name":"Rancho Nuevo del Llanito","lat":20.82361,"lng":-101.36861},{"id":73074,"name":"Rancho Viejo","lat":21.02091,"lng":-100.77142},{"id":73124,"name":"Rincón de Cano","lat":21.05519,"lng":-100.24196},{"id":73132,"name":"Rincón de Parangueo","lat":20.42193,"lng":-101.25101},{"id":73134,"name":"Rincón de Tamayo","lat":20.42344,"lng":-100.7547},{"id":73137,"name":"Rincón del Centeno","lat":20.66076,"lng":-100.88532},{"id":73115,"name":"Rinconadas del Bosque","lat":20.08528,"lng":-101.19833},{"id":73180,"name":"Río Laja","lat":21.20326,"lng":-100.92339},{"id":73144,"name":"Rizos de la Joya (Rizos del Saucillo)","lat":21.14861,"lng":-101.76194},{"id":73156,"name":"Romita","lat":20.87127,"lng":-101.51683},{"id":73157,"name":"Roque","lat":20.58228,"lng":-100.83727},{"id":73209,"name":"Salamanca","lat":20.57196,"lng":-101.19154},{"id":73220,"name":"Salitrillo","lat":21.03629,"lng":-101.4565},{"id":73231,"name":"Salvatierra","lat":20.21322,"lng":-100.88023},{"id":73258,"name":"San Agustín de las Flores","lat":21.00727,"lng":-101.4371},{"id":73279,"name":"San Andrés Enguaro","lat":20.19472,"lng":-101.23639},{"id":74512,"name":"San Ángel","lat":20.90193,"lng":-101.91895},{"id":73327,"name":"San Antonio Calichar","lat":20.49669,"lng":-100.51775},{"id":73364,"name":"San Antonio de Corrales","lat":20.74556,"lng":-100.96361},{"id":73375,"name":"San Antonio de los Morales","lat":20.58055,"lng":-100.9102},{"id":73377,"name":"San Antonio de los Tepetates","lat":21.04472,"lng":-101.67611},{"id":73366,"name":"San Antonio de Romerillo","lat":20.60784,"lng":-100.94854},{"id":73383,"name":"San Antonio el Chico","lat":20.62798,"lng":-101.28373},{"id":73387,"name":"San Antonio el Rico","lat":20.82308,"lng":-101.37161},{"id":73332,"name":"San Antonio Eménguaro","lat":20.13997,"lng":-100.87874},{"id":73334,"name":"San Antonio Gallardo","lat":20.62833,"lng":-100.76778},{"id":73345,"name":"San Antonio Primero","lat":21.09417,"lng":-100.52844},{"id":73355,"name":"San Antonio Texas","lat":20.98556,"lng":-101.49},{"id":73411,"name":"San Bartolo de Berrios","lat":21.6124,"lng":-101.06845},{"id":73419,"name":"San Bartolomé Aguas Calientes","lat":20.49556,"lng":-100.54833},{"id":73438,"name":"San Bernardo","lat":20.96764,"lng":-101.86972},{"id":73442,"name":"San Bernardo Peña Blanca","lat":20.46167,"lng":-101.4825},{"id":73465,"name":"San Cayetano","lat":20.60357,"lng":-100.82021},{"id":73472,"name":"San Cristóbal","lat":20.65787,"lng":-101.47683},{"id":73489,"name":"San Diego","lat":20.88838,"lng":-101.40973},{"id":73495,"name":"San Diego de Alcalá","lat":20.03062,"lng":-100.8635},{"id":73496,"name":"San Diego de la Unión","lat":21.46749,"lng":-100.8731},{"id":73505,"name":"San Elías","lat":20.63529,"lng":-100.8412},{"id":73511,"name":"San Felipe","lat":21.47831,"lng":-101.21566},{"id":73521,"name":"San Felipe Quiriceo","lat":20.44303,"lng":-101.2896},{"id":73542,"name":"San Francisco","lat":21.63387,"lng":-101.05884},{"id":73546,"name":"San Francisco (Baños de Agua Caliente)","lat":21.07389,"lng":-101.47278},{"id":73611,"name":"San Francisco de Durán","lat":21.00513,"lng":-101.6199},{"id":73621,"name":"San Francisco del Rincón","lat":21.01843,"lng":-101.85515},{"id":73625,"name":"San Gabriel","lat":21.12949,"lng":-100.83496},{"id":73633,"name":"San Gabriel y San Ignacio","lat":20.44028,"lng":-101.60816},{"id":73640,"name":"San Gregorio","lat":20.54694,"lng":-101.62847},{"id":73651,"name":"San Ignacio","lat":21.28194,"lng":-100.53722},{"id":73654,"name":"San Ignacio de Hidalgo","lat":20.91167,"lng":-101.86056},{"id":73655,"name":"San Ignacio de Rivera (Ojo de Agua)","lat":20.55926,"lng":-101.46127},{"id":73656,"name":"San Ignacio de San José Parangueo","lat":20.41473,"lng":-101.2978},{"id":73686,"name":"San Isidro de Gamboa","lat":20.39501,"lng":-100.52705},{"id":73687,"name":"San Isidro de la Concepción","lat":20.62776,"lng":-100.7857},{"id":73688,"name":"San Isidro de la Estacada","lat":21.14746,"lng":-100.68473},{"id":73689,"name":"San Isidro de los Sauces","lat":21.02103,"lng":-101.53724},{"id":73697,"name":"San Javier","lat":20.66729,"lng":-101.4294},{"id":73724,"name":"San Jerónimo de Araceo","lat":20.32507,"lng":-101.18195},{"id":73807,"name":"San José de Agua Azul","lat":20.48662,"lng":-100.65587},{"id":73809,"name":"San José de Ayala","lat":20.38709,"lng":-101.44143},{"id":73811,"name":"San José de Bernalejo (El Guayabo)","lat":20.64,"lng":-101.40139},{"id":73813,"name":"San José de Cervera","lat":20.96778,"lng":-101.3025},{"id":73814,"name":"San José de Durán (Los Troncoso)","lat":21.06306,"lng":-101.67417},{"id":73820,"name":"San José de Guanajuato","lat":20.55601,"lng":-100.89277},{"id":73831,"name":"San José de la Montaña","lat":20.60037,"lng":-101.07228},{"id":73833,"name":"San José de las Pilas","lat":20.65227,"lng":-101.04523},{"id":73822,"name":"San José de Llanos","lat":20.85568,"lng":-101.30897},{"id":73823,"name":"San José de Mendoza","lat":20.68965,"lng":-101.21353},{"id":73824,"name":"San José de Rancho Nuevo (Los Arrieros)","lat":21.59639,"lng":-101.00389},{"id":73835,"name":"San José del Cerrito de Camargo","lat":20.41917,"lng":-101.04222},{"id":73837,"name":"San José del Potrero","lat":21.12815,"lng":-101.59737},{"id":73842,"name":"San José del Rodeo","lat":20.92083,"lng":-101.21639},{"id":73845,"name":"San José del Torreón","lat":21.47444,"lng":-101.47056},{"id":73850,"name":"San José el Nuevo","lat":20.44389,"lng":-100.77194},{"id":73769,"name":"San José Iturbide","lat":21.00153,"lng":-100.38416},{"id":73786,"name":"San José Temascatío","lat":20.69183,"lng":-101.26028},{"id":73798,"name":"San José Viborillas","lat":20.56778,"lng":-100.63361},{"id":73871,"name":"San Juan Bautista Cacalote","lat":20.34806,"lng":-100.78833},{"id":73959,"name":"San Juan de Abajo","lat":21.05623,"lng":-101.63544},{"id":73966,"name":"San Juan de la Vega","lat":20.62521,"lng":-100.76141},{"id":73962,"name":"San Juan de Otates","lat":21.11562,"lng":-101.55773},{"id":73974,"name":"San Juan del Llanito","lat":20.51369,"lng":-100.5398},{"id":73893,"name":"San Juan Grande","lat":20.37627,"lng":-101.52677},{"id":73903,"name":"San Juan Jaripeo","lat":20.00601,"lng":-100.76052},{"id":73914,"name":"San Juan Pan de Arriba","lat":21.47151,"lng":-100.92021},{"id":73991,"name":"San Lorenzo","lat":20.46687,"lng":-100.7197},{"id":74023,"name":"San Lucas","lat":20.29341,"lng":-100.55238},{"id":74060,"name":"San Luis de la Paz","lat":21.29771,"lng":-100.51736},{"id":74228,"name":"San Miguel de Allende","lat":20.91528,"lng":-100.74389},{"id":74233,"name":"San Miguel del Arenal","lat":20.99083,"lng":-101.48556},{"id":74176,"name":"San Miguel Eménguaro","lat":20.16402,"lng":-100.88596},{"id":74191,"name":"San Miguel Octopan","lat":20.57428,"lng":-100.7478},{"id":74270,"name":"San Nicolás de la Condesa","lat":20.23259,"lng":-100.78108},{"id":74272,"name":"San Nicolás de los Agustinos","lat":20.24614,"lng":-100.96679},{"id":74275,"name":"San Nicolás del Cármen","lat":21.27405,"lng":-100.55032},{"id":74258,"name":"San Nicolás Parangueo","lat":20.39356,"lng":-101.25364},{"id":74263,"name":"San Nicolás Temascatío","lat":20.72486,"lng":-101.24874},{"id":74298,"name":"San Pablo Pejo","lat":20.03375,"lng":-100.93763},{"id":74404,"name":"San Pedro de Ibarra","lat":21.4832,"lng":-101.54046},{"id":74409,"name":"San Pedro de los Naranjos","lat":20.22716,"lng":-100.93782},{"id":74378,"name":"San Pedro Tenango","lat":20.50769,"lng":-100.63247},{"id":74440,"name":"San Roque","lat":20.59966,"lng":-101.34182},{"id":74442,"name":"San Roque de Montes","lat":21.01,"lng":-101.81083},{"id":74443,"name":"San Roque de Torres","lat":20.97138,"lng":-101.8529},{"id":74450,"name":"San Salvador Torrecillas","lat":20.55981,"lng":-100.95784},{"id":74478,"name":"San Sebastián de Salitre","lat":21.10278,"lng":-100.48086},{"id":74494,"name":"San Vicente","lat":20.82864,"lng":-101.3413},{"id":74507,"name":"San Vicente de Flores","lat":20.62172,"lng":-101.25296},{"id":74523,"name":"Santa Ana","lat":21.05917,"lng":-101.67583},{"id":74544,"name":"Santa Ana Pacueco","lat":20.34722,"lng":-102.01583},{"id":74558,"name":"Santa Anita","lat":20.47028,"lng":-100.815},{"id":74566,"name":"Santa Bárbara","lat":21.53716,"lng":-101.37787},{"id":74579,"name":"Santa Catarina","lat":21.15134,"lng":-100.06954},{"id":74599,"name":"Santa Clara","lat":20.17904,"lng":-101.4335},{"id":74648,"name":"Santa Cruz de Juventino Rosas","lat":20.63658,"lng":-100.97956},{"id":74659,"name":"Santa Fe de la Purísima","lat":20.49556,"lng":-100.89278},{"id":74816,"name":"Santa María del Refugio","lat":20.4403,"lng":-100.80032},{"id":74838,"name":"Santa Rosa","lat":21.55181,"lng":-101.0921},{"id":74850,"name":"Santa Rosa de Lima","lat":21.07179,"lng":-101.19723},{"id":74852,"name":"Santa Rosa de Rivas","lat":20.78112,"lng":-101.53632},{"id":74853,"name":"Santa Rosa los Angeles","lat":20.56585,"lng":-100.92356},{"id":74860,"name":"Santa Teresa","lat":20.95973,"lng":-101.31644},{"id":74862,"name":"Santa Teresita de Don Diego","lat":20.88,"lng":-100.77861},{"id":74885,"name":"Santiago Capitiro","lat":20.30427,"lng":-101.01767},{"id":74983,"name":"Santiago de Cuenda","lat":20.59956,"lng":-100.99405},{"id":74921,"name":"Santiago Maravatío","lat":20.17297,"lng":-100.99468},{"id":75028,"name":"Santo Tomás Huatzindeo","lat":20.22205,"lng":-100.92068},{"id":75040,"name":"Sarabia","lat":20.52256,"lng":-101.06163},{"id":75063,"name":"Serrano","lat":20.7783,"lng":-101.3954},{"id":75079,"name":"Silao","lat":20.94356,"lng":-101.42703},{"id":75080,"name":"Silao de la Victoria","lat":20.93718,"lng":-101.44987},{"id":75082,"name":"Silva","lat":20.94617,"lng":-101.85687},{"id":75114,"name":"Soledad Nueva","lat":21.27942,"lng":-100.92249},{"id":75126,"name":"Sotelo","lat":20.45773,"lng":-101.07766},{"id":75141,"name":"Suchitlán","lat":20.5332,"lng":-101.0236},{"id":75178,"name":"Tamazula","lat":20.44228,"lng":-101.5533},{"id":75229,"name":"Tarandacuao","lat":20.00094,"lng":-100.51856},{"id":75232,"name":"Taretán","lat":20.7788,"lng":-101.33526},{"id":75233,"name":"Tarimoro","lat":20.28336,"lng":-100.75477},{"id":75305,"name":"Tejocote de Calera","lat":20.17918,"lng":-101.3971},{"id":75358,"name":"Tenango el Nuevo","lat":20.53111,"lng":-100.6717},{"id":75362,"name":"Tenería del Santuario","lat":20.59955,"lng":-100.7979},{"id":75464,"name":"Tequisquiapan","lat":21.07996,"lng":-100.82067},{"id":75551,"name":"Tierra Fría","lat":20.46145,"lng":-101.03927},{"id":75728,"name":"Tomelopitos","lat":20.59463,"lng":-101.36846},{"id":75798,"name":"Tulillos de Abajo","lat":21.08563,"lng":-100.48411},{"id":75812,"name":"Tupataro","lat":20.59512,"lng":-101.64637},{"id":75891,"name":"Uriangato","lat":20.14085,"lng":-101.18251},{"id":75895,"name":"Urireo","lat":20.21314,"lng":-100.84188},{"id":75907,"name":"Valencia de Cerro Gordo","lat":20.60133,"lng":-101.08173},{"id":75908,"name":"Valencianita","lat":20.74701,"lng":-101.30223},{"id":75924,"name":"Valle de Santiago","lat":20.3914,"lng":-101.19222},{"id":75934,"name":"Valtierrilla","lat":20.53244,"lng":-101.12761},{"id":75982,"name":"Victoria","lat":21.21183,"lng":-100.21545},{"id":75984,"name":"Victoria de Cortazar","lat":20.3346,"lng":-101.03173},{"id":76079,"name":"Villagrán","lat":20.51452,"lng":-100.99745},{"id":76088,"name":"Villas de Irapuato","lat":20.68722,"lng":-101.40528},{"id":76135,"name":"Xichú","lat":21.34418,"lng":-99.9997},{"id":76183,"name":"Xoconoxtle el Grande","lat":20.93857,"lng":-100.98149},{"id":76233,"name":"Yerbabuena","lat":20.96319,"lng":-101.27448},{"id":76248,"name":"Yuriria","lat":20.21081,"lng":-101.13212},{"id":76250,"name":"Yustis","lat":20.58233,"lng":-100.86392},{"id":76297,"name":"Zangarro (Zangarro Nuevo)","lat":20.85806,"lng":-101.27278},{"id":76302,"name":"Zapote de Barajas","lat":20.37536,"lng":-101.69964},{"id":76303,"name":"Zapote de Cestao","lat":20.48362,"lng":-101.67596},{"id":76304,"name":"Zapote de Palomas","lat":20.58444,"lng":-101.115},{"id":76305,"name":"Zapote de Peralta","lat":20.45068,"lng":-101.39481},{"id":76306,"name":"Zapotillo de Mogotes","lat":20.3785,"lng":-101.24795}]