[{"id":68014,"name":"Abasolo","lat":27.18219,"lng":-101.42757},{"id":68114,"name":"Agua Nueva","lat":25.18934,"lng":-101.0884},{"id":68175,"name":"Albia","lat":25.66537,"lng":-103.36253},{"id":68188,"name":"Alejo González (Bilbao)","lat":25.82194,"lng":-103.19472},{"id":68374,"name":"Arteaga","lat":25.44528,"lng":-100.84667},{"id":68639,"name":"Boquilla de las Perlas","lat":25.32803,"lng":-103.2887},{"id":68788,"name":"Candela","lat":26.8384,"lng":-100.6663},{"id":68859,"name":"Castaños","lat":26.78932,"lng":-101.43211},{"id":69112,"name":"Chula Vista","lat":27.04083,"lng":-103.36611},{"id":69142,"name":"Ciudad Acuña","lat":29.32322,"lng":-100.95217},{"id":69169,"name":"Ciudad Melchor Múzquiz","lat":27.87933,"lng":-101.51615},{"id":69202,"name":"Cloete","lat":27.92097,"lng":-101.17576},{"id":69291,"name":"Colonia Diana Laura Riojas de Colosio","lat":26.97722,"lng":-101.48083},{"id":69377,"name":"Colonia Venustiano Carranza","lat":28.63861,"lng":-100.55667},{"id":69430,"name":"Compuertas","lat":25.74681,"lng":-103.3025},{"id":69445,"name":"Concordia","lat":25.77982,"lng":-103.11696},{"id":69520,"name":"Coyote","lat":25.6951,"lng":-103.2842},{"id":69570,"name":"Cuatro Ciénegas de Carranza","lat":26.98542,"lng":-102.06386},{"id":69797,"name":"Ejido Venustiano Carranza","lat":25.35091,"lng":-102.95698},{"id":69858,"name":"El Cambio","lat":25.64048,"lng":-103.3271},{"id":69919,"name":"El Consuelo","lat":25.57131,"lng":-103.2762},{"id":69936,"name":"El Cuije","lat":25.6967,"lng":-103.34107},{"id":70012,"name":"El Lequeitio","lat":25.84673,"lng":-103.2789},{"id":70063,"name":"El Nilo","lat":25.73363,"lng":-102.94297},{"id":70099,"name":"El Perú","lat":25.6029,"lng":-103.34423},{"id":70119,"name":"El Porvenir (El Porvenir de Arriba)","lat":25.77444,"lng":-103.32528},{"id":70158,"name":"El Retiro","lat":25.82758,"lng":-103.13004},{"id":70321,"name":"Escuadrón Doscientos Uno","lat":25.67433,"lng":-103.34829},{"id":70452,"name":"Fraccionamiento la Noria","lat":25.55722,"lng":-103.34361},{"id":70491,"name":"Frontera","lat":26.92814,"lng":-101.45212},{"id":70529,"name":"General Cepeda","lat":25.37767,"lng":-101.47571},{"id":70550,"name":"Gilita","lat":25.39314,"lng":-103.19976},{"id":70561,"name":"Granada","lat":25.64127,"lng":-103.2671},{"id":70630,"name":"Guerrero","lat":28.30992,"lng":-100.38048},{"id":70828,"name":"Hércules","lat":28.04306,"lng":-103.79111},{"id":70683,"name":"Hidalgo","lat":27.78994,"lng":-99.87699},{"id":70710,"name":"Hormiguero","lat":25.68386,"lng":-103.34121},{"id":70714,"name":"Huachichil","lat":25.21114,"lng":-100.8257},{"id":70802,"name":"Huitrón","lat":25.85748,"lng":-103.34825},{"id":70956,"name":"Jaboncillo","lat":25.74809,"lng":-103.2655},{"id":71051,"name":"Jiménez","lat":29.06975,"lng":-100.67895},{"id":71240,"name":"La Concha","lat":25.63524,"lng":-103.38136},{"id":71248,"name":"La Cruz","lat":26.99339,"lng":-101.4958},{"id":71268,"name":"La Esmeralda","lat":27.28735,"lng":-103.66283},{"id":71273,"name":"La Esperanza","lat":25.56631,"lng":-103.28123},{"id":71289,"name":"La Fe","lat":25.84743,"lng":-103.20117},{"id":71293,"name":"La Florida","lat":25.76811,"lng":-103.32424},{"id":71374,"name":"La Luz","lat":25.72621,"lng":-103.2454},{"id":71425,"name":"La Palma","lat":25.6083,"lng":-103.32228},{"id":71432,"name":"La Partida","lat":25.59181,"lng":-103.29994},{"id":71435,"name":"La Paz","lat":25.5939,"lng":-103.35852},{"id":71442,"name":"La Perla","lat":25.49696,"lng":-103.35088},{"id":71449,"name":"La Pinta","lat":25.90281,"lng":-103.26476},{"id":71559,"name":"Laguna del Rey (Químicas del Rey)","lat":27.03056,"lng":-103.36667},{"id":71566,"name":"Lamadrid","lat":27.05087,"lng":-101.79552},{"id":71623,"name":"Las Mieleras","lat":25.39948,"lng":-103.2674},{"id":71869,"name":"Los Álamos","lat":28.35645,"lng":-100.94564},{"id":71878,"name":"Luchanas","lat":25.79091,"lng":-103.19384},{"id":71984,"name":"Maravillas","lat":25.65872,"lng":-103.34079},{"id":72018,"name":"Matamoros","lat":25.52699,"lng":-103.2285},{"id":72035,"name":"Mayran","lat":25.67296,"lng":-102.84288},{"id":72144,"name":"Minas de Barroterán","lat":27.65144,"lng":-101.28212},{"id":72191,"name":"Monclova","lat":26.90687,"lng":-101.42056},{"id":72270,"name":"Nadadores","lat":27.02819,"lng":-101.5942},{"id":72294,"name":"Nava","lat":28.42071,"lng":-100.76565},{"id":72373,"name":"Nueva Rosita","lat":27.94028,"lng":-101.21812},{"id":72392,"name":"Nuevo León","lat":25.71863,"lng":-103.29471},{"id":72438,"name":"Ocampo","lat":27.31477,"lng":-102.3966},{"id":72446,"name":"Ocho de Enero","lat":26.99733,"lng":-101.49598},{"id":72581,"name":"Palau","lat":27.89232,"lng":-101.42319},{"id":72654,"name":"Paredón","lat":25.9458,"lng":-100.93449},{"id":72661,"name":"Parras de la Fuente","lat":25.44185,"lng":-102.17808},{"id":72772,"name":"Piedras Negras","lat":28.70007,"lng":-100.52353},{"id":72902,"name":"Primero de Mayo","lat":27.23675,"lng":-101.2236},{"id":72909,"name":"Progreso","lat":27.42841,"lng":-100.98892},{"id":72993,"name":"Purísima","lat":25.68038,"lng":-103.32218},{"id":73049,"name":"Ramos Arizpe","lat":25.53928,"lng":-100.94742},{"id":73056,"name":"Rancho Alegre","lat":25.50237,"lng":-103.32789},{"id":73169,"name":"Río Bravo","lat":28.31254,"lng":-100.91668},{"id":73196,"name":"Sabinas","lat":27.85591,"lng":-101.11738},{"id":73199,"name":"Sacramento","lat":27.00264,"lng":-101.72463},{"id":73226,"name":"Saltillo","lat":25.42321,"lng":-101.0053},{"id":73370,"name":"San Antonio de las Alazanas","lat":25.27166,"lng":-100.57835},{"id":73379,"name":"San Antonio del Coyote","lat":25.69444,"lng":-103.28556},{"id":73450,"name":"San Buenaventura","lat":27.06193,"lng":-101.54891},{"id":73459,"name":"San Carlos","lat":29.02844,"lng":-100.90217},{"id":73509,"name":"San Esteban de Abajo","lat":25.70903,"lng":-103.00047},{"id":73608,"name":"San Francisco de Arriba","lat":25.75028,"lng":-103.15631},{"id":73648,"name":"San Ignacio","lat":25.73643,"lng":-103.09049},{"id":73808,"name":"San José de Aura","lat":27.58778,"lng":-101.3725},{"id":73965,"name":"San Juan de la Vaquería","lat":25.25275,"lng":-101.22011},{"id":73963,"name":"San Juan de Sabinas","lat":27.92942,"lng":-101.30495},{"id":73989,"name":"San Lorenzo","lat":25.72272,"lng":-103.1535},{"id":74065,"name":"San Marcos","lat":25.66667,"lng":-103.0091},{"id":74152,"name":"San Miguel","lat":25.69924,"lng":-102.95072},{"id":74555,"name":"Santa Ana del Pilar","lat":25.70938,"lng":-103.3084},{"id":74662,"name":"Santa Fé","lat":25.56665,"lng":-103.332},{"id":75020,"name":"Santo Niño Aguanaval","lat":25.43118,"lng":-103.27909},{"id":75058,"name":"Seis de Octubre (Santo Niño)","lat":25.76389,"lng":-103.23889},{"id":75072,"name":"Sierra Mojada","lat":27.28861,"lng":-103.70124},{"id":75118,"name":"Solima","lat":25.66249,"lng":-103.2756},{"id":75162,"name":"Tacubaya","lat":25.68361,"lng":-103.06861},{"id":75748,"name":"Torreón","lat":25.54389,"lng":-103.41898},{"id":75946,"name":"Veinte de Noviembre","lat":25.71193,"lng":-103.3296},{"id":75947,"name":"Veinte de Noviembre (Santa Lucía)","lat":25.78923,"lng":-103.15127},{"id":75956,"name":"Ventana","lat":25.32695,"lng":-103.47772},{"id":75987,"name":"Viesca","lat":25.33923,"lng":-102.80493},{"id":76025,"name":"Villa Las Esperanzas","lat":27.74274,"lng":-101.35295},{"id":76049,"name":"Villa Union","lat":28.21667,"lng":-100.71667},{"id":76092,"name":"Virginias","lat":25.80083,"lng":-103.27235},{"id":76318,"name":"Zaragoza","lat":28.4932,"lng":-100.9223}]