[{"id":68080,"name":"Acuitzio","lat":19.47178,"lng":-101.32921},{"id":68084,"name":"Acuítzio del Canje","lat":19.49585,"lng":-101.33321},{"id":68099,"name":"Agostitlán","lat":19.53818,"lng":-100.61849},{"id":68108,"name":"Agua Caliente","lat":20.06519,"lng":-101.73466},{"id":68129,"name":"Aguililla","lat":18.73742,"lng":-102.78934},{"id":68161,"name":"Ahuirán","lat":19.66574,"lng":-102.07347},{"id":68169,"name":"Ajuno","lat":19.51262,"lng":-101.7228},{"id":76399,"name":"Álvaro Obregón","lat":19.82096,"lng":-101.04008},{"id":68271,"name":"Angahuán","lat":19.5479,"lng":-102.22563},{"id":68272,"name":"Angamacutiro de la Unión","lat":20.14998,"lng":-101.71113},{"id":68276,"name":"Ansihuacuaro","lat":20.19984,"lng":-101.8067},{"id":68282,"name":"Antúnez","lat":19.01451,"lng":-102.20432},{"id":68283,"name":"Antúnez (Morelos)","lat":19.01278,"lng":-102.20389},{"id":68300,"name":"Apatzingán","lat":19.08864,"lng":-102.35704},{"id":68305,"name":"Apeo","lat":19.88722,"lng":-100.34194},{"id":68309,"name":"Apo","lat":19.42722,"lng":-102.41126},{"id":68312,"name":"Aporo","lat":19.67021,"lng":-100.41068},{"id":68314,"name":"Aputzio de Juárez","lat":19.34183,"lng":-100.34689},{"id":68315,"name":"Aquila","lat":18.5997,"lng":-103.50454},{"id":68317,"name":"Aquiles Córdova Morán","lat":19.70685,"lng":-100.53615},{"id":68322,"name":"Aquiles Serdán","lat":20.00357,"lng":-102.21609},{"id":68330,"name":"Arantepacua","lat":19.5958,"lng":-101.9686},{"id":68331,"name":"Aranza","lat":19.66418,"lng":-102.02365},{"id":68332,"name":"Araró","lat":19.91136,"lng":-100.8246},{"id":68350,"name":"Ario de Rayón","lat":20.02651,"lng":-102.34814},{"id":68351,"name":"Ario de Rosales","lat":19.209,"lng":-101.70743},{"id":68373,"name":"Arteaga","lat":18.35779,"lng":-102.29122},{"id":68388,"name":"Atacheo de Regalado","lat":20.05874,"lng":-102.18703},{"id":68391,"name":"Atapán","lat":19.65057,"lng":-102.42463},{"id":68390,"name":"Atapaneo","lat":19.73892,"lng":-101.11576},{"id":68395,"name":"Atecucario de la Constitución (Atecuario)","lat":20.06444,"lng":-102.23861},{"id":68430,"name":"Atotonilco","lat":19.94111,"lng":-100.22306},{"id":68573,"name":"Belisario Domínguez","lat":19.8714,"lng":-100.97184},{"id":68578,"name":"Bellas Fuentes","lat":19.82132,"lng":-101.6795},{"id":68599,"name":"Benito Juárez","lat":19.23333,"lng":-100.46667},{"id":68623,"name":"Bocaneo (San Pedro)","lat":19.83861,"lng":-100.81722},{"id":68636,"name":"Bonifacio Moreno (El Aguaje)","lat":18.99167,"lng":-102.71083},{"id":68652,"name":"Briseñas","lat":20.25149,"lng":-102.57124},{"id":68653,"name":"Briseñas de Matamoros","lat":20.26821,"lng":-102.56195},{"id":68675,"name":"Buenavista","lat":19.18802,"lng":-102.58471},{"id":68680,"name":"Buenavista de Benito Juárez","lat":18.46034,"lng":-98.63735},{"id":68678,"name":"Buenavista Tomatlán","lat":19.21281,"lng":-102.58735},{"id":68688,"name":"Buenos Aires","lat":18.02444,"lng":-102.28583},{"id":68749,"name":"Caltzontzín","lat":19.4234,"lng":-102.00673},{"id":68782,"name":"Camémbaro","lat":19.42722,"lng":-100.39889},{"id":68772,"name":"Campestre Tarímbaro","lat":19.775,"lng":-101.12917},{"id":68880,"name":"Cañada de Ramírez","lat":20.29637,"lng":-101.9636},{"id":68793,"name":"Cantabria","lat":19.83994,"lng":-101.72652},{"id":68804,"name":"Capacho","lat":19.96457,"lng":-101.23117},{"id":68814,"name":"Capácuaro","lat":19.54741,"lng":-102.05184},{"id":68810,"name":"Capula","lat":19.7,"lng":-101.8},{"id":68845,"name":"Carácuaro","lat":18.98513,"lng":-101.04164},{"id":68831,"name":"Carona","lat":19.52667,"lng":-102.45074},{"id":68866,"name":"Caurio de Guadalupe","lat":19.92455,"lng":-101.86067},{"id":68896,"name":"Cenobio Moreno","lat":19.09629,"lng":-102.50415},{"id":68924,"name":"Cerro Colorado de Ocampo","lat":19.31712,"lng":-100.46538},{"id":68976,"name":"Chapa","lat":19.37976,"lng":-101.66556},{"id":68992,"name":"Charapán","lat":19.65112,"lng":-102.2519},{"id":68991,"name":"Charapendo","lat":19.26383,"lng":-102.0661},{"id":68998,"name":"Charo","lat":19.74966,"lng":-101.04571},{"id":69004,"name":"Chavinda","lat":20.00625,"lng":-102.46015},{"id":69007,"name":"Cherán","lat":19.68536,"lng":-101.95368},{"id":69008,"name":"Cherán Atzicuirín (Cheranástico)","lat":19.7,"lng":-102.01556},{"id":69067,"name":"Chilchota","lat":19.8419,"lng":-102.08477},{"id":69091,"name":"Chiquimitío","lat":19.79507,"lng":-101.25208},{"id":69095,"name":"Chitejé de Garabato","lat":20.10111,"lng":-100.18899},{"id":69111,"name":"Chucándiro","lat":19.90008,"lng":-101.3338},{"id":69122,"name":"Chupio","lat":19.17836,"lng":-101.44599},{"id":69123,"name":"Churintzio","lat":20.15056,"lng":-102.06469},{"id":69125,"name":"Churumuco de Morelos","lat":18.66333,"lng":-101.64741},{"id":69161,"name":"Ciudad Hidalgo","lat":19.6927,"lng":-100.55445},{"id":69164,"name":"Ciudad Lázaro Cárdenas","lat":17.97066,"lng":-102.22124},{"id":69213,"name":"Coahuayana de Hidalgo","lat":18.70224,"lng":-103.66145},{"id":69212,"name":"Coahuayana Viejo","lat":18.75119,"lng":-103.66798},{"id":69219,"name":"Coajomulco","lat":19.03375,"lng":-99.20428},{"id":69220,"name":"Coalcomán de Vázquez Pallares","lat":18.7775,"lng":-103.16},{"id":69243,"name":"Cocucho","lat":19.69477,"lng":-102.18925},{"id":69245,"name":"Coeneo de la Libertad","lat":19.82195,"lng":-101.5847},{"id":69254,"name":"Cojumatlán de Régules","lat":20.11858,"lng":-102.85182},{"id":69279,"name":"Colonia Antorcha Campesina (Santa Rosa)","lat":19.68,"lng":-100.52611},{"id":69280,"name":"Colonia Aquiles Córdoba Morán","lat":19.70667,"lng":-100.53528},{"id":69381,"name":"Colonia de Guadalupe","lat":19.80083,"lng":-100.91556},{"id":69293,"name":"Colonia Ecológica Asociación de Lucha Social (Lucha Social)","lat":19.68833,"lng":-100.60917},{"id":69386,"name":"Colonia el Mirador (Llano del Ejido)","lat":19.67583,"lng":-100.55361},{"id":69297,"name":"Colonia Emiliano Zapata (San Juan Zitácuaro)","lat":19.44778,"lng":-100.30583},{"id":69313,"name":"Colonia Independencia","lat":19.61556,"lng":-100.32389},{"id":69398,"name":"Colonia las Malvinas (Colonia Antorcha)","lat":19.87833,"lng":-102.22583},{"id":69329,"name":"Colonia Miguel Hidalgo","lat":19.78583,"lng":-101.10139},{"id":69378,"name":"Colonia Vista Bella (Lomas del Peaje)","lat":19.49083,"lng":-101.59389},{"id":69415,"name":"Comachuén","lat":19.57132,"lng":-101.90433},{"id":69422,"name":"Comanjá","lat":19.74696,"lng":-101.6908},{"id":69447,"name":"Condémbaro","lat":19.29292,"lng":-102.30401},{"id":69457,"name":"Conjunto Habitacional el Trébol","lat":19.76694,"lng":-101.15472},{"id":69456,"name":"Conjunto Habitacional Villas del Pedregal","lat":19.68361,"lng":-101.30361},{"id":69475,"name":"Copándaro (Copándaro del Cuatro)","lat":19.90057,"lng":-101.65945},{"id":69476,"name":"Copándaro de Galeana","lat":19.89254,"lng":-101.21394},{"id":69495,"name":"Corupo","lat":19.60912,"lng":-102.23479},{"id":69509,"name":"Cotija de la Paz","lat":19.80922,"lng":-102.70198},{"id":69533,"name":"Crescencio Morales (San Mateo)","lat":19.49111,"lng":-100.24306},{"id":69556,"name":"Cuamio","lat":20.0339,"lng":-101.15167},{"id":69558,"name":"Cuanajo","lat":19.48485,"lng":-101.50794},{"id":69564,"name":"Cuaracurío","lat":20.06102,"lng":-101.14774},{"id":69566,"name":"Cuartel la Mesa (El Asoleadero)","lat":19.56972,"lng":-100.28694},{"id":69568,"name":"Cuatro Caminos","lat":18.98826,"lng":-102.1036},{"id":69607,"name":"Cucuchucho","lat":19.58275,"lng":-101.63111},{"id":69629,"name":"Cuitzeo del Porvenir","lat":19.97025,"lng":-101.1429},{"id":69638,"name":"Cumuato","lat":20.25724,"lng":-102.5906},{"id":69643,"name":"Cuparátaro","lat":19.85071,"lng":-101.08903},{"id":69645,"name":"Cupuán del Río","lat":18.77806,"lng":-102.18778},{"id":69646,"name":"Curimeo","lat":20.02043,"lng":-101.69534},{"id":69647,"name":"Curungueo","lat":19.46459,"lng":-100.3434},{"id":69649,"name":"Cuto de la Esperanza","lat":19.73083,"lng":-101.34028},{"id":69650,"name":"Cuto del Porvenir","lat":19.86976,"lng":-101.14339},{"id":69684,"name":"Dieciocho de Marzo","lat":19.23138,"lng":-102.7057},{"id":69690,"name":"División del Norte","lat":19.08193,"lng":-102.61218},{"id":69697,"name":"Doctor Miguel Silva (San Guillermo)","lat":19.96583,"lng":-101.17417},{"id":69713,"name":"Donaciano Ojeda","lat":19.49093,"lng":-100.27952},{"id":69754,"name":"Ecuandureo","lat":20.16188,"lng":-102.1934},{"id":69811,"name":"Ejido el Rosario","lat":19.57185,"lng":-100.27673},{"id":69828,"name":"El Alvareño","lat":20.30078,"lng":-102.43723},{"id":69854,"name":"El Cahulote de Santa Ana","lat":19.07611,"lng":-101.5825},{"id":69866,"name":"El Capulín","lat":20.22795,"lng":-102.48991},{"id":69896,"name":"El Ceñidor","lat":19.00276,"lng":-102.19035},{"id":69940,"name":"El Césped","lat":19.8825,"lng":-100.13972},{"id":69898,"name":"El Chauz","lat":18.89195,"lng":-102.03978},{"id":69910,"name":"El Colegio","lat":19.77333,"lng":-101.1775},{"id":69934,"name":"El Cuenqueño","lat":20.32745,"lng":-102.4576},{"id":69937,"name":"El Cuitzillo Grande","lat":19.77972,"lng":-101.11694},{"id":69949,"name":"El Durazno","lat":19.65314,"lng":-101.17139},{"id":69966,"name":"El Fortín","lat":20.18005,"lng":-102.60051},{"id":69969,"name":"El Fuerte","lat":20.37215,"lng":-102.06709},{"id":69977,"name":"El Guaco","lat":19.06711,"lng":-102.0576},{"id":70013,"name":"El Letrero","lat":18.96339,"lng":-102.11025},{"id":70031,"name":"El Maluco","lat":20.14434,"lng":-101.67528},{"id":70087,"name":"El Paracho","lat":20.10819,"lng":-102.52272},{"id":70096,"name":"El Pedregal","lat":19.51083,"lng":-101.44917},{"id":70110,"name":"El Platanal","lat":20.062,"lng":-102.57779},{"id":70163,"name":"El Rincón de San Felipe (Tercera Manzana San Felipe)","lat":19.50639,"lng":-100.37278},{"id":70202,"name":"El Sauz de Abajo","lat":20.075,"lng":-102.26833},{"id":70221,"name":"El Tequesquite","lat":20.30174,"lng":-102.28833},{"id":70228,"name":"El Tigre (Segunda Manzana de Crescencio Morales)","lat":19.47361,"lng":-100.24417},{"id":70287,"name":"Emiliano Zapata","lat":19.3378,"lng":-101.9355},{"id":70314,"name":"Erongarícuaro","lat":19.58881,"lng":-101.7211},{"id":70351,"name":"Estación Queréndaro","lat":19.88285,"lng":-100.94861},{"id":70377,"name":"Etúcuaro","lat":19.41939,"lng":-101.21547},{"id":70383,"name":"Ex-Hacienda de Guadalupe","lat":19.78417,"lng":-101.21472},{"id":70397,"name":"Felipe Carrillo Puerto","lat":19.16325,"lng":-102.70834},{"id":70415,"name":"Fraccionamiento Colinas Universidad","lat":20.01833,"lng":-102.73694},{"id":70420,"name":"Fraccionamiento Ex-Hacienda el Refugio","lat":19.95083,"lng":-102.25639},{"id":70421,"name":"Fraccionamiento Galaxia Tarímbaro","lat":19.76167,"lng":-101.19444},{"id":70424,"name":"Fraccionamiento Laureles Eréndira","lat":19.77222,"lng":-101.13056},{"id":70426,"name":"Fraccionamiento Metrópolis II","lat":19.75639,"lng":-101.20444},{"id":70428,"name":"Fraccionamiento Misión del Valle","lat":19.76556,"lng":-101.12167},{"id":70429,"name":"Fraccionamiento Monte Olivo","lat":19.98472,"lng":-102.25111},{"id":70434,"name":"Fraccionamiento Privadas del Sol","lat":19.75222,"lng":-101.19139},{"id":70441,"name":"Fraccionamiento San Miguel","lat":20.07111,"lng":-102.68667},{"id":70477,"name":"Francisco Sarabia (Cerrito Pelón)","lat":20.03086,"lng":-102.70158},{"id":70478,"name":"Francisco Serrato (San Bartolo)","lat":19.5068,"lng":-100.26},{"id":70481,"name":"Francisco Villa","lat":19.875,"lng":-100.93583},{"id":70516,"name":"Gambara","lat":18.9323,"lng":-102.1124},{"id":70533,"name":"General Francisco Villa","lat":18.74304,"lng":-102.2492},{"id":70549,"name":"Gildardo Magaña (Los Ángeles)","lat":19.54889,"lng":-102.45861},{"id":70567,"name":"Guacamayas","lat":18.01932,"lng":-102.21225},{"id":70643,"name":"Guándaro","lat":20.19201,"lng":-101.87398},{"id":70830,"name":"Héroes de Chapultepec (Rodeo de San Antonio)","lat":20.31111,"lng":-101.5025},{"id":70681,"name":"Heróica Zitácuaro","lat":19.43612,"lng":-100.35733},{"id":70723,"name":"Huajúmbaro","lat":19.6821,"lng":-100.74065},{"id":70731,"name":"Huandacareo","lat":19.99136,"lng":-101.2761},{"id":70732,"name":"Huanguitío","lat":19.39707,"lng":-100.48732},{"id":70733,"name":"Huaniqueo de Morales","lat":19.89682,"lng":-101.5045},{"id":70771,"name":"Huetamo de Núñez","lat":18.62926,"lng":-100.897},{"id":70797,"name":"Huiramba","lat":19.52645,"lng":-101.45959},{"id":70831,"name":"Ibarra","lat":20.22967,"lng":-102.62373},{"id":70833,"name":"Ichán","lat":19.85806,"lng":-102.05417},{"id":70863,"name":"Ihuatzio","lat":19.56647,"lng":-101.61649},{"id":70868,"name":"Indaparapeo","lat":19.78767,"lng":-100.96907},{"id":70873,"name":"Infiernillo (Morelos de Infiernillo)","lat":18.2825,"lng":-101.90111},{"id":70875,"name":"Irapeo","lat":19.69334,"lng":-101.05842},{"id":70877,"name":"Iratzio","lat":19.64583,"lng":-101.41194},{"id":70878,"name":"Irimbo","lat":19.70083,"lng":-100.47847},{"id":70881,"name":"Isaac Arriaga (Santa Ana Mancera)","lat":20.24583,"lng":-101.49361},{"id":70891,"name":"Istaro","lat":19.32806,"lng":-101.75361},{"id":70945,"name":"Ixtlán de los Hervores","lat":20.16895,"lng":-102.3948},{"id":70954,"name":"J. Jesús Díaz Tzirio","lat":19.76667,"lng":-102.39722},{"id":70959,"name":"Jacona","lat":19.94951,"lng":-102.31788},{"id":70996,"name":"Jamaica","lat":19.85577,"lng":-101.13486},{"id":71001,"name":"Janitzio","lat":19.57327,"lng":-101.65189},{"id":71009,"name":"Jarácuaro","lat":19.56058,"lng":-101.67785},{"id":71008,"name":"Jaripeo","lat":19.68026,"lng":-101.08545},{"id":71037,"name":"Jesús del Monte","lat":19.65151,"lng":-101.15227},{"id":71057,"name":"Jiquílpan de Juárez","lat":19.99482,"lng":-102.71969},{"id":71102,"name":"José María Morelos (La Yegüería)","lat":19.86389,"lng":-100.87917},{"id":71134,"name":"Jucutacato","lat":19.37771,"lng":-102.07924},{"id":71140,"name":"Jungapeo de Juárez","lat":19.45915,"lng":-100.49483},{"id":71171,"name":"La Aldea","lat":19.74306,"lng":-101.135},{"id":71173,"name":"La Angostura","lat":20.19639,"lng":-102.44167},{"id":71191,"name":"La Calera (Nacimientos)","lat":20.27528,"lng":-101.57556},{"id":71261,"name":"La Encarnación","lat":19.41242,"lng":-100.39211},{"id":71263,"name":"La Ermita (Nueva Jerusalén)","lat":19.07444,"lng":-101.50667},{"id":71275,"name":"La Esperanza","lat":20.05559,"lng":-102.41104},{"id":71284,"name":"La Estancia de Amezcua","lat":20.00735,"lng":-102.24487},{"id":71297,"name":"La Fundición (Quinta Manzana)","lat":19.45528,"lng":-100.30361},{"id":71304,"name":"La Goleta","lat":19.73904,"lng":-101.08127},{"id":71316,"name":"La Higuerilla (Los Lirios)","lat":19.9225,"lng":-100.27639},{"id":71317,"name":"La Higuerita (Colonia San Rafael)","lat":19.61861,"lng":-102.48444},{"id":71319,"name":"La Huacana","lat":18.96312,"lng":-101.8072},{"id":71322,"name":"La Ibérica (La Gotera)","lat":19.16472,"lng":-101.91611},{"id":71375,"name":"La Luz","lat":20.15234,"lng":-102.48528},{"id":71391,"name":"La Mesa (La Mesa de Cedano)","lat":19.44861,"lng":-100.32722},{"id":71396,"name":"La Mintzita (Piedra Dura)","lat":19.65194,"lng":-101.2775},{"id":71397,"name":"La Mira","lat":18.03349,"lng":-102.32566},{"id":71398,"name":"La Mira Tumbiscatio","lat":18.68333,"lng":-102.28333},{"id":71401,"name":"La Mojonera","lat":19.70366,"lng":-101.83343},{"id":71414,"name":"La Orilla","lat":17.99583,"lng":-102.22694},{"id":71423,"name":"La Palma","lat":20.1478,"lng":-102.7585},{"id":71427,"name":"La Palma (Las Palmas)","lat":19.77111,"lng":-101.14083},{"id":71445,"name":"La Piedad","lat":20.34239,"lng":-102.0305},{"id":71450,"name":"La Placita de Morelos","lat":18.5327,"lng":-103.58841},{"id":71454,"name":"La Plaza del Limón","lat":20.13524,"lng":-102.43117},{"id":71478,"name":"La Rinconoda","lat":20.04363,"lng":-102.2885},{"id":71486,"name":"La Sauceda","lat":20.0939,"lng":-102.34512},{"id":71494,"name":"La Soledad","lat":19.52111,"lng":-100.48333},{"id":71565,"name":"Lagunillas","lat":19.5707,"lng":-101.41941},{"id":71583,"name":"Las Cañadas","lat":20.2975,"lng":-101.97806},{"id":71585,"name":"Las Cañas","lat":18.56583,"lng":-101.97611},{"id":71588,"name":"Las Cieneguitas","lat":20.24884,"lng":-102.24505},{"id":71609,"name":"Las Letras","lat":20.23083,"lng":-101.43361},{"id":71898,"name":"Lázaro Cárdenas (La Purísima)","lat":19.86972,"lng":-101.02306},{"id":71737,"name":"Loma de los Hoyos","lat":19.03556,"lng":-102.44278},{"id":71758,"name":"Lomas de la Maestranza","lat":19.6875,"lng":-101.33028},{"id":71760,"name":"Lombardía","lat":19.15806,"lng":-102.05111},{"id":71783,"name":"Los Cajones","lat":19.20964,"lng":-101.91317},{"id":71789,"name":"Los Charcos","lat":20.26459,"lng":-102.40815},{"id":71804,"name":"Los Guajes","lat":20.26111,"lng":-102.14164},{"id":71809,"name":"Los Limones","lat":19.60032,"lng":-102.53038},{"id":71831,"name":"Los Pilares","lat":20.32582,"lng":-102.37322},{"id":71852,"name":"Los Reyes de Salgado","lat":19.59042,"lng":-102.47242},{"id":71906,"name":"Macho de Agua","lat":19.44184,"lng":-100.241},{"id":71914,"name":"Macutzio","lat":19.49917,"lng":-100.355},{"id":71965,"name":"Manuel Villalongín","lat":20.2375,"lng":-101.52667},{"id":71973,"name":"Manzana de San Luis","lat":19.56236,"lng":-100.27703},{"id":71974,"name":"Manzana la Cofradía","lat":19.54944,"lng":-100.35583},{"id":71979,"name":"Maravatío de Ocampo","lat":19.89113,"lng":-100.44443},{"id":71992,"name":"Mariano Escobedo","lat":19.96481,"lng":-101.06206},{"id":72086,"name":"Mesón Nuevo (Cañada de la Magdalena)","lat":19.81474,"lng":-101.16597},{"id":72147,"name":"Mineral de Angangueo","lat":19.62056,"lng":-100.28436},{"id":72194,"name":"Montaña Monarca (Punta Altozano)","lat":19.66056,"lng":-101.16556},{"id":72214,"name":"Monteleón","lat":20.30841,"lng":-102.20813},{"id":72225,"name":"Morelia","lat":19.70078,"lng":-101.18443},{"id":72231,"name":"Morelos","lat":19.64889,"lng":-101.23889},{"id":72271,"name":"Nahuatzén","lat":19.65506,"lng":-101.91704},{"id":72280,"name":"Naranja de Tapia","lat":19.77708,"lng":-101.75947},{"id":72338,"name":"Nocupétaro","lat":19.04392,"lng":-101.16187},{"id":72367,"name":"Nueva Italia de Ruiz","lat":19.02492,"lng":-102.09318},{"id":72410,"name":"Nuevo San Juan Parangaricutiro","lat":19.41857,"lng":-102.13087},{"id":72417,"name":"Nuevo Urecho","lat":19.16602,"lng":-101.86816},{"id":72424,"name":"Nuevo Zirosto","lat":19.54808,"lng":-102.34747},{"id":72425,"name":"Numarán","lat":20.2558,"lng":-101.94988},{"id":72427,"name":"Nurío","lat":19.65656,"lng":-102.12957},{"id":72439,"name":"Ocampo","lat":19.58241,"lng":-100.33913},{"id":72475,"name":"Ocurio","lat":19.48254,"lng":-100.42344},{"id":72490,"name":"Ojo de Agua de Bucio","lat":19.78048,"lng":-100.72815},{"id":72497,"name":"Ojo de Rana","lat":20.04839,"lng":-102.89314},{"id":72514,"name":"Opopeo","lat":19.41163,"lng":-101.60515},{"id":72579,"name":"Pajacuarán","lat":20.11909,"lng":-102.56623},{"id":72618,"name":"Pamatácuaro","lat":19.69177,"lng":-102.34576},{"id":72622,"name":"Panindícuaro","lat":19.98518,"lng":-101.76096},{"id":72639,"name":"Paracho de Verduzco","lat":19.64745,"lng":-102.04897},{"id":72640,"name":"Paracuaro","lat":19.14926,"lng":-102.21871},{"id":72641,"name":"Parahuén","lat":19.35177,"lng":-101.69204},{"id":73009,"name":"Páreo","lat":19.33259,"lng":-102.45219},{"id":72665,"name":"Parícuaro","lat":19.26133,"lng":-100.45867},{"id":72687,"name":"Paso de Hidalgo (Paso de Álamos)","lat":20.27278,"lng":-102.54528},{"id":72690,"name":"Paso de Núñez (Buenavista)","lat":18.89472,"lng":-100.94667},{"id":72700,"name":"Pastor Ortíz","lat":20.30552,"lng":-101.59588},{"id":72713,"name":"Patuán","lat":19.39231,"lng":-101.91651},{"id":73010,"name":"Pátzcuaro","lat":19.51594,"lng":-101.60887},{"id":72720,"name":"Pedernales","lat":19.14133,"lng":-101.46889},{"id":72751,"name":"Peña del Panal","lat":19.77333,"lng":-101.18944},{"id":72729,"name":"Penjamillo de Degollado","lat":20.1041,"lng":-101.93444},{"id":72732,"name":"Peribán de Ramos","lat":19.5201,"lng":-102.41397},{"id":72762,"name":"Pichátaro","lat":19.57289,"lng":-101.80737},{"id":72784,"name":"Pinzándaro","lat":19.10928,"lng":-102.54082},{"id":72844,"name":"Pomacuarán","lat":19.62198,"lng":-102.10286},{"id":72869,"name":"Poturo","lat":18.82592,"lng":-101.61335},{"id":72889,"name":"Presa del Rosario","lat":19.06789,"lng":-102.40909},{"id":73006,"name":"Puácuaro","lat":19.6028,"lng":-101.67419},{"id":72951,"name":"Pueblo Viejo","lat":19.77638,"lng":-100.81474},{"id":72960,"name":"Puentecillas (Tercera Manzana de Zirahuato)","lat":19.505,"lng":-100.405},{"id":72976,"name":"Puerto de Buenavista (Lázaro Cárdenas)","lat":19.68806,"lng":-101.12722},{"id":72988,"name":"Purechucho","lat":18.58227,"lng":-100.88843},{"id":72992,"name":"Purépero de Echáiz","lat":19.91039,"lng":-102.00625},{"id":72991,"name":"Puruándiro","lat":20.08886,"lng":-101.51579},{"id":72990,"name":"Puruarán","lat":19.0963,"lng":-101.52234},{"id":73023,"name":"Queréndaro","lat":19.69745,"lng":-100.84379},{"id":73033,"name":"Quinceo","lat":19.5947,"lng":-101.99977},{"id":73042,"name":"Quiroga","lat":19.66557,"lng":-101.52287},{"id":73075,"name":"Rancho Viejo","lat":19.24878,"lng":-100.41737},{"id":73089,"name":"Real Hacienda (Metrópolis)","lat":19.75056,"lng":-101.19694},{"id":73125,"name":"Rincón de Cedeños (Rincón de Dolores)","lat":19.67806,"lng":-100.57639},{"id":73126,"name":"Rincón de Curungueo","lat":19.48336,"lng":-100.34414},{"id":73131,"name":"Rincón de Nicolás Romero (Cedros Tercera Manzana)","lat":19.41361,"lng":-100.2975},{"id":73177,"name":"Río Grande","lat":20.34417,"lng":-102.00556},{"id":73154,"name":"Romero de Guzmán","lat":20.02974,"lng":-102.25876},{"id":73155,"name":"Romero de Torres","lat":20.02435,"lng":-102.25295},{"id":73203,"name":"Sahuayo","lat":20.05792,"lng":-102.75119},{"id":73204,"name":"Sahuayo de Morelos","lat":20.05859,"lng":-102.71575},{"id":73212,"name":"Salguero","lat":18.41401,"lng":-100.62583},{"id":73261,"name":"San Agustín del Maíz","lat":19.8991,"lng":-101.16467},{"id":73263,"name":"San Agustín del Pulque","lat":19.96267,"lng":-101.07327},{"id":73275,"name":"San Andrés Coru","lat":19.4668,"lng":-101.9449},{"id":73305,"name":"San Andrés Ziróndaro","lat":19.66943,"lng":-101.63221},{"id":73317,"name":"San Antonio","lat":19.66722,"lng":-101.26806},{"id":73389,"name":"San Antonio la Labor","lat":19.02942,"lng":-102.30075},{"id":73340,"name":"San Antonio Molinos","lat":20.07533,"lng":-100.21501},{"id":73350,"name":"San Antonio Tariácuri","lat":19.88249,"lng":-101.74715},{"id":73359,"name":"San Antonio Villalongín","lat":19.53456,"lng":-100.75271},{"id":73404,"name":"San Bartolo Cuitareo","lat":19.65139,"lng":-100.60111},{"id":73429,"name":"San Benito","lat":19.70714,"lng":-102.3217},{"id":73433,"name":"San Bernabé de las Canteras","lat":19.76639,"lng":-101.16333},{"id":73530,"name":"San Felipe de los Herreros","lat":19.61701,"lng":-102.18128},{"id":73533,"name":"San Felipe los Alzati (Colonia Nueva)","lat":19.48972,"lng":-100.37389},{"id":73587,"name":"San Francisco Peribán","lat":19.55601,"lng":-102.39844},{"id":73641,"name":"San Gregorio","lat":20.1947,"lng":-102.5489},{"id":73671,"name":"San Isidro","lat":19.76806,"lng":-100.20361},{"id":73673,"name":"San Isidro Alta Huerta","lat":19.72472,"lng":-100.63889},{"id":73713,"name":"San Jerónimo Purenchecuaro","lat":19.67924,"lng":-101.6123},{"id":73762,"name":"San José Cuaro","lat":19.98833,"lng":-101.25194},{"id":73817,"name":"San José de Gracia","lat":19.98966,"lng":-103.02198},{"id":73766,"name":"San José Huipana","lat":20.27752,"lng":-101.4699},{"id":73875,"name":"San Juan Benito Juárez (San Juan Tararameo)","lat":19.91694,"lng":-101.12861},{"id":73889,"name":"San Juan De Los Platanos","lat":19.1371,"lng":-102.43929},{"id":73964,"name":"San Juan de Viña","lat":19.34427,"lng":-101.47866},{"id":73983,"name":"San Juanito Itzícuaro","lat":19.67572,"lng":-101.25457},{"id":73994,"name":"San Lorenzo","lat":19.98917,"lng":-101.64583},{"id":74004,"name":"San Lorenzo Itzícuaro","lat":19.67673,"lng":-101.28096},{"id":74009,"name":"San Lorenzo Queréndaro","lat":19.6675,"lng":-100.48861},{"id":74022,"name":"San Lucas","lat":18.59031,"lng":-100.78529},{"id":74028,"name":"San Lucas Huarirapeo (La Mesa de San Lucas)","lat":19.67861,"lng":-100.62389},{"id":74032,"name":"San Lucas Pío","lat":19.79361,"lng":-100.92472},{"id":74111,"name":"San Martín Totolán","lat":19.9852,"lng":-102.68017},{"id":74178,"name":"San Miguel Epejan","lat":20.06632,"lng":-101.81584},{"id":74257,"name":"San Nicolás Obispo","lat":19.65272,"lng":-101.31571},{"id":74410,"name":"San Pedro de los Sauces","lat":19.78639,"lng":-101.13778},{"id":74348,"name":"San Pedro Jácuaro","lat":19.71496,"lng":-100.64493},{"id":74433,"name":"San Rafael Tecario","lat":19.2108,"lng":-101.50627},{"id":74456,"name":"San Sebastián","lat":19.57158,"lng":-102.48066},{"id":74524,"name":"Santa Ana","lat":19.58222,"lng":-100.46889},{"id":74527,"name":"Santa Ana Amatlán","lat":19.16097,"lng":-102.54059},{"id":74530,"name":"Santa Ana Chapitiro","lat":19.52611,"lng":-101.6525},{"id":74554,"name":"Santa Ana de Guerrero (El Cascabel)","lat":19.27639,"lng":-100.44139},{"id":74539,"name":"Santa Ana Maya","lat":20.0069,"lng":-101.02189},{"id":74552,"name":"Santa Ana Zirosto","lat":19.53512,"lng":-102.32442},{"id":74569,"name":"Santa Casilda","lat":19.15284,"lng":-101.95373},{"id":74577,"name":"Santa Catarina","lat":19.29033,"lng":-102.39845},{"id":74603,"name":"Santa Clara de Valladares","lat":19.63658,"lng":-102.4912},{"id":74604,"name":"Santa Clara del Cobre","lat":19.4058,"lng":-101.63998},{"id":74605,"name":"Santa Clara del Tule","lat":19.82389,"lng":-100.82694},{"id":74655,"name":"Santa Elena","lat":19.85861,"lng":-100.40833},{"id":74664,"name":"Santa Fé de la Laguna","lat":19.67257,"lng":-101.55487},{"id":74660,"name":"Santa Fe del Río","lat":20.20358,"lng":-101.82695},{"id":74681,"name":"Santa Juana","lat":19.43019,"lng":-101.56106},{"id":74809,"name":"Santa María de los Ángeles","lat":19.78629,"lng":-100.19938},{"id":74744,"name":"Santa María Huiramangaro (San Juan Tumbio)","lat":19.51306,"lng":-101.76528},{"id":74790,"name":"Santa María Urapicho","lat":19.68139,"lng":-102.11194},{"id":74840,"name":"Santa Rosa (Santa Bárbara)","lat":19.38333,"lng":-102.03611},{"id":74882,"name":"Santiago Azajo","lat":19.70666,"lng":-101.68659},{"id":74937,"name":"Santiago Puriatzícuaro","lat":19.88306,"lng":-100.58861},{"id":74941,"name":"Santiago Tangamandapio","lat":19.95568,"lng":-102.43546},{"id":74970,"name":"Santiago Undameo","lat":19.59515,"lng":-101.2848},{"id":75059,"name":"Senguio","lat":19.75386,"lng":-100.33771},{"id":75064,"name":"Sevina","lat":19.62898,"lng":-101.90057},{"id":75152,"name":"Susupuato de Guerrero","lat":19.21505,"lng":-100.40798},{"id":75164,"name":"Tacámbaro","lat":19.24033,"lng":-101.4473},{"id":75165,"name":"Tacámbaro de Codallos","lat":19.23502,"lng":-101.45824},{"id":75166,"name":"Tacátzcuaro","lat":19.73009,"lng":-102.54742},{"id":75157,"name":"Tacicuaro","lat":19.6698,"lng":-101.35967},{"id":75163,"name":"Tacuro (Santa María Tacuro)","lat":19.85696,"lng":-102.05084},{"id":75167,"name":"Tafetán","lat":19.41876,"lng":-100.90817},{"id":75199,"name":"Tanaco","lat":19.73943,"lng":-102.08146},{"id":75205,"name":"Tancítaro","lat":19.33843,"lng":-102.36264},{"id":75208,"name":"Tangancícuaro","lat":19.88294,"lng":-102.22859},{"id":75211,"name":"Tanhuato de Guerrero","lat":20.28552,"lng":-102.33113},{"id":75230,"name":"Tarejero","lat":19.81941,"lng":-101.71564},{"id":75231,"name":"Taretán","lat":19.3342,"lng":-101.91849},{"id":75235,"name":"Tarímbaro","lat":19.79578,"lng":-101.17782},{"id":75243,"name":"Tavera","lat":19.06126,"lng":-101.5591},{"id":75266,"name":"Tecario","lat":19.23247,"lng":-101.54443},{"id":75282,"name":"Tecomatán","lat":20.11514,"lng":-102.49634},{"id":75393,"name":"Tepalcatepec","lat":19.18666,"lng":-102.8493},{"id":75454,"name":"Tepuxtepec","lat":19.99135,"lng":-100.22566},{"id":75557,"name":"Tierras Coloradas (San Pedro)","lat":19.71889,"lng":-100.64639},{"id":75577,"name":"Tingambato","lat":19.50109,"lng":-101.85327},{"id":75578,"name":"Tingüindín","lat":19.73921,"lng":-102.4812},{"id":75580,"name":"Tiquicheo","lat":18.90301,"lng":-100.73731},{"id":75581,"name":"Tiquicheo de Nicolás Romero","lat":19.08089,"lng":-100.82552},{"id":75582,"name":"Tiríndaro","lat":19.77121,"lng":-101.7435},{"id":75583,"name":"Tirípetio","lat":19.54897,"lng":-101.34667},{"id":75650,"name":"Tlalpujahua de Rayón","lat":19.80523,"lng":-100.17409},{"id":75718,"name":"Tocumbo","lat":19.70177,"lng":-102.52323},{"id":75729,"name":"Tomendán","lat":19.31142,"lng":-101.8603},{"id":75747,"name":"Toreo Bajo (El Toreo Bajo)","lat":19.44472,"lng":-102.00444},{"id":75806,"name":"Tumbiscatío de Ruiz","lat":18.52667,"lng":-102.37823},{"id":75808,"name":"Tungareo","lat":19.90833,"lng":-100.36639},{"id":75815,"name":"Turicato","lat":19.05402,"lng":-101.41899},{"id":75817,"name":"Turícuaro","lat":19.57085,"lng":-101.93747},{"id":75820,"name":"Tuxpan","lat":19.56788,"lng":-100.46189},{"id":75830,"name":"Tuzantla","lat":19.20289,"lng":-100.56679},{"id":75843,"name":"Tzintzimeo","lat":19.87028,"lng":-100.97778},{"id":75844,"name":"Tzintzingareo","lat":19.76376,"lng":-100.48524},{"id":75845,"name":"Tzintzuntzan","lat":19.60593,"lng":-101.54798},{"id":75847,"name":"Tziritzícuaro","lat":19.95609,"lng":-100.45945},{"id":75849,"name":"Tzitzio","lat":19.44492,"lng":-100.90849},{"id":75861,"name":"Ucareo","lat":19.8985,"lng":-100.68595},{"id":75892,"name":"Uricho","lat":19.57104,"lng":-101.71614},{"id":75893,"name":"Uripitio","lat":19.95338,"lng":-100.538},{"id":75898,"name":"Uruapan","lat":19.41116,"lng":-102.05644},{"id":75899,"name":"Uruétaro","lat":19.79056,"lng":-101.08778},{"id":75902,"name":"Uspero","lat":19.01421,"lng":-102.26907},{"id":75918,"name":"Valle Verde","lat":19.4725,"lng":-100.35528},{"id":75961,"name":"Venustiano Carranza","lat":20.11553,"lng":-102.65391},{"id":76019,"name":"Villa Jiménez","lat":19.92306,"lng":-101.74694},{"id":76030,"name":"Villa Madero","lat":19.3915,"lng":-101.27883},{"id":76032,"name":"Villa Magna","lat":19.68361,"lng":-101.32667},{"id":76057,"name":"Villa Victoria","lat":18.75749,"lng":-103.36967},{"id":76083,"name":"Villamar","lat":20.0204,"lng":-102.59655},{"id":76090,"name":"Villas de la Loma","lat":19.69,"lng":-101.29944},{"id":76097,"name":"Vista Hermosa de Negrete","lat":20.27169,"lng":-102.47488},{"id":76249,"name":"Yurécuaro","lat":20.33606,"lng":-102.28382},{"id":76266,"name":"Zacapu","lat":19.82189,"lng":-101.78928},{"id":76294,"name":"Zamora","lat":19.9855,"lng":-102.28387},{"id":76321,"name":"Zaragoza (Puerto de Medina)","lat":19.87389,"lng":-100.11778},{"id":76332,"name":"Zicuicho","lat":19.66309,"lng":-102.33314},{"id":76333,"name":"Zicuirán","lat":18.87788,"lng":-101.96867},{"id":76343,"name":"Zináparo","lat":20.16937,"lng":-101.99923},{"id":76342,"name":"Zinapécuaro","lat":19.86006,"lng":-100.82857},{"id":76345,"name":"Ziquítaro","lat":20.06212,"lng":-101.89033},{"id":76346,"name":"Ziracuaretiro","lat":19.41887,"lng":-101.90884},{"id":76347,"name":"Zirahuato de los Bernal","lat":19.52124,"lng":-100.40662},{"id":76348,"name":"Zirahuén","lat":19.45334,"lng":-101.7317},{"id":76349,"name":"Zirimícuaro","lat":19.40792,"lng":-101.9584},{"id":76389,"name":"Zurumbeneo","lat":19.69981,"lng":-101.01113}]