[{"id":68006,"name":"18 de Marzo","lat":18.96889,"lng":-98.16028},{"id":68027,"name":"Acajete","lat":19.11154,"lng":-97.95231},{"id":68042,"name":"Acateno","lat":20.11324,"lng":-97.2271},{"id":68044,"name":"Acatepec","lat":18.37236,"lng":-97.03651},{"id":68049,"name":"Acatlán","lat":18.22374,"lng":-98.07685},{"id":68051,"name":"Acatlán de Osorio","lat":18.2025,"lng":-98.04864},{"id":68053,"name":"Acatzingo","lat":18.98196,"lng":-97.78363},{"id":68056,"name":"Acaxtlahuacán de Albino Zertuche","lat":18.01714,"lng":-98.54018},{"id":68069,"name":"Acteopan","lat":18.76388,"lng":-98.71366},{"id":68070,"name":"Actipan","lat":18.93689,"lng":-97.90252},{"id":68071,"name":"Actipan de Morelos","lat":18.96003,"lng":-97.79904},{"id":68074,"name":"Acuaco","lat":19.7625,"lng":-97.56444},{"id":68076,"name":"Acuexcomac","lat":19.03742,"lng":-98.38501},{"id":68137,"name":"Ahuacatlán","lat":20.13722,"lng":-98.0075},{"id":68143,"name":"Ahuatempan","lat":18.41269,"lng":-98.0185},{"id":68145,"name":"Ahuatepec","lat":18.85831,"lng":-97.91764},{"id":68147,"name":"Ahuatepec de Camino","lat":19.04087,"lng":-97.43457},{"id":68149,"name":"Ahuatlán","lat":18.5793,"lng":-98.27791},{"id":68150,"name":"Ahuaxintitla","lat":20.25325,"lng":-97.89561},{"id":68151,"name":"Ahuazotepec","lat":20.04535,"lng":-98.16332},{"id":68153,"name":"Ahuehuetitla","lat":18.21272,"lng":-98.21949},{"id":68164,"name":"Ajalpan","lat":18.37908,"lng":-97.25867},{"id":76393,"name":"Álamos Tepetitlán","lat":19.19619,"lng":-97.43858},{"id":68176,"name":"Albino Zertuche","lat":18.01275,"lng":-98.55511},{"id":68201,"name":"Alhuaca","lat":18.56795,"lng":-97.16594},{"id":68204,"name":"Aljojuca","lat":19.09933,"lng":-97.52973},{"id":68206,"name":"Allende","lat":19.53879,"lng":-97.59711},{"id":68210,"name":"Almecatla","lat":19.14286,"lng":-98.23597},{"id":68213,"name":"Almolonga","lat":18.47627,"lng":-97.96353},{"id":68226,"name":"Altepexi","lat":18.37035,"lng":-97.29966},{"id":76398,"name":"Álvaro Obregón","lat":19.02781,"lng":-97.90219},{"id":68242,"name":"Amatitlán de Azueta","lat":18.17631,"lng":-98.0764},{"id":68254,"name":"Ameluca","lat":20.56344,"lng":-97.82571},{"id":68256,"name":"Amixtlán","lat":20.04778,"lng":-97.79918},{"id":68257,"name":"Amozoc","lat":19.05019,"lng":-98.04154},{"id":68258,"name":"Amozoc de Mota","lat":19.04611,"lng":-98.045},{"id":68268,"name":"Analco de Ponciano Arriaga (Santa Cruz Analco)","lat":19.26444,"lng":-98.50028},{"id":68290,"name":"Apango de Zaragoza","lat":19.06833,"lng":-97.94028},{"id":68292,"name":"Apantéopan","lat":19.3582,"lng":-97.19104},{"id":68293,"name":"Apapantilla","lat":20.40356,"lng":-97.84665},{"id":68298,"name":"Apatauyan","lat":19.79911,"lng":-97.4444},{"id":68327,"name":"Aquixtla","lat":19.77957,"lng":-97.93526},{"id":68377,"name":"Artículo Primero Constitucional","lat":18.97412,"lng":-98.15848},{"id":68389,"name":"Atalpan","lat":19.84374,"lng":-97.56008},{"id":68394,"name":"Atecax","lat":19.6987,"lng":-97.36698},{"id":68396,"name":"Atempan","lat":19.83945,"lng":-97.45855},{"id":68398,"name":"Atencingo","lat":18.51347,"lng":-98.60542},{"id":68402,"name":"Atexcal","lat":18.36391,"lng":-97.6877},{"id":68408,"name":"Atla","lat":20.27527,"lng":-98.12469},{"id":68420,"name":"Atlequizayan","lat":20.01214,"lng":-97.62423},{"id":68422,"name":"Atlixco","lat":18.90815,"lng":-98.43613},{"id":68426,"name":"Atoluca","lat":19.855,"lng":-97.35361},{"id":68435,"name":"Atoyatempan","lat":18.81925,"lng":-97.9139},{"id":68438,"name":"Atzala","lat":18.54639,"lng":-98.55306},{"id":68440,"name":"Atzalán","lat":19.82472,"lng":-97.44417},{"id":68441,"name":"Atzingo (La Cumbre)","lat":19.97972,"lng":-97.96861},{"id":68442,"name":"Atzitzintla","lat":18.89915,"lng":-97.3244},{"id":68455,"name":"Axutla","lat":18.18938,"lng":-98.38935},{"id":68456,"name":"Axuxco","lat":18.23045,"lng":-97.20739},{"id":68464,"name":"Ayotla","lat":18.67004,"lng":-98.37266},{"id":68465,"name":"Ayotoxco de Guerrero","lat":20.09589,"lng":-97.40961},{"id":68470,"name":"Ayutla","lat":18.54503,"lng":-98.50537},{"id":68476,"name":"Azumbilla","lat":18.64552,"lng":-97.39815},{"id":68546,"name":"Barrio de Nuevo León","lat":19.08861,"lng":-98.29},{"id":68581,"name":"Bellavista de Victoria (San José Bellavista)","lat":18.87639,"lng":-97.54389},{"id":68592,"name":"Benito Juárez","lat":19.81654,"lng":-97.79108},{"id":68608,"name":"Beristain","lat":20.09426,"lng":-98.1329},{"id":68615,"name":"Bienvenido","lat":20.12235,"lng":-97.74434},{"id":68662,"name":"Buena Vista","lat":20.12767,"lng":-97.45373},{"id":68683,"name":"Buenavista de Juárez","lat":18.945,"lng":-97.82778},{"id":68677,"name":"Buenavista Tetela","lat":18.91967,"lng":-98.17632},{"id":68690,"name":"Buenos Aires","lat":20.15333,"lng":-97.74833},{"id":68712,"name":"Cacaloxúchitl","lat":18.78747,"lng":-98.48614},{"id":68724,"name":"Cala Norte","lat":19.84778,"lng":-97.42306},{"id":68725,"name":"Cala Sur","lat":19.83278,"lng":-97.42111},{"id":68739,"name":"Calipan","lat":18.29519,"lng":-97.16376},{"id":68743,"name":"Calmeca","lat":18.63501,"lng":-98.63414},{"id":68746,"name":"Calpanería Atezquilla","lat":19.65556,"lng":-97.99528},{"id":68765,"name":"Camocuautla","lat":20.03805,"lng":-97.75853},{"id":68766,"name":"Camotepec","lat":20.0472,"lng":-98.06825},{"id":68791,"name":"Candelaria Portezuelo","lat":19.04194,"lng":-97.70083},{"id":68828,"name":"Carmen Serdán","lat":19.03639,"lng":-97.81194},{"id":68846,"name":"Casa Blanca","lat":19.04222,"lng":-98.11889},{"id":68868,"name":"Caxhuacán","lat":20.06359,"lng":-97.60688},{"id":68958,"name":"Chalchihuapan","lat":18.97183,"lng":-98.33698},{"id":68986,"name":"Chapulco","lat":18.62586,"lng":-97.40474},{"id":69014,"name":"Chiautla de Tapia","lat":18.30149,"lng":-98.60339},{"id":69016,"name":"Chicahuaxtla","lat":20.1425,"lng":-97.94556},{"id":69022,"name":"Chichicapa","lat":18.40056,"lng":-97.04694},{"id":69025,"name":"Chichicuautla","lat":19.39073,"lng":-97.39394},{"id":69032,"name":"Chichiquila","lat":19.20073,"lng":-97.06691},{"id":69042,"name":"Chiconcuautla","lat":20.09517,"lng":-97.93896},{"id":69045,"name":"Chicontla","lat":20.24402,"lng":-97.83063},{"id":69052,"name":"Chietla","lat":18.52028,"lng":-98.57889},{"id":69053,"name":"Chigmecatitlán","lat":18.64634,"lng":-98.07203},{"id":69054,"name":"Chignahuapan","lat":19.83866,"lng":-98.03171},{"id":69059,"name":"Chila","lat":17.96747,"lng":-97.87478},{"id":69060,"name":"Chila de Juárez","lat":20.28113,"lng":-98.20937},{"id":69061,"name":"Chila de la Sal","lat":18.10975,"lng":-98.48574},{"id":69068,"name":"Chilchotla","lat":19.26916,"lng":-97.19916},{"id":69084,"name":"Chinantla","lat":18.23423,"lng":-98.27627},{"id":69085,"name":"Chinautla","lat":19.81996,"lng":-97.38859},{"id":69088,"name":"Chipahuatlán","lat":20.06111,"lng":-97.68861},{"id":69089,"name":"Chipilo de Francisco Javier Mina","lat":19.00611,"lng":-98.33056},{"id":69103,"name":"Cholula","lat":19.06406,"lng":-98.30352},{"id":69135,"name":"Cinco de Mayo","lat":20.13167,"lng":-97.63},{"id":69187,"name":"Ciudad de Chiautla de Tapia","lat":18.3,"lng":-98.60389},{"id":69188,"name":"Ciudad de Cuetzalan","lat":20.01861,"lng":-97.52111},{"id":69192,"name":"Ciudad de Tlatlauquitepec","lat":19.85278,"lng":-97.49528},{"id":69181,"name":"Ciudad Serdán","lat":18.98856,"lng":-97.44643},{"id":69217,"name":"Coahuixco","lat":19.80556,"lng":-97.41028},{"id":69226,"name":"Coatepec","lat":20.06236,"lng":-97.73069},{"id":69232,"name":"Coatzingo","lat":18.61199,"lng":-98.17267},{"id":69252,"name":"Cohuecán","lat":18.78268,"lng":-98.72085},{"id":69276,"name":"Colonia Agrícola de Ocotepec (Colonia San José)","lat":18.92972,"lng":-98.54444},{"id":69344,"name":"Colonia Obrera","lat":19.22944,"lng":-97.7975},{"id":69413,"name":"Colucan","lat":18.50905,"lng":-98.48078},{"id":69420,"name":"Comaltepec","lat":19.85893,"lng":-97.59938},{"id":69433,"name":"Concepción Capulac (La Ex-Hacienda)","lat":19.09444,"lng":-98.06139},{"id":69436,"name":"Concepción Cuautla","lat":18.86722,"lng":-97.98475},{"id":69473,"name":"Copila","lat":20.273,"lng":-98.08294},{"id":69480,"name":"Coronango","lat":19.1209,"lng":-98.30594},{"id":69481,"name":"Coronel Tito Hernández","lat":20.45642,"lng":-97.73607},{"id":69511,"name":"Coxcatlán","lat":18.26709,"lng":-97.15078},{"id":69512,"name":"Coxolico","lat":18.45104,"lng":-97.02991},{"id":69519,"name":"Coyomeapan","lat":18.28206,"lng":-96.99336},{"id":69522,"name":"Coyotepec","lat":18.41656,"lng":-97.82703},{"id":69549,"name":"Cuacnopalan","lat":18.81758,"lng":-97.51116},{"id":69550,"name":"Cuacuila","lat":20.17205,"lng":-98.0315},{"id":69559,"name":"Cuanalá","lat":19.10917,"lng":-98.32788},{"id":69562,"name":"Cuapiaxtla de Madero","lat":18.91544,"lng":-97.82382},{"id":69569,"name":"Cuatro Caminos","lat":18.4913,"lng":-97.12901},{"id":69573,"name":"Cuauhtamazaco","lat":20.025,"lng":-97.48722},{"id":69584,"name":"Cuauhtémoc","lat":19.22306,"lng":-97.33833},{"id":69586,"name":"Cuautempan","lat":19.91612,"lng":-97.79097},{"id":69589,"name":"Cuautinchán","lat":18.95463,"lng":-98.01566},{"id":69593,"name":"Cuautlancingo","lat":19.08995,"lng":-98.27319},{"id":69595,"name":"Cuautotola","lat":20.06841,"lng":-97.79806},{"id":69596,"name":"Cuautotolapan (San José)","lat":18.43299,"lng":-97.12091},{"id":69598,"name":"Cuaxoxpan","lat":19.80806,"lng":-97.34583},{"id":69599,"name":"Cuaxuxpa","lat":18.46211,"lng":-97.03556},{"id":69600,"name":"Cuayuca de Andrade","lat":18.44416,"lng":-98.19193},{"id":69618,"name":"Cuesta Blanca","lat":18.84536,"lng":-97.46753},{"id":69622,"name":"Cuetzalan","lat":20.01766,"lng":-97.52277},{"id":69623,"name":"Cuetzalan del Progreso","lat":20.03857,"lng":-97.49268},{"id":69624,"name":"Cuexpala","lat":18.6272,"lng":-98.55842},{"id":69652,"name":"Cuyoaco","lat":19.60192,"lng":-97.62024},{"id":69705,"name":"Dolores Hidalgo","lat":18.75697,"lng":-97.86062},{"id":69708,"name":"Domingo Arenas","lat":19.13998,"lng":-98.45678},{"id":69862,"name":"El Capulo (La Quebradora)","lat":18.94944,"lng":-98.26889},{"id":69874,"name":"El Carmen","lat":19.24167,"lng":-97.20111},{"id":69897,"name":"El Chacal","lat":20.22228,"lng":-97.46025},{"id":69953,"name":"El Encanto del Cerril","lat":18.93194,"lng":-98.42556},{"id":69973,"name":"El Fuerte de la Unión","lat":19.43077,"lng":-97.56064},{"id":70041,"name":"El Mirador","lat":19.55694,"lng":-97.77194},{"id":70047,"name":"El Molino","lat":19.81333,"lng":-97.58028},{"id":70080,"name":"El Palmar","lat":19.13972,"lng":-97.05306},{"id":70132,"name":"El Progreso","lat":20.01917,"lng":-97.36472},{"id":70162,"name":"El Rincón Citlaltépetl","lat":19.15556,"lng":-97.89444},{"id":70251,"name":"El Veladero","lat":18.96421,"lng":-97.48289},{"id":70273,"name":"Eloxochitlán","lat":18.50883,"lng":-96.92271},{"id":70275,"name":"Emancipación Quetzalapa","lat":19.17333,"lng":-97.39203},{"id":70295,"name":"Emilio Carranza (Santa Cruz)","lat":19.71278,"lng":-97.65278},{"id":70296,"name":"Emilio Portes Gil","lat":19.30751,"lng":-97.51027},{"id":70327,"name":"Esperanza","lat":18.85853,"lng":-97.37641},{"id":70466,"name":"Francisco I. Madero","lat":19.24985,"lng":-97.22648},{"id":70471,"name":"Francisco Ignacio Madero","lat":18.49306,"lng":-97.46384},{"id":70476,"name":"Francisco Sarabia","lat":18.96417,"lng":-98.31389},{"id":70482,"name":"Francisco Villa","lat":18.84446,"lng":-97.76336},{"id":70483,"name":"Francisco Z. Mena","lat":20.72614,"lng":-97.81882},{"id":70506,"name":"Galaxia la Calera","lat":18.999,"lng":-98.1525},{"id":70531,"name":"General Felipe Ángeles","lat":19.00786,"lng":-97.68282},{"id":70548,"name":"Gilberto Camacho","lat":20.37365,"lng":-97.88546},{"id":70647,"name":"Gómez Poniente","lat":19.7725,"lng":-97.48694},{"id":70556,"name":"González Ortega","lat":19.34268,"lng":-97.27023},{"id":70559,"name":"Grajales","lat":19.22796,"lng":-97.80307},{"id":70576,"name":"Guadalupe","lat":18.06521,"lng":-98.14673},{"id":70579,"name":"Guadalupe Calderón","lat":18.96611,"lng":-97.85833},{"id":70581,"name":"Guadalupe Enríquez","lat":18.89374,"lng":-97.58759},{"id":70586,"name":"Guadalupe Libertad","lat":19.18789,"lng":-97.38744},{"id":70588,"name":"Guadalupe Morelos","lat":19.02556,"lng":-97.80417},{"id":70589,"name":"Guadalupe Santa Ana","lat":18.0914,"lng":-98.12079},{"id":70590,"name":"Guadalupe Sarabia","lat":19.53096,"lng":-97.42752},{"id":70598,"name":"Guadalupe Victoria","lat":19.2911,"lng":-97.3429},{"id":70607,"name":"Guadalupe Zaragoza","lat":19.35833,"lng":-98.5375},{"id":70668,"name":"Hermenegildo Galeana","lat":18.25667,"lng":-98.10222},{"id":70706,"name":"Honey","lat":20.25454,"lng":-98.2309},{"id":70715,"name":"Huachinantla","lat":18.28175,"lng":-98.96796},{"id":70717,"name":"Huahuaxtla","lat":19.91627,"lng":-97.63717},{"id":70722,"name":"Huajoyuca","lat":18.5124,"lng":-97.93737},{"id":70738,"name":"Huaquechula","lat":18.77116,"lng":-98.5446},{"id":70742,"name":"Huatlatlauca","lat":18.69189,"lng":-98.03819},{"id":70744,"name":"Huauchinango","lat":20.17376,"lng":-98.05491},{"id":70747,"name":"Huautla de Jiménez","lat":18.1315,"lng":-96.84088},{"id":70748,"name":"Huaxcaleca","lat":19.23401,"lng":-97.07696},{"id":70758,"name":"Huehuetla","lat":20.10391,"lng":-97.62507},{"id":70759,"name":"Huehuetlan el Chico","lat":18.37347,"lng":-98.69002},{"id":70760,"name":"Huehuetlán el Grande","lat":18.74693,"lng":-98.1577},{"id":70764,"name":"Huejonapan","lat":18.46971,"lng":-97.92149},{"id":70766,"name":"Huejotzingo","lat":19.15892,"lng":-98.40824},{"id":70775,"name":"Hueyapan","lat":19.91856,"lng":-97.41023},{"id":70780,"name":"Hueyotlipan","lat":18.89148,"lng":-97.86575},{"id":70783,"name":"Hueytamalco","lat":19.94029,"lng":-97.28848},{"id":70785,"name":"Hueytlalpan","lat":20.02707,"lng":-97.69694},{"id":70790,"name":"Huilacapixtla","lat":20.21232,"lng":-98.08185},{"id":70807,"name":"Huitzilac","lat":20.60669,"lng":-97.74207},{"id":70808,"name":"Huitzilan","lat":19.9675,"lng":-97.69441},{"id":70811,"name":"Huitziltepec","lat":18.76693,"lng":-97.85963},{"id":70813,"name":"Huitzmaloc","lat":18.45639,"lng":-96.94056},{"id":70816,"name":"Huixcolotla","lat":18.92073,"lng":-97.77166},{"id":70834,"name":"Icxotitla","lat":20.24253,"lng":-98.10069},{"id":70839,"name":"Ignacio Allende (Concepción)","lat":20.01055,"lng":-97.63448},{"id":70843,"name":"Ignacio Manuel Altamirano","lat":19.36722,"lng":-98.58306},{"id":70856,"name":"Ignacio Zaragoza","lat":19.27889,"lng":-97.19944},{"id":70896,"name":"Itzoteno","lat":19.41656,"lng":-97.43776},{"id":70898,"name":"Ixcamilpa de Guerrero","lat":18.03036,"lng":-98.7177},{"id":70901,"name":"Ixcaquixtla","lat":18.47131,"lng":-97.84214},{"id":70921,"name":"Ixtacamaxtitlán","lat":19.62352,"lng":-97.81539},{"id":70925,"name":"Ixtahuiata (La Legua)","lat":19.84389,"lng":-97.33556},{"id":70935,"name":"Ixtepec","lat":20.03936,"lng":-97.64262},{"id":70936,"name":"Ixticpan","lat":19.81419,"lng":-97.34454},{"id":70938,"name":"Ixtlahuaca","lat":19.82309,"lng":-97.33496},{"id":70939,"name":"Ixtlahuaca Barrio","lat":19.83889,"lng":-98.01444},{"id":70947,"name":"Ixtolco de Morelos","lat":19.90553,"lng":-97.81762},{"id":70953,"name":"Izúcar de Matamoros","lat":18.60157,"lng":-98.46152},{"id":70980,"name":"Jalpan","lat":20.44324,"lng":-97.8561},{"id":70991,"name":"Jaltocan","lat":20.61968,"lng":-97.81787},{"id":71034,"name":"Jesús Nazareno","lat":18.87667,"lng":-97.62306},{"id":71043,"name":"Jicolapa","lat":19.96596,"lng":-97.97345},{"id":71047,"name":"Jilotzingo","lat":20.0325,"lng":-97.9025},{"id":71070,"name":"Jolalpan","lat":18.32495,"lng":-98.84489},{"id":71080,"name":"Jonotla","lat":20.03032,"lng":-97.5753},{"id":71082,"name":"Jopala","lat":20.16353,"lng":-97.69285},{"id":71099,"name":"José María Morelos","lat":19.14147,"lng":-97.46809},{"id":71115,"name":"Juan C. Bonilla","lat":19.12101,"lng":-98.34091},{"id":71128,"name":"Juan de la Granja","lat":19.22118,"lng":-97.80884},{"id":71119,"name":"Juan Galindo","lat":20.2198,"lng":-97.99083},{"id":71125,"name":"Juan N. Méndez","lat":18.52411,"lng":-97.74829},{"id":71147,"name":"Juárez Coronaco","lat":19.36056,"lng":-98.525},{"id":71205,"name":"La Cañada","lat":19.49898,"lng":-97.734},{"id":71223,"name":"La Compañia","lat":18.9708,"lng":-97.7228},{"id":71298,"name":"La Galarza","lat":18.66778,"lng":-98.45528},{"id":71301,"name":"La Gloria","lat":19.39561,"lng":-97.28246},{"id":71346,"name":"La Laguna","lat":18.79944,"lng":-97.73667},{"id":71357,"name":"La Libertad","lat":19.75583,"lng":-97.60722},{"id":71380,"name":"La Magdalena","lat":20.25698,"lng":-98.27534},{"id":71384,"name":"La Magdalena Tetela Morelos","lat":19.04922,"lng":-97.94131},{"id":71386,"name":"La Magdalena Yancuitlalpan","lat":18.91083,"lng":-98.58944},{"id":71416,"name":"La Pahua","lat":20.61181,"lng":-97.85358},{"id":71469,"name":"La Purísima","lat":18.82974,"lng":-97.57301},{"id":71476,"name":"La Resurrección","lat":19.10279,"lng":-98.13013},{"id":71493,"name":"La Soledad","lat":18.81,"lng":-97.76417},{"id":71512,"name":"La Trinidad Chautenco","lat":19.09,"lng":-98.26389},{"id":71515,"name":"La Trinidad Tianguismanalco","lat":18.89417,"lng":-98.0325},{"id":71520,"name":"La Unión","lat":20.26181,"lng":-97.87135},{"id":71524,"name":"La Unión Ejido Mexcaltepec","lat":19.60806,"lng":-97.71056},{"id":71541,"name":"Lacapan Camallagne","lat":20.12862,"lng":-97.65343},{"id":71545,"name":"Lafragua","lat":19.30684,"lng":-97.29748},{"id":71589,"name":"Las Colonias de Hidalgo","lat":20.19611,"lng":-97.97667},{"id":71607,"name":"Las Lajas","lat":19.99831,"lng":-98.07332},{"id":71611,"name":"Las Lomas","lat":19.8239,"lng":-97.61227},{"id":71626,"name":"Las Nieves","lat":18.18361,"lng":-98.04611},{"id":71894,"name":"Lázaro Cárdenas","lat":19.14306,"lng":-97.40056},{"id":71658,"name":"Leacaman","lat":20.09861,"lng":-97.64306},{"id":71672,"name":"Libertad Álvaro Obregón","lat":19.13452,"lng":-97.76728},{"id":71674,"name":"Libres","lat":19.46574,"lng":-97.68737},{"id":71682,"name":"Lipuntahuaca","lat":20.09119,"lng":-97.63026},{"id":71709,"name":"Loma Alta","lat":19.79716,"lng":-98.02712},{"id":71717,"name":"Loma Bonita","lat":18.51333,"lng":-96.86778},{"id":71747,"name":"Lomas de Romero","lat":18.91444,"lng":-97.71722},{"id":71754,"name":"Lomas de Santa Cruz","lat":18.92444,"lng":-97.73},{"id":71872,"name":"Los Ángeles Tetela","lat":18.88995,"lng":-98.16712},{"id":71794,"name":"Los Cristales (Talican)","lat":19.87237,"lng":-97.59424},{"id":71800,"name":"Los Encinos","lat":19.17917,"lng":-98.39833},{"id":71803,"name":"Los Garcías","lat":18.80333,"lng":-97.39417},{"id":71851,"name":"Los Reyes de Juárez","lat":18.96457,"lng":-97.82541},{"id":71850,"name":"Los Reyes Tlanechicolpan","lat":19.0325,"lng":-98.3525},{"id":71924,"name":"Magdalena Cuayucatepec","lat":18.54972,"lng":-97.48472},{"id":71953,"name":"Manantiales","lat":20.17316,"lng":-97.11064},{"id":71960,"name":"Manuel Edgardo Ávalos (San Isidro)","lat":19.06778,"lng":-97.39194},{"id":72021,"name":"Matlahuacales Aquiles Serdán","lat":19.76196,"lng":-98.05375},{"id":72022,"name":"Matzaco","lat":18.55953,"lng":-98.4882},{"id":72259,"name":"Máximo Serdán","lat":19.26298,"lng":-97.82825},{"id":72040,"name":"Mazapiltepec","lat":19.11912,"lng":-97.7028},{"id":72042,"name":"Mazatepec","lat":20.01695,"lng":-97.41891},{"id":72053,"name":"Mecapalapa","lat":20.52684,"lng":-97.85643},{"id":72093,"name":"Metlaltoyuca","lat":20.73556,"lng":-97.85194},{"id":72098,"name":"Mexcalcuautla","lat":19.86657,"lng":-97.39154},{"id":72115,"name":"Miahuatlán","lat":18.54983,"lng":-97.43953},{"id":72118,"name":"Michac","lat":19.85241,"lng":-98.05127},{"id":72129,"name":"Miguel Hidalgo","lat":19.75764,"lng":-97.28209},{"id":72134,"name":"Miguel Negrete","lat":18.95222,"lng":-97.82917},{"id":72156,"name":"Miravalles","lat":19.3413,"lng":-97.53854},{"id":72168,"name":"Mixtla","lat":18.91153,"lng":-97.89786},{"id":72232,"name":"Morelos","lat":19.75472,"lng":-97.5775},{"id":72234,"name":"Morelos Cañada","lat":18.73549,"lng":-97.42068},{"id":72249,"name":"Moyotzingo","lat":19.24811,"lng":-98.40486},{"id":72274,"name":"Nanacatlán","lat":20.00366,"lng":-97.67584},{"id":72291,"name":"Naupan","lat":20.23131,"lng":-98.10881},{"id":72293,"name":"Nauzontla","lat":19.95952,"lng":-97.60314},{"id":72302,"name":"Nealtican","lat":19.0499,"lng":-98.4272},{"id":72303,"name":"Necaxa","lat":20.21271,"lng":-98.01188},{"id":72304,"name":"Necoxcalco","lat":18.46092,"lng":-97.29827},{"id":72305,"name":"Necoxtla","lat":18.39811,"lng":-97.35999},{"id":72310,"name":"Nenehuaca","lat":19.14389,"lng":-97.04222},{"id":72315,"name":"Nexpan","lat":19.88389,"lng":-97.42333},{"id":72316,"name":"Nexticapan","lat":19.82722,"lng":-97.55417},{"id":72325,"name":"Nicolás Bravo","lat":18.61983,"lng":-97.3323},{"id":72349,"name":"Nopalucan","lat":19.20114,"lng":-97.82391},{"id":72397,"name":"Nuevo México","lat":19.45492,"lng":-97.61757},{"id":72400,"name":"Nuevo Necaxa","lat":20.21049,"lng":-98.00657},{"id":72453,"name":"Ocotepec","lat":19.55519,"lng":-97.65078},{"id":72457,"name":"Ocotlamanic","lat":18.32389,"lng":-97.09667},{"id":72459,"name":"Ocotlán de Betancourt","lat":19.79752,"lng":-97.53664},{"id":72461,"name":"Ocotlán de Venustiano Carranza","lat":18.79111,"lng":-97.66917},{"id":72502,"name":"Olintla","lat":20.10196,"lng":-97.68427},{"id":72505,"name":"Ometepec","lat":18.85439,"lng":-97.8535},{"id":72519,"name":"Oriental","lat":19.37614,"lng":-97.62051},{"id":72556,"name":"Oyameles de Hidalgo","lat":19.69736,"lng":-97.53376},{"id":72557,"name":"Ozelonacaxtla","lat":20.04657,"lng":-97.6144},{"id":72576,"name":"Pahuatlán de Valle","lat":20.278,"lng":-98.14997},{"id":72591,"name":"Palmar de Bravo","lat":18.83573,"lng":-97.54704},{"id":72593,"name":"Palmarito Tochapan","lat":18.90135,"lng":-97.63833},{"id":72627,"name":"Pantepec","lat":20.55146,"lng":-97.87453},{"id":72632,"name":"Papaloctipan","lat":20.42429,"lng":-97.95535},{"id":72638,"name":"Papatlazolco","lat":20.1775,"lng":-97.99167},{"id":72679,"name":"Paso Carretas","lat":18.91993,"lng":-97.25153},{"id":72682,"name":"Paso Nacional","lat":19.14385,"lng":-97.35769},{"id":72707,"name":"Patla","lat":20.24821,"lng":-97.85295},{"id":72735,"name":"Pericotepec","lat":18.6067,"lng":-97.63098},{"id":72745,"name":"Petlalcingo","lat":18.08463,"lng":-97.9175},{"id":72747,"name":"Pezmatlán","lat":19.84664,"lng":-97.48529},{"id":72756,"name":"Piaxtla","lat":18.08403,"lng":-98.21988},{"id":72834,"name":"Pochálcatl","lat":20.00295,"lng":-97.85408},{"id":72903,"name":"Primero de Mayo","lat":19.08167,"lng":-98.09778},{"id":72912,"name":"Progreso","lat":19.48833,"lng":-97.67722},{"id":72919,"name":"Progreso de Juárez","lat":18.96167,"lng":-97.75556},{"id":72925,"name":"Puebla","lat":19.03793,"lng":-98.20346},{"id":73003,"name":"Putlunichuchut (Vista Hermosa)","lat":20.15593,"lng":-97.61557},{"id":73015,"name":"Quamila","lat":20.16632,"lng":-97.91855},{"id":73017,"name":"Quecholac","lat":18.95471,"lng":-97.65858},{"id":73018,"name":"Quechulac","lat":19.37273,"lng":-97.34783},{"id":73044,"name":"Rafael J. García","lat":19.25413,"lng":-97.18315},{"id":73059,"name":"Rancho Chico","lat":18.74667,"lng":-97.665},{"id":73066,"name":"Rancho Nuevo","lat":18.58139,"lng":-97.22472},{"id":73107,"name":"Ricardo Flores Magón","lat":20.19224,"lng":-97.61961},{"id":73136,"name":"Rincón de los Reyes","lat":19.19444,"lng":-97.16056},{"id":73223,"name":"Saltillo","lat":19.29644,"lng":-97.29661},{"id":73236,"name":"San Acateno","lat":19.87527,"lng":-97.36686},{"id":73242,"name":"San Agustín Atzompa","lat":19.20174,"lng":-98.51384},{"id":73249,"name":"San Agustín Huixaxtla","lat":18.91778,"lng":-98.39694},{"id":73254,"name":"San Agustín Tlaxco","lat":19.0563,"lng":-97.99158},{"id":73267,"name":"San Andrés","lat":19.79,"lng":-97.33889},{"id":73270,"name":"San Andrés Azumiatla","lat":18.90417,"lng":-98.25278},{"id":73271,"name":"San Andrés Cacaloapan","lat":18.58364,"lng":-97.58711},{"id":73272,"name":"San Andrés Calpan","lat":19.10356,"lng":-98.46188},{"id":73274,"name":"San Andrés Cholula","lat":19.05144,"lng":-98.29526},{"id":73283,"name":"San Andrés Hueyacatitla","lat":19.256,"lng":-98.53628},{"id":73291,"name":"San Andrés Payuca","lat":19.52563,"lng":-97.61782},{"id":73301,"name":"San Andrés Yahuitlalpan","lat":19.67333,"lng":-97.72694},{"id":73318,"name":"San Antonio","lat":19.75611,"lng":-97.35694},{"id":73320,"name":"San Antonio Alpanocan","lat":18.87722,"lng":-98.71083},{"id":73322,"name":"San Antonio Atotonilco","lat":19.37466,"lng":-98.46584},{"id":73328,"name":"San Antonio Cañada","lat":18.51604,"lng":-97.29412},{"id":73337,"name":"San Antonio Juárez","lat":18.79379,"lng":-97.98964},{"id":73390,"name":"San Antonio la Portilla","lat":18.79611,"lng":-97.76278},{"id":73338,"name":"San Antonio Matlahuacales","lat":19.75528,"lng":-98.08194},{"id":73339,"name":"San Antonio Mihuacán","lat":19.15333,"lng":-98.30472},{"id":73342,"name":"San Antonio Ocopetlatlán","lat":20.24703,"lng":-97.94621},{"id":73344,"name":"San Antonio Portezuelo","lat":18.99889,"lng":-97.71361},{"id":73348,"name":"San Antonio Soledad","lat":18.78414,"lng":-97.40738},{"id":73351,"name":"San Antonio Tecolco","lat":18.85222,"lng":-97.77806},{"id":73356,"name":"San Antonio Tlacamilco","lat":19.06271,"lng":-97.93024},{"id":73358,"name":"San Antonio Tlatenco","lat":19.17339,"lng":-98.49996},{"id":73360,"name":"San Antonio Virreyes","lat":19.40989,"lng":-97.63697},{"id":73393,"name":"San Baltazar Atlimeyaya","lat":18.98694,"lng":-98.48111},{"id":73417,"name":"San Bartolomé","lat":18.91765,"lng":-97.61912},{"id":73424,"name":"San Bartolomé Hueyapan","lat":19.02528,"lng":-97.93056},{"id":73432,"name":"San Bernabé Temoxtitla","lat":18.99722,"lng":-98.33083},{"id":73435,"name":"San Bernardino Lagunas","lat":18.60374,"lng":-97.26566},{"id":73436,"name":"San Bernardino Tlaxcalancingo","lat":19.02867,"lng":-98.27698},{"id":73449,"name":"San Buenaventura","lat":18.90204,"lng":-97.92616},{"id":73454,"name":"San Buenaventura Tecaltzingo","lat":19.24778,"lng":-98.46056},{"id":73457,"name":"San Carlos","lat":19.43882,"lng":-97.69035},{"id":73478,"name":"San Cristóbal Hidalgo","lat":19.02194,"lng":-97.81028},{"id":73484,"name":"San Cristóbal los Nava","lat":18.99528,"lng":-97.83194},{"id":73482,"name":"San Cristóbal Xochimilpa","lat":20.06639,"lng":-97.9075},{"id":73490,"name":"San Diego","lat":19.85667,"lng":-97.36111},{"id":73498,"name":"San Diego el Organal","lat":18.73083,"lng":-98.51667},{"id":73500,"name":"San Diego la Mesa Tochimiltzingo","lat":18.79205,"lng":-98.31631},{"id":73516,"name":"San Felipe Hidalgo","lat":19.46792,"lng":-98.55898},{"id":73519,"name":"San Felipe Otlaltepec","lat":18.40152,"lng":-97.90786},{"id":73622,"name":"San Félix Hidalgo","lat":18.89888,"lng":-98.39908},{"id":73623,"name":"San Félix Rijo","lat":18.62028,"lng":-98.55028},{"id":73544,"name":"San Francisco","lat":19.77722,"lng":-97.32806},{"id":73559,"name":"San Francisco Cuapa","lat":19.06835,"lng":-98.36562},{"id":73560,"name":"San Francisco Cuautlancingo","lat":18.9969,"lng":-97.41491},{"id":73566,"name":"San Francisco Independencia (Santa María Aserradero)","lat":19.06889,"lng":-97.43028},{"id":73582,"name":"San Francisco Ocotlán","lat":19.13411,"lng":-98.28345},{"id":73598,"name":"San Francisco Tepeyecac","lat":19.24861,"lng":-98.43833},{"id":73603,"name":"San Francisco Tláloc","lat":19.36972,"lng":-98.47722},{"id":73607,"name":"San Francisco Zacapexpan","lat":19.88028,"lng":-97.59611},{"id":73627,"name":"San Gabriel Chilac","lat":18.32596,"lng":-97.34697},{"id":73630,"name":"San Gabriel Tetzoyocán","lat":18.75727,"lng":-97.70324},{"id":73642,"name":"San Gregorio Atzompa","lat":19.02349,"lng":-98.34822},{"id":73643,"name":"San Gregorio Aztotoacan","lat":19.26444,"lng":-98.49194},{"id":73645,"name":"San Hipólito","lat":18.94069,"lng":-97.87322},{"id":73670,"name":"San Isidro","lat":19.79639,"lng":-97.38361},{"id":73679,"name":"San Isidro Huilotepec","lat":18.88083,"lng":-98.38306},{"id":73682,"name":"San Isidro Monterrosas","lat":18.85667,"lng":-97.57528},{"id":73684,"name":"San Isidro Vista Hermosa","lat":18.50556,"lng":-97.40028},{"id":73702,"name":"San Jerónimo Almoloya","lat":18.94111,"lng":-98.01056},{"id":73704,"name":"San Jerónimo Axochitlán","lat":18.27833,"lng":-97.26278},{"id":73707,"name":"San Jerónimo Coaltepec","lat":20.00389,"lng":-97.86639},{"id":73709,"name":"San Jerónimo Coyula","lat":18.89438,"lng":-98.51706},{"id":73712,"name":"San Jerónimo Ocotitla","lat":19.03127,"lng":-97.96359},{"id":73721,"name":"San Jerónimo Xayacatlán","lat":18.22034,"lng":-97.91288},{"id":73739,"name":"San José","lat":19.80306,"lng":-97.33389},{"id":73740,"name":"San José Acateno","lat":20.13067,"lng":-97.20997},{"id":73741,"name":"San José Alchichica","lat":19.43433,"lng":-97.38992},{"id":73749,"name":"San José Buena Vista","lat":18.40528,"lng":-97.26833},{"id":73750,"name":"San José Buenavista","lat":18.65951,"lng":-97.57911},{"id":73753,"name":"San José Carpinteros","lat":18.99472,"lng":-97.91167},{"id":73757,"name":"San José Chiapa","lat":19.24105,"lng":-97.76642},{"id":73763,"name":"San José Cuyachapa","lat":18.85466,"lng":-97.31398},{"id":73815,"name":"San José de Gracia","lat":18.64342,"lng":-97.84729},{"id":73770,"name":"San José Ixtapa","lat":18.71599,"lng":-97.4594},{"id":73773,"name":"San José Manzanitos","lat":19.26111,"lng":-97.21472},{"id":73775,"name":"San José Monte Chiquito","lat":18.49611,"lng":-97.43806},{"id":73778,"name":"San José Ozumba","lat":19.23306,"lng":-97.72833},{"id":73793,"name":"San José Tilapa","lat":18.16361,"lng":-97.10137},{"id":73795,"name":"San José Tlacuitlapan","lat":18.70763,"lng":-97.62538},{"id":73864,"name":"San Juan Amecac","lat":18.83469,"lng":-98.65909},{"id":73865,"name":"San Juan Atenco","lat":19.0867,"lng":-97.54074},{"id":73868,"name":"San Juan Atzingo","lat":18.29862,"lng":-97.38614},{"id":73869,"name":"San Juan Atzompa","lat":18.73899,"lng":-98.00738},{"id":73882,"name":"San Juan Colón","lat":18.57722,"lng":-98.55833},{"id":73886,"name":"San Juan Cuauhtémoc","lat":19.38845,"lng":-98.59764},{"id":73887,"name":"San Juan Cuautla","lat":18.24416,"lng":-96.95673},{"id":73891,"name":"San Juan Epatlán","lat":18.64272,"lng":-98.3725},{"id":73897,"name":"San Juan Huiluco","lat":18.78904,"lng":-98.44941},{"id":73899,"name":"San Juan Ixcaquixtla","lat":18.46067,"lng":-97.83103},{"id":73915,"name":"San Juan Pancoac","lat":19.14917,"lng":-98.44194},{"id":73921,"name":"San Juan Raboso","lat":18.57153,"lng":-98.43962},{"id":73927,"name":"San Juan Tahitic","lat":19.93605,"lng":-97.55082},{"id":73930,"name":"San Juan Tejaluca","lat":18.89917,"lng":-98.40472},{"id":73931,"name":"San Juan Tejupa","lat":18.85519,"lng":-98.54124},{"id":73935,"name":"San Juan Tepulco","lat":19.11709,"lng":-97.98847},{"id":73936,"name":"San Juan Tetla","lat":19.2155,"lng":-98.50481},{"id":73938,"name":"San Juan Tezongo","lat":19.84472,"lng":-97.36389},{"id":73946,"name":"San Juan Tuxco","lat":19.25942,"lng":-98.45166},{"id":73949,"name":"San Juan Xiutetelco","lat":19.79563,"lng":-97.32578},{"id":73993,"name":"San Lorenzo","lat":20.35054,"lng":-97.9363},{"id":74000,"name":"San Lorenzo Chiautzingo","lat":19.20432,"lng":-98.46747},{"id":74005,"name":"San Lorenzo Joya de Rodríguez","lat":19.05444,"lng":-97.85333},{"id":74016,"name":"San Lorenzo Tlaxipehuala","lat":20.13028,"lng":-97.97361},{"id":74026,"name":"San Lucas Atzala","lat":19.10378,"lng":-98.48201},{"id":74040,"name":"San Lucas el Grande","lat":19.30583,"lng":-98.47833},{"id":74041,"name":"San Lucas el Viejo","lat":18.67724,"lng":-97.71824},{"id":74044,"name":"San Luis Ajajalpan","lat":18.93624,"lng":-97.93386},{"id":74050,"name":"San Luis Coyotzingo","lat":19.19818,"lng":-98.43716},{"id":74056,"name":"San Luis Tehuiloyocan","lat":19.03924,"lng":-98.33749},{"id":74070,"name":"San Marcos Eloxochitlán","lat":20.02528,"lng":-97.87194},{"id":74075,"name":"San Marcos Tlacoyalco","lat":18.67388,"lng":-97.60354},{"id":74087,"name":"San Martín","lat":19.7825,"lng":-97.34028},{"id":74091,"name":"San Martín Caltenco","lat":18.88487,"lng":-97.81887},{"id":74096,"name":"San Martín Esperilla","lat":18.73221,"lng":-97.54741},{"id":74100,"name":"San Martín Mazateopan","lat":18.45278,"lng":-96.81611},{"id":74102,"name":"San Martín Ojo de Agua","lat":19.01245,"lng":-97.39201},{"id":74106,"name":"San Martín Texmelucan","lat":19.26929,"lng":-98.42831},{"id":74083,"name":"San Martin Texmelucan de Labastida","lat":19.28431,"lng":-98.43885},{"id":74108,"name":"San Martín Tlamapa","lat":18.9775,"lng":-98.39694},{"id":74109,"name":"San Martín Tlapala","lat":18.96667,"lng":-98.45889},{"id":74120,"name":"San Mateo Ayecac","lat":19.27898,"lng":-98.39466},{"id":74123,"name":"San Mateo Capultitlán","lat":19.195,"lng":-98.41528},{"id":74132,"name":"San Mateo Ozolco","lat":19.09994,"lng":-98.51566},{"id":74133,"name":"San Mateo Parra","lat":18.99139,"lng":-97.86167},{"id":74136,"name":"San Mateo Soltepec","lat":19.09868,"lng":-97.76054},{"id":74145,"name":"San Matías Atzala","lat":19.25127,"lng":-98.48167},{"id":74144,"name":"San Matias Tlalancaleca","lat":19.32536,"lng":-98.49863},{"id":74156,"name":"San Miguel Aguacomulican","lat":18.82222,"lng":-98.55056},{"id":74163,"name":"San Miguel Analco","lat":19.18087,"lng":-98.33933},{"id":74166,"name":"San Miguel Atlapulco","lat":18.79243,"lng":-98.19482},{"id":74169,"name":"San Miguel Canoa","lat":19.15194,"lng":-98.10306},{"id":74235,"name":"San Miguel del Milagro","lat":19.24123,"lng":-98.33352},{"id":74236,"name":"San Miguel del Progreso","lat":19.98972,"lng":-97.66667},{"id":74179,"name":"San Miguel Espejo","lat":19.095,"lng":-98.06667},{"id":74182,"name":"San Miguel Ixitlán","lat":18.00082,"lng":-97.77483},{"id":74190,"name":"San Miguel Ocotenco","lat":19.0666,"lng":-97.45245},{"id":74194,"name":"San Miguel Papaxtla","lat":19.06278,"lng":-98.39},{"id":74202,"name":"San Miguel Tecuitlapa","lat":19.12118,"lng":-97.54714},{"id":74204,"name":"San Miguel Tenango","lat":19.90877,"lng":-97.93474},{"id":74205,"name":"San Miguel Tenextatiloyan","lat":19.70973,"lng":-97.59769},{"id":74208,"name":"San Miguel Tianguistenco","lat":19.29389,"lng":-98.53083},{"id":74209,"name":"San Miguel Tianguizolco","lat":19.15861,"lng":-98.44083},{"id":74223,"name":"San Miguel Xoxtla","lat":19.16763,"lng":-98.30758},{"id":74226,"name":"San Miguel Zoapan","lat":19.08433,"lng":-97.35359},{"id":74227,"name":"San Miguel Zozutla","lat":18.7543,"lng":-97.65478},{"id":74245,"name":"San Nicolas Buenos Aires","lat":19.16488,"lng":-97.55131},{"id":74274,"name":"San Nicolás de los Ranchos","lat":19.07139,"lng":-98.48601},{"id":74267,"name":"San Nicolás Tolentino","lat":18.55078,"lng":-98.50371},{"id":74268,"name":"San Nicolás Zecalacoayan","lat":19.19917,"lng":-98.48833},{"id":74269,"name":"San Nicolás Zoyapetlayoca","lat":18.92417,"lng":-97.86528},{"id":74278,"name":"San Pablito","lat":20.30071,"lng":-98.16201},{"id":74280,"name":"San Pablo Ahuatempa","lat":18.98139,"lng":-98.35889},{"id":74281,"name":"San Pablo Anicano","lat":18.14237,"lng":-98.12565},{"id":74305,"name":"San Pablo de las Tunas","lat":18.99556,"lng":-97.70972},{"id":74317,"name":"San Pedro Atmatla","lat":19.91083,"lng":-97.9675},{"id":74320,"name":"San Pedro Benito Juárez","lat":18.94722,"lng":-98.55139},{"id":74327,"name":"San Pedro Cholula","lat":19.07395,"lng":-98.36011},{"id":74331,"name":"San Pedro Cuayuca","lat":18.48214,"lng":-98.18316},{"id":74343,"name":"San Pedro Itztla","lat":20.27466,"lng":-97.93449},{"id":74416,"name":"San Pedro la Joya","lat":19.06528,"lng":-97.83806},{"id":74353,"name":"San Pedro Matamoros","lat":19.36972,"lng":-98.55472},{"id":74366,"name":"San Pedro Petlacotla","lat":20.41186,"lng":-97.91443},{"id":74377,"name":"San Pedro Temamatla","lat":18.92553,"lng":-97.51198},{"id":74381,"name":"San Pedro Tetitlán","lat":18.25972,"lng":-97.32306},{"id":74388,"name":"San Pedro Tlaolantongo","lat":20.2312,"lng":-97.80213},{"id":74399,"name":"San Pedro Yancuitlalpan","lat":19.0775,"lng":-98.48333},{"id":74400,"name":"San Pedro Yeloixtlahuaca","lat":18.07881,"lng":-98.06492},{"id":74402,"name":"San Pedro Zacachimalpa","lat":18.94278,"lng":-98.15611},{"id":74431,"name":"San Rafael Ixtapalucan","lat":19.29193,"lng":-98.55829},{"id":74436,"name":"San Rafael Tlanalapan","lat":19.29167,"lng":-98.46806},{"id":74445,"name":"San Salvador (Naranjillo)","lat":19.83139,"lng":-97.315},{"id":74448,"name":"San Salvador El Seco","lat":19.13325,"lng":-97.64167},{"id":74451,"name":"San Salvador el Verde","lat":19.27002,"lng":-98.51648},{"id":74453,"name":"San Sebastián","lat":19.85502,"lng":-97.37061},{"id":74459,"name":"San Sebastián Alcomunga","lat":18.43705,"lng":-97.02683},{"id":74476,"name":"San Sebastián de Aparicio","lat":19.10333,"lng":-98.16083},{"id":74470,"name":"San Sebastián Teteles","lat":19.03241,"lng":-97.79021},{"id":74471,"name":"San Sebastián Tlacotepec","lat":18.36518,"lng":-96.83309},{"id":74473,"name":"San Sebastián Villanueva","lat":19.06085,"lng":-97.71935},{"id":74483,"name":"San Simón","lat":18.96733,"lng":-97.71197},{"id":74485,"name":"San Simón Atzitzintla","lat":19.26336,"lng":-98.47584},{"id":74496,"name":"San Vicente Boquerón","lat":18.27984,"lng":-98.0554},{"id":74499,"name":"San Vicente Coyotepec","lat":18.40439,"lng":-97.82924},{"id":74516,"name":"Sanctorum","lat":19.09917,"lng":-98.25417},{"id":74525,"name":"Santa Ana Acozautla","lat":18.95556,"lng":-98.38306},{"id":74532,"name":"Santa Ana Coapan","lat":18.83109,"lng":-97.89167},{"id":74533,"name":"Santa Ana Coatepec","lat":18.83667,"lng":-98.43472},{"id":74541,"name":"Santa Ana Necoxtla","lat":18.61312,"lng":-98.38307},{"id":74549,"name":"Santa Ana Xalmimilulco","lat":19.21287,"lng":-98.38207},{"id":74590,"name":"Santa Catarina Tlaltempan","lat":18.61583,"lng":-98.08083},{"id":74591,"name":"Santa Catarina Villanueva","lat":18.99917,"lng":-97.61472},{"id":74596,"name":"Santa Cecilia Tepetitlán","lat":19.19254,"lng":-97.43395},{"id":74597,"name":"Santa Clara","lat":18.97616,"lng":-98.3014},{"id":74601,"name":"Santa Clara Huitziltepec","lat":18.7689,"lng":-97.88117},{"id":74613,"name":"Santa Cruz Acapa","lat":18.40556,"lng":-97.32611},{"id":74615,"name":"Santa Cruz Ajajalpan","lat":18.95169,"lng":-97.94998},{"id":74622,"name":"Santa Cruz Cuautomatitla","lat":18.88917,"lng":-98.65917},{"id":74651,"name":"Santa Cruz el Porvenir","lat":19.33178,"lng":-98.34801},{"id":74625,"name":"Santa Cruz Huitziltepec","lat":18.73318,"lng":-97.87599},{"id":74632,"name":"Santa Cruz Otlatla","lat":19.37222,"lng":-98.6225},{"id":74642,"name":"Santa Cruz Texmalaquilla","lat":18.94306,"lng":-97.2875},{"id":74643,"name":"Santa Cruz Xaltetela","lat":19.87417,"lng":-97.58083},{"id":74667,"name":"Santa Inés Tecuexcomac","lat":19.29385,"lng":-98.34717},{"id":74668,"name":"Santa Inés Varela la Luz","lat":19.15473,"lng":-97.38867},{"id":74677,"name":"Santa Isabel Cholula","lat":18.99667,"lng":-98.37944},{"id":74687,"name":"Santa Lucía Cosamaloapan","lat":18.88361,"lng":-98.35194},{"id":74717,"name":"Santa María Atexcac","lat":19.13602,"lng":-98.49684},{"id":74695,"name":"Santa Maria Coatepec","lat":19.10924,"lng":-97.59253},{"id":74812,"name":"Santa María del Monte","lat":18.54117,"lng":-97.1999},{"id":74736,"name":"Santa María Guadalupe Tecola","lat":18.90639,"lng":-98.19597},{"id":74747,"name":"Santa María Ixtiyucán","lat":19.18688,"lng":-97.81094},{"id":74820,"name":"Santa María la Alta","lat":18.59982,"lng":-97.65809},{"id":74758,"name":"Santa María Malacatepec","lat":18.94147,"lng":-98.30218},{"id":74765,"name":"Santa María Nenetzintla","lat":19.05413,"lng":-97.96664},{"id":74766,"name":"Santa María Nepopualco","lat":19.15085,"lng":-98.49105},{"id":74777,"name":"Santa María Techachalco","lat":18.95369,"lng":-97.47041},{"id":74784,"name":"Santa María Texmelucan","lat":19.29417,"lng":-98.53778},{"id":74794,"name":"Santa María Xonacatepec","lat":19.08944,"lng":-98.10361},{"id":74800,"name":"Santa María Zacatepec","lat":19.12333,"lng":-98.36528},{"id":74701,"name":"Santa Martha Hidalgo","lat":18.985,"lng":-98.32444},{"id":74831,"name":"Santa Rita","lat":20.3641,"lng":-97.81689},{"id":74833,"name":"Santa Rita Tlahuapan","lat":19.33211,"lng":-98.57688},{"id":74836,"name":"Santa Rosa","lat":18.87704,"lng":-97.78122},{"id":74870,"name":"Santiago","lat":19.81194,"lng":-97.32361},{"id":74871,"name":"Santiago Acatlán","lat":18.99334,"lng":-97.93375},{"id":74873,"name":"Santiago Acozac","lat":18.95694,"lng":-97.81167},{"id":74875,"name":"Santiago Alseseca","lat":18.84511,"lng":-97.70716},{"id":74880,"name":"Santiago Atzitzihuacán","lat":18.82472,"lng":-98.58167},{"id":74894,"name":"Santiago Coltzingo","lat":19.38318,"lng":-98.53483},{"id":74926,"name":"Santiago Momoxpan","lat":19.07361,"lng":-98.26694},{"id":74943,"name":"Santiago Tenango","lat":19.00335,"lng":-97.6443},{"id":74973,"name":"Santiago Yancuictlalpan","lat":20.06092,"lng":-97.47223},{"id":74998,"name":"Santo Domingo Atoyatempan","lat":18.90444,"lng":-98.37306},{"id":75001,"name":"Santo Domingo Huehuetlán","lat":18.7394,"lng":-98.16438},{"id":75021,"name":"Santo Nombre","lat":18.67389,"lng":-97.67611},{"id":75026,"name":"Santo Tomás Chautla","lat":18.96573,"lng":-98.15288},{"id":75052,"name":"Sección 23","lat":19.78778,"lng":-97.37917},{"id":75113,"name":"Soledad Morelos","lat":18.82808,"lng":-98.48952},{"id":75120,"name":"Soltepec","lat":19.12111,"lng":-97.70861},{"id":75124,"name":"Sosa","lat":19.80111,"lng":-97.39611},{"id":75159,"name":"Tacopan","lat":19.8375,"lng":-97.43111},{"id":75200,"name":"Tanamacoyan","lat":19.89056,"lng":-97.42972},{"id":75212,"name":"Tanhuixco","lat":19.82056,"lng":-97.46722},{"id":75241,"name":"Tatauzoquico","lat":19.82833,"lng":-97.52694},{"id":75242,"name":"Tatoxcac","lat":19.86944,"lng":-97.57306},{"id":75254,"name":"Teacalco de Dorantes (San José Teacalco)","lat":18.80444,"lng":-98.50722},{"id":75260,"name":"Tecali","lat":18.9006,"lng":-97.97064},{"id":75263,"name":"Tecamachalco","lat":18.88352,"lng":-97.73344},{"id":75277,"name":"Tecoltepec","lat":18.32515,"lng":-97.07868},{"id":75281,"name":"Tecomatlán","lat":18.06956,"lng":-98.3069},{"id":75287,"name":"Tecpantzacoalco","lat":18.47694,"lng":-97.03944},{"id":75291,"name":"Tecuanipa","lat":18.88117,"lng":-98.61895},{"id":75292,"name":"Tecuanipan","lat":19.01316,"lng":-98.39843},{"id":75296,"name":"Tehuacán","lat":18.46422,"lng":-97.39735},{"id":75300,"name":"Tehuitzingo","lat":18.36169,"lng":-98.30763},{"id":75304,"name":"Tejaluca","lat":18.63677,"lng":-98.25046},{"id":75321,"name":"Teloxtoc","lat":18.37919,"lng":-97.58021},{"id":75322,"name":"Telpatlán","lat":18.48417,"lng":-97.15222},{"id":75325,"name":"Temalacayuca","lat":18.60439,"lng":-97.55735},{"id":75335,"name":"Temextla","lat":19.6091,"lng":-97.66714},{"id":75347,"name":"Tenampulco","lat":20.18593,"lng":-97.40264},{"id":75356,"name":"Tenango de las Flores","lat":20.20583,"lng":-97.98806},{"id":75379,"name":"Teontepec","lat":18.49217,"lng":-97.52962},{"id":75380,"name":"Teopantlán","lat":18.71219,"lng":-98.26341},{"id":75386,"name":"Teotlalco","lat":18.46645,"lng":-98.81346},{"id":75387,"name":"Teotlaltzingo","lat":19.23088,"lng":-98.50077},{"id":75395,"name":"Tepanco","lat":18.55686,"lng":-97.5613},{"id":75396,"name":"Tepango","lat":20.00314,"lng":-97.79651},{"id":75397,"name":"Tepango de Rodríguez","lat":20.00161,"lng":-97.78366},{"id":75398,"name":"Tepapayeca","lat":18.67036,"lng":-98.52944},{"id":75401,"name":"Tepatlaxco de Hidalgo","lat":19.08067,"lng":-97.97338},{"id":75402,"name":"Tepazolco","lat":18.69967,"lng":-97.69637},{"id":75403,"name":"Tepeaca","lat":18.96688,"lng":-97.8998},{"id":75413,"name":"Tepeojuma","lat":18.72468,"lng":-98.44633},{"id":75416,"name":"Tepeteno de Iturbide","lat":19.79583,"lng":-97.49722},{"id":75422,"name":"Tepetitán Reyeshogpan de Hidalgo","lat":20.08361,"lng":-97.49361},{"id":75424,"name":"Tepetlacolco","lat":18.64104,"lng":-97.69284},{"id":75433,"name":"Tepetzingo","lat":18.42185,"lng":-97.33785},{"id":75436,"name":"Tepetzintla","lat":19.95318,"lng":-97.84725},{"id":75437,"name":"Tepetzitzintla","lat":18.47159,"lng":-97.11931},{"id":75438,"name":"Tepexco","lat":18.6415,"lng":-98.69064},{"id":75439,"name":"Tepexi de Rodríguez","lat":18.58108,"lng":-97.92606},{"id":75442,"name":"Tepeyahualco","lat":19.45781,"lng":-97.4624},{"id":75443,"name":"Tepeyahualco de Cuauhtémoc","lat":18.81098,"lng":-97.86749},{"id":75445,"name":"Tepeyehualco de Hidalgo","lat":19.48867,"lng":-97.49254},{"id":75478,"name":"Tetela de Ocampo","lat":19.8177,"lng":-97.80691},{"id":75480,"name":"Tetelcingo","lat":18.23917,"lng":-98.02667},{"id":75482,"name":"Teteles de Avila Castillo","lat":19.85748,"lng":-97.45703},{"id":75503,"name":"Texcala","lat":18.39716,"lng":-97.44519},{"id":75504,"name":"Texcalapa de Juárez","lat":18.0649,"lng":-97.98876},{"id":75521,"name":"Texocoyohuac","lat":19.77778,"lng":-97.59028},{"id":75524,"name":"Tezhuatepec","lat":19.81167,"lng":-97.4625},{"id":75525,"name":"Teziutlan","lat":19.8173,"lng":-97.35992},{"id":75528,"name":"Tezonteopan de Bonilla","lat":18.74803,"lng":-98.49134},{"id":75535,"name":"Tianguismanalco","lat":18.97624,"lng":-98.44861},{"id":75553,"name":"Tierra Negra","lat":20.24333,"lng":-97.95667},{"id":75566,"name":"Tilapa","lat":18.60495,"lng":-98.54575},{"id":75597,"name":"Tlacamilco","lat":19.0759,"lng":-97.9164},{"id":75602,"name":"Tlachichuca","lat":19.11485,"lng":-97.41915},{"id":75615,"name":"Tlacotepec","lat":18.68193,"lng":-97.65602},{"id":75618,"name":"Tlacotepec (San Mateo)","lat":20.06028,"lng":-97.84917},{"id":75619,"name":"Tlacotepec de Benito Juárez","lat":18.66151,"lng":-97.63459},{"id":75620,"name":"Tlacotepec de José Manzo","lat":19.27194,"lng":-98.48472},{"id":75625,"name":"Tlacuilotepec","lat":20.38033,"lng":-97.98624},{"id":75629,"name":"Tlahuapan","lat":19.36494,"lng":-98.57345},{"id":75634,"name":"Tlaixpan","lat":18.91217,"lng":-97.73818},{"id":75653,"name":"Tlaltenango","lat":19.17165,"lng":-98.34072},{"id":75656,"name":"Tlaltepango","lat":20.14531,"lng":-97.87723},{"id":75662,"name":"Tlamanca","lat":19.67457,"lng":-97.6964},{"id":75663,"name":"Tlamanca de Hernández","lat":19.95597,"lng":-97.81489},{"id":75665,"name":"Tlamaya Grande","lat":20.14689,"lng":-97.80313},{"id":75669,"name":"Tlanalapan","lat":19.25084,"lng":-97.27604},{"id":75671,"name":"Tlancualpican","lat":18.43333,"lng":-98.7},{"id":75672,"name":"Tlanepantla","lat":18.8631,"lng":-97.88701},{"id":75674,"name":"Tlaola","lat":20.13861,"lng":-97.92306},{"id":75676,"name":"Tlapacoya","lat":20.13512,"lng":-97.83347},{"id":75680,"name":"Tlapanalá","lat":18.69585,"lng":-98.53561},{"id":75684,"name":"Tlatempa","lat":19.94484,"lng":-97.93526},{"id":75688,"name":"Tlatlauquitepec","lat":19.84765,"lng":-97.49718},{"id":75694,"name":"Tlaxcalantongo","lat":20.31397,"lng":-97.87199},{"id":75697,"name":"Tlaxco","lat":20.42345,"lng":-98.02917},{"id":75699,"name":"Tlaxco (Santiago Tlaxco)","lat":20.05788,"lng":-97.96249},{"id":75704,"name":"Tlaxpanaloya","lat":20.22589,"lng":-98.12036},{"id":75706,"name":"Tlayehualancingo","lat":20.03301,"lng":-97.82661},{"id":75710,"name":"Tlixco","lat":18.27389,"lng":-96.99972},{"id":75713,"name":"Tochimilco","lat":18.89062,"lng":-98.57154},{"id":75714,"name":"Tochtepec","lat":18.83928,"lng":-97.82282},{"id":75725,"name":"Tomaquilapa","lat":19.75635,"lng":-97.32161},{"id":75726,"name":"Tomatlán","lat":19.89399,"lng":-97.97346},{"id":75736,"name":"Tonalixco","lat":19.98111,"lng":-97.83944},{"id":75754,"name":"Totoltepec","lat":18.65255,"lng":-98.34706},{"id":75755,"name":"Totoltepec de Guerrero","lat":18.2256,"lng":-97.85511},{"id":75761,"name":"Toxtla","lat":20.06632,"lng":-97.94748},{"id":75762,"name":"Tozihuic","lat":19.25138,"lng":-97.09697},{"id":75785,"name":"Tronconal","lat":18.805,"lng":-98.48361},{"id":75789,"name":"Tula","lat":18.53857,"lng":-97.90935},{"id":75796,"name":"Tulcingo","lat":17.99891,"lng":-98.40925},{"id":75797,"name":"Tulcingo de Valle","lat":18.0437,"lng":-98.44074},{"id":75799,"name":"Tulimanca","lat":18.46944,"lng":-97.14},{"id":75826,"name":"Tuxtla","lat":20.00037,"lng":-97.65526},{"id":75828,"name":"Tuzamapan","lat":20.06572,"lng":-97.5752},{"id":75832,"name":"Tuzuapan","lat":18.9011,"lng":-97.66693},{"id":75837,"name":"Tzicatlacoyan","lat":18.84071,"lng":-98.0484},{"id":75839,"name":"Tzicatlán","lat":18.45073,"lng":-98.75574},{"id":75841,"name":"Tzinacapan","lat":20.02944,"lng":-97.54047},{"id":75869,"name":"Unidad Grajales INFONAVIT","lat":19.24126,"lng":-97.81068},{"id":75953,"name":"Venta Grande","lat":20.11893,"lng":-98.09944},{"id":75958,"name":"Venustiano Carranza","lat":20.50667,"lng":-97.66806},{"id":75979,"name":"Vicente Guerrero","lat":20.12322,"lng":-97.65417},{"id":75992,"name":"Villa Avila Camacho","lat":20.38593,"lng":-97.87989},{"id":75998,"name":"Villa Cuauhtémoc","lat":19.77839,"lng":-98.09719},{"id":76034,"name":"Villa Mariano Matamoros","lat":19.32659,"lng":-98.37827},{"id":76110,"name":"Xacaxomulco","lat":19.18866,"lng":-97.14703},{"id":76112,"name":"Xalacapan de Lucke","lat":19.90403,"lng":-97.59047},{"id":76118,"name":"Xalitzintla","lat":19.0817,"lng":-98.5162},{"id":76122,"name":"Xaltepec","lat":18.88163,"lng":-97.60825},{"id":76123,"name":"Xaltepuxtla","lat":20.17546,"lng":-97.97208},{"id":76125,"name":"Xalticpac","lat":19.84301,"lng":-97.59556},{"id":76129,"name":"Xayacatlán de Bravo","lat":18.23712,"lng":-97.97524},{"id":76139,"name":"Xicotepec","lat":20.31813,"lng":-97.90889},{"id":76140,"name":"Xicotepec de Juárez","lat":20.27605,"lng":-97.96111},{"id":76141,"name":"Xicotlán","lat":18.0811,"lng":-98.59359},{"id":76145,"name":"Xilocuautla","lat":20.13948,"lng":-98.02341},{"id":76146,"name":"Xiloxochico de Rafael Ávila Camacho","lat":20.04583,"lng":-97.49083},{"id":76149,"name":"Xitlama","lat":18.30344,"lng":-97.01743},{"id":76150,"name":"Xiutetelco","lat":19.75755,"lng":-97.34252},{"id":76156,"name":"Xochiapulco","lat":19.8211,"lng":-97.65947},{"id":76161,"name":"Xochicuautla","lat":20.05377,"lng":-97.88912},{"id":76164,"name":"Xochiltepec","lat":18.65272,"lng":-98.3254},{"id":76168,"name":"Xochimilco","lat":18.84167,"lng":-97.72583},{"id":76169,"name":"Xochinanacatlán","lat":20.19482,"lng":-97.89765},{"id":76173,"name":"Xochitepec","lat":18.22833,"lng":-98.87611},{"id":76180,"name":"Xochitlán de Vicente Suárez","lat":19.95002,"lng":-97.64375},{"id":76175,"name":"Xochitlan Todos Santos","lat":18.70395,"lng":-97.77609},{"id":76176,"name":"Xochitlaxco (San Baltazar)","lat":19.94139,"lng":-97.86361},{"id":76184,"name":"Xocotepéc","lat":19.36758,"lng":-97.17093},{"id":76190,"name":"Xoloateno","lat":19.83111,"lng":-97.36944},{"id":76192,"name":"Xolotla","lat":20.25801,"lng":-98.13325},{"id":76196,"name":"Xonalpu","lat":20.12833,"lng":-97.61056},{"id":76197,"name":"Xonocuautla","lat":19.78873,"lng":-97.51627},{"id":76203,"name":"Xoxonacatla","lat":20.0075,"lng":-97.94056},{"id":76205,"name":"Xuchapa","lat":18.5265,"lng":-98.45705},{"id":76216,"name":"Yaonahuac","lat":19.87076,"lng":-97.46587},{"id":76231,"name":"Yehualtepec","lat":18.79518,"lng":-97.6616},{"id":76243,"name":"Yopi","lat":19.82667,"lng":-97.38028},{"id":76261,"name":"Zacaola","lat":18.88099,"lng":-97.84762},{"id":76262,"name":"Zacapala","lat":18.5781,"lng":-98.04505},{"id":76264,"name":"Zacapechpan","lat":19.05441,"lng":-98.35109},{"id":76265,"name":"Zacapoaxtla","lat":19.87271,"lng":-97.58899},{"id":76275,"name":"Zacatepec","lat":19.26631,"lng":-97.5328},{"id":76277,"name":"Zacatlán","lat":19.9355,"lng":-97.96125},{"id":76291,"name":"Zahuatlán de Morelos (San José)","lat":18.98333,"lng":-97.8675},{"id":76307,"name":"Zapotitlán","lat":20.00209,"lng":-97.71385},{"id":76315,"name":"Zaragoza","lat":19.77097,"lng":-97.55506},{"id":76325,"name":"Zautla","lat":19.72013,"lng":-97.65952},{"id":76327,"name":"Zempoala","lat":20.0867,"lng":-97.9985},{"id":76334,"name":"Zihuateutla","lat":20.28699,"lng":-97.81998},{"id":76341,"name":"Zinacatepec","lat":18.33516,"lng":-97.24621},{"id":76355,"name":"Zoatecpan","lat":19.93444,"lng":-97.62028},{"id":76359,"name":"Zolonquiapa","lat":18.57611,"lng":-98.52722},{"id":76363,"name":"Zongozotla","lat":19.9793,"lng":-97.72751},{"id":76368,"name":"Zoquiapan","lat":20.00735,"lng":-97.59691},{"id":76369,"name":"Zoquiopan","lat":20.00898,"lng":-97.59606},{"id":76373,"name":"Zoquitlán","lat":18.377,"lng":-96.98165},{"id":76377,"name":"Zoyatitla","lat":19.82343,"lng":-97.81831},{"id":76380,"name":"Zoyotla","lat":19.92778,"lng":-97.69389},{"id":76381,"name":"Zozocolco de Guerrero","lat":20.10396,"lng":-97.56934}]