[{"id":68038,"name":"Acaponeta","lat":22.49396,"lng":-105.36369},{"id":68136,"name":"Ahuacatlán","lat":21.05405,"lng":-104.48398},{"id":68236,"name":"Amapa","lat":21.78359,"lng":-105.25482},{"id":68244,"name":"Amatlán de Cañas","lat":20.80699,"lng":-104.40408},{"id":68321,"name":"Aquiles Serdán","lat":21.38198,"lng":-104.88891},{"id":68404,"name":"Aticama","lat":21.48387,"lng":-105.19787},{"id":68427,"name":"Atonalisco","lat":21.66551,"lng":-104.83949},{"id":68447,"name":"Aután","lat":21.68973,"lng":-105.3075},{"id":68579,"name":"Bellavista","lat":21.56236,"lng":-104.88267},{"id":68656,"name":"Bucerías","lat":20.75626,"lng":-105.33438},{"id":68756,"name":"Camalotita","lat":22.40453,"lng":-105.43156},{"id":68764,"name":"Camichín de Jauja","lat":21.46532,"lng":-104.8008},{"id":68881,"name":"Cañada del Tabaco","lat":21.70972,"lng":-105.35417},{"id":68979,"name":"Chapalilla","lat":21.18852,"lng":-104.63783},{"id":69064,"name":"Chilapa","lat":22.03138,"lng":-105.23057},{"id":69295,"name":"Colonia Emiliano Zapata","lat":21.82861,"lng":-105.21972},{"id":69348,"name":"Colonia Paraíso Escondido","lat":21.05333,"lng":-105.23833},{"id":69429,"name":"Compostela","lat":21.23777,"lng":-104.9001},{"id":69489,"name":"Corral del Risco (Punta de Mita)","lat":20.77361,"lng":-105.51667},{"id":69546,"name":"Cruz de Huanacaxtle","lat":20.75415,"lng":-105.37734},{"id":69555,"name":"Cuamiles","lat":21.92347,"lng":-105.25405},{"id":69827,"name":"El Ahuacate","lat":21.51535,"lng":-104.94436},{"id":69849,"name":"El Botadero","lat":21.75404,"lng":-105.2864},{"id":69861,"name":"El Capomal","lat":21.83935,"lng":-105.12116},{"id":69928,"name":"El Corte","lat":21.72025,"lng":-105.24488},{"id":70005,"name":"El Jicote","lat":21.72545,"lng":-105.05787},{"id":70022,"name":"El Llano","lat":21.41854,"lng":-105.17963},{"id":70175,"name":"El Rosario","lat":20.89195,"lng":-104.46836},{"id":70211,"name":"El Tamarindo","lat":21.9581,"lng":-105.2322},{"id":70230,"name":"El Tizate","lat":21.80179,"lng":-105.1167},{"id":70247,"name":"El Vado de San Pedro","lat":21.94742,"lng":-105.18005},{"id":70253,"name":"El Venado","lat":21.94426,"lng":-105.001},{"id":70283,"name":"Emiliano Zapata","lat":21.36477,"lng":-104.91283},{"id":70398,"name":"Felipe Carrillo Puerto","lat":21.132,"lng":-104.86068},{"id":70468,"name":"Francisco I. Madero","lat":21.58186,"lng":-104.81927},{"id":70601,"name":"Guadalupe Victoria","lat":21.67972,"lng":-105.3275},{"id":70692,"name":"Higuera Blanca","lat":20.79746,"lng":-105.46747},{"id":70718,"name":"Huajicori","lat":22.63667,"lng":-105.31972},{"id":70719,"name":"Huajimic","lat":21.68347,"lng":-104.31542},{"id":70930,"name":"Ixtapan de la Concepción","lat":21.30774,"lng":-105.15773},{"id":70946,"name":"Ixtlán del Río","lat":21.03907,"lng":-104.37116},{"id":70969,"name":"Jalcocotán","lat":21.48122,"lng":-105.09851},{"id":71030,"name":"Jesús María","lat":22.25056,"lng":-104.51792},{"id":71077,"name":"Jomulco","lat":21.10394,"lng":-104.42378},{"id":71118,"name":"Juan Escutia (Borbollón)","lat":21.16741,"lng":-104.86698},{"id":71200,"name":"La Cantera","lat":21.50308,"lng":-104.82237},{"id":71246,"name":"La Corregidora","lat":21.44417,"lng":-104.81222},{"id":71295,"name":"La Fortuna","lat":21.55285,"lng":-104.95077},{"id":71312,"name":"La Guásima","lat":22.40607,"lng":-105.38767},{"id":71339,"name":"La Labor","lat":21.37299,"lng":-104.7191},{"id":71355,"name":"La Libertad","lat":21.59347,"lng":-105.17365},{"id":71422,"name":"La Palma","lat":21.49172,"lng":-105.17817},{"id":71444,"name":"La Peñita de Jaltomba","lat":21.03884,"lng":-105.24792},{"id":71457,"name":"La Presa","lat":22.34358,"lng":-105.3935},{"id":71537,"name":"La Yesca","lat":21.31871,"lng":-104.01161},{"id":71606,"name":"Las Jarretaderas","lat":20.6925,"lng":-105.27389},{"id":71648,"name":"Las Varas","lat":21.18021,"lng":-105.13595},{"id":71697,"name":"Llano del Tigre","lat":22.12707,"lng":-105.30581},{"id":71702,"name":"Lo de Lamedo","lat":21.53843,"lng":-104.93945},{"id":71703,"name":"Lo de Marcos","lat":20.95509,"lng":-105.35223},{"id":71765,"name":"Los Aguajes","lat":21.10729,"lng":-104.35447},{"id":71826,"name":"Los Otates","lat":21.70427,"lng":-105.37622},{"id":72057,"name":"Mecatán","lat":21.53643,"lng":-105.11946},{"id":72082,"name":"Mesa del Nayar","lat":22.2177,"lng":-104.65352},{"id":72263,"name":"Méxpan","lat":21.03567,"lng":-104.41479},{"id":72106,"name":"Mezcales","lat":20.73072,"lng":-105.28257},{"id":72139,"name":"Milpas Viejas","lat":22.36478,"lng":-105.47549},{"id":72180,"name":"Mojarras","lat":21.42592,"lng":-104.60851},{"id":72220,"name":"Monteón","lat":20.99108,"lng":-105.29988},{"id":72295,"name":"Navarrete","lat":21.64841,"lng":-105.11539},{"id":72418,"name":"Nuevo Vallarta","lat":20.70169,"lng":-105.29417},{"id":72585,"name":"Palma Grande","lat":21.99333,"lng":-105.38944},{"id":72592,"name":"Palmar de Cuautla","lat":22.21972,"lng":-105.6475},{"id":72624,"name":"Pantanal","lat":21.42824,"lng":-104.86122},{"id":72734,"name":"Pericos","lat":22.04925,"lng":-105.35402},{"id":72872,"name":"Pozo de Ibarra","lat":21.86692,"lng":-105.27949},{"id":72961,"name":"Puerta de Mangos","lat":21.71853,"lng":-105.33534},{"id":72982,"name":"Puga","lat":21.58443,"lng":-104.82318},{"id":73032,"name":"Quimichis","lat":22.36122,"lng":-105.53913},{"id":73128,"name":"Rincón de Guayabitos","lat":21.02315,"lng":-105.27054},{"id":73158,"name":"Rosa Blanca","lat":21.12454,"lng":-104.35811},{"id":73161,"name":"Rosamorada","lat":22.12208,"lng":-105.2064},{"id":73166,"name":"Ruíz","lat":21.95107,"lng":-105.1438},{"id":73445,"name":"San Blas","lat":21.54333,"lng":-105.28558},{"id":73464,"name":"San Cayetano","lat":21.44949,"lng":-104.81702},{"id":73469,"name":"San Clemente de Lima","lat":20.73722,"lng":-105.27083},{"id":73513,"name":"San Felipe Aztatán","lat":22.38374,"lng":-105.4198},{"id":73541,"name":"San Francisco","lat":20.90196,"lng":-105.41279},{"id":73818,"name":"San José de Gracia","lat":22.48105,"lng":-105.37869},{"id":73870,"name":"San Juan Bautista","lat":22.14359,"lng":-105.0975},{"id":73958,"name":"San Juan de Abajo","lat":20.81484,"lng":-105.19154},{"id":74059,"name":"San Luis de Lozada","lat":21.50297,"lng":-104.70552},{"id":74349,"name":"San Pedro Lagunillas","lat":21.2192,"lng":-104.75228},{"id":74493,"name":"San Vicente","lat":21.95043,"lng":-105.2971},{"id":74611,"name":"Santa Cruz","lat":21.98118,"lng":-105.60169},{"id":74672,"name":"Santa Isabel","lat":21.16304,"lng":-104.62374},{"id":74815,"name":"Santa María del Oro","lat":21.3339,"lng":-104.58696},{"id":74859,"name":"Santa Teresa","lat":22.4973,"lng":-104.76547},{"id":74984,"name":"Santiago de Pochotitán","lat":21.58159,"lng":-104.69858},{"id":74907,"name":"Santiago Ixcuintla","lat":21.81295,"lng":-105.20844},{"id":75045,"name":"Sauta","lat":21.72116,"lng":-105.14249},{"id":75048,"name":"Sayulilla","lat":22.43822,"lng":-105.39137},{"id":75049,"name":"Sayulita","lat":20.87006,"lng":-105.43992},{"id":75060,"name":"Sentispac","lat":21.80478,"lng":-105.34593},{"id":75289,"name":"Tecuala","lat":22.39815,"lng":-105.45808},{"id":75447,"name":"Tepic","lat":21.50951,"lng":-104.89569},{"id":75455,"name":"Tequepexpan","lat":21.21571,"lng":-104.56958},{"id":75473,"name":"Testerazo","lat":21.40242,"lng":-104.8942},{"id":75488,"name":"Tetitlán","lat":21.12903,"lng":-104.61613},{"id":75887,"name":"Unión de Corrientes","lat":21.97644,"lng":-105.43026},{"id":75904,"name":"Uzeta","lat":21.11497,"lng":-104.60171},{"id":75920,"name":"Valle de Banderas","lat":20.80792,"lng":-105.24813},{"id":76013,"name":"Villa Hidalgo","lat":21.74185,"lng":-105.23096},{"id":76020,"name":"Villa Juárez","lat":21.68917,"lng":-105.38972},{"id":76209,"name":"Yago","lat":21.83601,"lng":-105.06451},{"id":76284,"name":"Zacualpan","lat":21.24715,"lng":-105.1657},{"id":76313,"name":"Zapotán","lat":21.08936,"lng":-104.86246},{"id":76301,"name":"Zapotanito","lat":21.30533,"lng":-104.60899}]