[{"id":105182,"name":"Amphoe Ao Luek","lat":8.38526,"lng":98.75378},{"id":105442,"name":"Amphoe Ko Lanta","lat":7.71267,"lng":99.07813},{"id":105689,"name":"Amphoe Nuea Khlong","lat":8.06058,"lng":99.04039},{"id":106381,"name":"Ao Luek","lat":8.37803,"lng":98.72117},{"id":105396,"name":"Khao Phanom","lat":8.26953,"lng":99.11813},{"id":105411,"name":"Khlong Thom","lat":7.9147,"lng":99.19935},{"id":106534,"name":"Ko Lanta","lat":7.53362,"lng":99.08647},{"id":106540,"name":"Krabi","lat":8.07257,"lng":98.91052},{"id":105477,"name":"Lam Thap","lat":8.04799,"lng":99.33543},{"id":105546,"name":"Mueang Krabi","lat":8.15947,"lng":98.86661},{"id":106605,"name":"Nuea Khlong","lat":8.07143,"lng":98.99933},{"id":105789,"name":"Plai Phraya","lat":8.54087,"lng":98.83671},{"id":106676,"name":"Saladan","lat":7.61342,"lng":99.03651}]