[{"id":105377,"name":"Kapoe","lat":9.53028,"lng":98.62369},{"id":105451,"name":"Kra Buri","lat":10.45895,"lng":98.84373},{"id":105469,"name":"La-un","lat":10.09691,"lng":98.78498},{"id":105578,"name":"Mueang Ranong","lat":9.86238,"lng":98.62229},{"id":106661,"name":"Ranong","lat":9.96583,"lng":98.63476},{"id":106254,"name":"Suk Samran","lat":9.4157,"lng":98.49117}]