[{"id":105224,"name":"Bang Kaeo","lat":7.41775,"lng":100.17164},{"id":105391,"name":"Khao Chaison","lat":7.46305,"lng":100.09055},{"id":105428,"name":"Khuan Khanun","lat":7.76438,"lng":100.04349},{"id":105448,"name":"Kong Ra","lat":7.41674,"lng":99.95719},{"id":105568,"name":"Mueang Phatthalung","lat":7.6025,"lng":100.07425},{"id":105692,"name":"Pa Bon","lat":7.21994,"lng":100.13078},{"id":105696,"name":"Pa Phayom","lat":7.83154,"lng":99.87448},{"id":105705,"name":"Pak Phayun","lat":7.29622,"lng":100.29542},{"id":106626,"name":"Phatthalung","lat":7.61786,"lng":100.07792},{"id":106209,"name":"Si Banphot","lat":7.69259,"lng":99.87322},{"id":106250,"name":"Srinagarindra","lat":7.57574,"lng":99.91053},{"id":106266,"name":"Tamot","lat":7.28783,"lng":100.04358}]