[{"id":105221,"name":"Amphoe Bang Ban","lat":14.38333,"lng":100.46667},{"id":105234,"name":"Amphoe Bang Pa-in","lat":14.23482,"lng":100.5941},{"id":105632,"name":"Amphoe Nakhon Luang","lat":14.46703,"lng":100.62572},{"id":105719,"name":"Amphoe Phak Hai","lat":14.45073,"lng":100.33949},{"id":105760,"name":"Amphoe Phra Nakhon Si Ayutthaya","lat":14.35172,"lng":100.56719},{"id":106282,"name":"Amphoe Tha Ruea","lat":14.53587,"lng":100.71268},{"id":106341,"name":"Amphoe Wang Noi","lat":14.24348,"lng":100.725},{"id":106384,"name":"Ban Bang Kadi Pathum Thani","lat":13.99904,"lng":100.54962},{"id":105213,"name":"Ban Phraek","lat":14.64381,"lng":100.54883},{"id":106420,"name":"Bang Ban","lat":14.37395,"lng":100.48528},{"id":106438,"name":"Bang Pa-in","lat":14.22783,"lng":100.57589},{"id":105235,"name":"Bang Pahan","lat":14.47174,"lng":100.54731},{"id":105242,"name":"Bang Sai","lat":14.21043,"lng":100.49422},{"id":105487,"name":"Lat Bua Luang","lat":14.1681,"lng":100.34892},{"id":105521,"name":"Maha Rat","lat":14.57064,"lng":100.54089},{"id":106579,"name":"Nakhon Luang","lat":14.46281,"lng":100.60832},{"id":105717,"name":"Phachi","lat":14.43795,"lng":100.7278},{"id":106619,"name":"Phak Hai","lat":14.45736,"lng":100.36989},{"id":106644,"name":"Phra Nakhon Si Ayutthaya","lat":14.35167,"lng":100.57739},{"id":106207,"name":"Sena","lat":14.29605,"lng":100.37486},{"id":106724,"name":"Tha Ruea","lat":14.56739,"lng":100.72598},{"id":106327,"name":"Uthai","lat":14.35321,"lng":100.69643},{"id":106744,"name":"Wang Noi","lat":14.22689,"lng":100.7155}]