[{"id":105223,"name":"Amphoe Bang Bua Thong","lat":13.92641,"lng":100.3936},{"id":105230,"name":"Amphoe Bang Kruai","lat":13.80249,"lng":100.41525},{"id":105246,"name":"Amphoe Bang Yai","lat":13.85385,"lng":100.37318},{"id":105563,"name":"Amphoe Mueang Nonthaburi","lat":13.85581,"lng":100.49264},{"id":105703,"name":"Amphoe Pak Kret","lat":13.91626,"lng":100.50397},{"id":106423,"name":"Bang Bua Thong","lat":13.91783,"lng":100.42403},{"id":106431,"name":"Bang Kruai","lat":13.805,"lng":100.47283},{"id":106447,"name":"Bang Yai","lat":13.84341,"lng":100.36251},{"id":106573,"name":"Mueang Nonthaburi","lat":13.86075,"lng":100.51477},{"id":106610,"name":"Pak Kret","lat":13.91301,"lng":100.49883},{"id":105824,"name":"Sai Noi","lat":14.00627,"lng":100.31072}]