[{"id":105215,"name":"Amphoe Ban Pong","lat":13.8166,"lng":99.82147},{"id":105237,"name":"Amphoe Bang Phae","lat":13.68333,"lng":99.98333},{"id":105303,"name":"Amphoe Chom Bueng","lat":13.6252,"lng":99.5187},{"id":105316,"name":"Amphoe Damnoen Saduak","lat":13.56537,"lng":99.97042},{"id":105759,"name":"Amphoe Photharam","lat":13.70707,"lng":99.75622},{"id":105194,"name":"Ban Kha","lat":13.32374,"lng":99.37323},{"id":106410,"name":"Ban Pong","lat":13.81629,"lng":99.87739},{"id":106440,"name":"Bang Phae","lat":13.69157,"lng":99.92982},{"id":106478,"name":"Chom Bueng","lat":13.62,"lng":99.59169},{"id":106485,"name":"Damnoen Saduak","lat":13.51825,"lng":99.95469},{"id":105579,"name":"Mueang Ratchaburi","lat":13.54559,"lng":99.77678},{"id":105707,"name":"Pak Tho","lat":13.38761,"lng":99.677},{"id":106641,"name":"Photharam","lat":13.69234,"lng":99.84969},{"id":106664,"name":"Ratchaburi","lat":13.53671,"lng":99.81712},{"id":106253,"name":"Suan Phueng","lat":13.56361,"lng":99.31133},{"id":106356,"name":"Wat Phleng","lat":13.44705,"lng":99.86959}]