[{"id":105180,"name":"Akat Amnuai","lat":17.63589,"lng":103.9759},{"id":106201,"name":"Amphoe Sawang Daen Din","lat":17.4559,"lng":103.4495},{"id":105205,"name":"Ban Muang","lat":17.89569,"lng":103.52793},{"id":105287,"name":"Charoen Sin","lat":17.63327,"lng":103.52218},{"id":105386,"name":"Kham Ta Kla","lat":17.82547,"lng":103.78598},{"id":105419,"name":"Khok Si Suphan","lat":17.02297,"lng":104.30346},{"id":105462,"name":"Kusuman","lat":17.35402,"lng":104.26677},{"id":105463,"name":"Kut Bak","lat":17.08205,"lng":103.81469},{"id":105583,"name":"Mueang Sakon Nakhon","lat":17.16163,"lng":104.10519},{"id":105644,"name":"Nikhom Nam Un","lat":17.17349,"lng":103.73511},{"id":105724,"name":"Phang Khon","lat":17.38267,"lng":103.75146},{"id":105725,"name":"Phanna Nikhom","lat":17.31369,"lng":103.89791},{"id":105753,"name":"Phon Na Kaeo","lat":17.21248,"lng":104.307},{"id":105778,"name":"Phu Phan","lat":16.92862,"lng":103.924},{"id":106675,"name":"Sakon Nakhon","lat":17.16116,"lng":104.14725},{"id":106693,"name":"Sawang Daen Din","lat":17.47531,"lng":103.45753},{"id":106245,"name":"Song Dao","lat":17.30883,"lng":103.44987},{"id":106268,"name":"Tao Ngoi","lat":16.94022,"lng":104.15863},{"id":106351,"name":"Wanon Niwat","lat":17.61516,"lng":103.76536},{"id":106354,"name":"Waritchaphum","lat":17.25692,"lng":103.62283}]