[{"id":105775,"name":"Amphoe Phu Kradueng","lat":16.9019,"lng":101.84562},{"id":106346,"name":"Amphoe Wang Saphung","lat":17.28028,"lng":101.73342},{"id":105294,"name":"Chiang Khan","lat":17.82441,"lng":101.73424},{"id":105320,"name":"Dan Sai","lat":17.22101,"lng":101.22373},{"id":105338,"name":"Erawan","lat":17.28823,"lng":101.97443},{"id":106557,"name":"Loei","lat":17.49052,"lng":101.72749},{"id":105549,"name":"Mueang Loei","lat":17.54211,"lng":101.71932},{"id":105611,"name":"Na Duang","lat":17.53833,"lng":101.99639},{"id":105613,"name":"Na Haeo","lat":17.43942,"lng":100.99654},{"id":105665,"name":"Nong Hin","lat":17.08087,"lng":101.82643},{"id":105700,"name":"Pak Chom","lat":17.911,"lng":101.95777},{"id":105716,"name":"Pha Khao","lat":17.05638,"lng":102.01575},{"id":106649,"name":"Phu Kradueng","lat":16.88425,"lng":101.88467},{"id":105776,"name":"Phu Luang","lat":17.09782,"lng":101.64413},{"id":105780,"name":"Phu Ruea","lat":17.35076,"lng":101.41329},{"id":106275,"name":"Tha Li","lat":17.61279,"lng":101.44141},{"id":106747,"name":"Wang Saphung","lat":17.30097,"lng":101.7685}]