[{"id":105186,"name":"Amphoe Ban Bueng","lat":13.2528,"lng":101.18151},{"id":105445,"name":"Amphoe Ko Si Chang","lat":13.15286,"lng":100.81156},{"id":105721,"name":"Amphoe Phan Thong","lat":13.463,"lng":101.09131},{"id":105723,"name":"Amphoe Phanat Nikhom","lat":13.46434,"lng":101.21428},{"id":106197,"name":"Amphoe Sattahip","lat":12.71743,"lng":100.92754},{"id":106220,"name":"Amphoe Si Racha","lat":13.12976,"lng":101.04008},{"id":106385,"name":"Ban Bueng","lat":13.311,"lng":101.11214},{"id":106396,"name":"Ban Ko Lan","lat":12.92419,"lng":100.78794},{"id":106416,"name":"Ban Talat Bueng","lat":13.07147,"lng":101.00314},{"id":106432,"name":"Bang Lamung","lat":13.04704,"lng":100.92891},{"id":106433,"name":"Bang Lamung District","lat":12.92579,"lng":100.89243},{"id":105254,"name":"Bo Thong","lat":13.24227,"lng":101.50864},{"id":106481,"name":"Chon Buri","lat":13.3622,"lng":100.98345},{"id":105438,"name":"Ko Chan","lat":13.40253,"lng":101.388},{"id":106537,"name":"Ko Si Chang","lat":13.16389,"lng":100.80547},{"id":106572,"name":"Mueang Chonburi","lat":13.34271,"lng":101.00111},{"id":105686,"name":"Nong Yai","lat":13.11772,"lng":101.37471},{"id":106617,"name":"Pattaya","lat":12.93333,"lng":100.88333},{"id":106620,"name":"Phan Thong","lat":13.46804,"lng":101.09532},{"id":106621,"name":"Phanat Nikhom","lat":13.44581,"lng":101.18445},{"id":106690,"name":"Sattahip","lat":12.66644,"lng":100.90073},{"id":106699,"name":"Si Racha","lat":13.17372,"lng":100.93111}]