[{"id":105306,"name":"Amphoe Chon Daen","lat":16.10735,"lng":100.83572},{"id":105493,"name":"Amphoe Lom Sak","lat":16.72837,"lng":101.31139},{"id":105675,"name":"Amphoe Nong Phai","lat":16.01162,"lng":101.15042},{"id":106368,"name":"Amphoe Wichian Buri","lat":15.65,"lng":101.1},{"id":105262,"name":"Bueng Sam Phan","lat":15.8165,"lng":101.00399},{"id":106482,"name":"Chon Daen","lat":16.18953,"lng":100.85958},{"id":105395,"name":"Khao Kho","lat":16.66313,"lng":100.9945},{"id":105492,"name":"Lom Kao","lat":16.97209,"lng":101.26185},{"id":106558,"name":"Lom Sak","lat":16.77983,"lng":101.24225},{"id":105570,"name":"Mueang Phetchabun","lat":16.38215,"lng":101.17652},{"id":105636,"name":"Nam Nao","lat":16.84489,"lng":101.6008},{"id":106603,"name":"Nong Phai","lat":15.99025,"lng":101.06183},{"id":106631,"name":"Phetchabun","lat":16.41904,"lng":101.16056},{"id":106229,"name":"Si Thep","lat":15.44253,"lng":101.14767},{"id":106343,"name":"Wang Pong","lat":16.35049,"lng":100.80772},{"id":106752,"name":"Wichian Buri","lat":15.65778,"lng":101.10603}]