[{"id":105450,"name":"Amphoe Kosum Phisai","lat":16.23882,"lng":102.99081},{"id":105734,"name":"Amphoe Phayakkhaphum Phisai","lat":15.51963,"lng":103.23268},{"id":106352,"name":"Amphoe Wapi Pathum","lat":15.85953,"lng":103.34091},{"id":105255,"name":"Borabue","lat":15.98881,"lng":103.12521},{"id":105300,"name":"Chiang Yuen","lat":16.40942,"lng":103.07005},{"id":105308,"name":"Chuen Chom","lat":16.54801,"lng":103.14796},{"id":105363,"name":"Kae Dam","lat":16.04961,"lng":103.38953},{"id":105373,"name":"Kantharawichai","lat":16.27992,"lng":103.25892},{"id":106539,"name":"Kosum Phisai","lat":16.24858,"lng":103.06739},{"id":105467,"name":"Kut Rang","lat":16.0297,"lng":102.95059},{"id":106568,"name":"Maha Sarakham","lat":16.18483,"lng":103.30067},{"id":105551,"name":"Mueang Maha Sarakham","lat":16.11882,"lng":103.3116},{"id":105609,"name":"Na Chueak","lat":15.8018,"lng":103.05725},{"id":105612,"name":"Na Dun","lat":15.71952,"lng":103.23004},{"id":106628,"name":"Phayakkhaphum Phisai","lat":15.51631,"lng":103.19367},{"id":106749,"name":"Wapi Pathum","lat":15.84523,"lng":103.37678},{"id":106375,"name":"Yang Si Surat","lat":15.64953,"lng":103.08916}]