[{"id":105383,"name":"Kham Khuan Kaeo","lat":15.67197,"lng":104.33372},{"id":105414,"name":"Kho Wang","lat":15.38164,"lng":104.34109},{"id":105465,"name":"Kut Chum","lat":16.0462,"lng":104.30545},{"id":105491,"name":"Loeng Nok Tha","lat":16.20433,"lng":104.51442},{"id":105520,"name":"Maha Chana Chai","lat":15.51267,"lng":104.26104},{"id":105606,"name":"Mueang Yasothon","lat":15.8555,"lng":104.17804},{"id":105698,"name":"Pa Tio","lat":15.84415,"lng":104.39994},{"id":105822,"name":"Sai Mun","lat":15.97917,"lng":104.1907},{"id":106293,"name":"Thai Charoen","lat":16.07936,"lng":104.42778},{"id":106759,"name":"Yasothon","lat":15.79408,"lng":104.1451}]