[{"id":106205,"name":"Amphoe Seka","lat":17.98734,"lng":103.89616},{"id":106455,"name":"Bueng Kan","lat":18.36303,"lng":103.65194},{"id":105260,"name":"Bueng Khong Long","lat":18.00899,"lng":104.07302},{"id":105264,"name":"Bung Khla","lat":18.24726,"lng":103.99427},{"id":105533,"name":"Mueang Bueng Kan","lat":18.2995,"lng":103.64016},{"id":105702,"name":"Pak Khat","lat":18.27738,"lng":103.3414},{"id":105752,"name":"Phon Charoen","lat":18.07967,"lng":103.65453},{"id":106696,"name":"Seka","lat":17.92851,"lng":103.95519},{"id":106230,"name":"Si Wilai","lat":18.15528,"lng":103.77975},{"id":106239,"name":"So Phisai","lat":18.14176,"lng":103.44923}]