[{"id":105359,"name":"Amphoe Huai Yot","lat":7.80063,"lng":99.605},{"id":105370,"name":"Amphoe Kantang","lat":7.38563,"lng":99.47064},{"id":105346,"name":"Hat Samran","lat":7.25733,"lng":99.5816},{"id":106502,"name":"Huai Yot","lat":7.78937,"lng":99.63469},{"id":106512,"name":"Kantang","lat":7.40542,"lng":99.51561},{"id":105598,"name":"Mueang Trang","lat":7.60944,"lng":99.61772},{"id":105629,"name":"Na Yong","lat":7.56257,"lng":99.74791},{"id":105709,"name":"Palian","lat":7.2334,"lng":99.79491},{"id":105807,"name":"Ratsada","lat":7.93779,"lng":99.66771},{"id":106233,"name":"Sikao","lat":7.57122,"lng":99.33915},{"id":106735,"name":"Trang","lat":7.55633,"lng":99.61141},{"id":106349,"name":"Wang Wiset","lat":7.76061,"lng":99.40861},{"id":106373,"name":"Yan Ta Khao","lat":7.4258,"lng":99.73438}]