[{"id":105362,"name":"Amphoe Kabin Buri","lat":13.9,"lng":101.8},{"id":105217,"name":"Ban Sang","lat":13.95005,"lng":101.25063},{"id":106504,"name":"Kabin Buri","lat":13.95114,"lng":101.71769},{"id":105576,"name":"Mueang Prachin Buri","lat":14.09335,"lng":101.39776},{"id":105610,"name":"Na Di","lat":14.19253,"lng":101.84557},{"id":105794,"name":"Prachantakham","lat":14.22813,"lng":101.5744},{"id":106655,"name":"Prachin Buri","lat":14.04992,"lng":101.36864},{"id":106214,"name":"Si Maha Phot","lat":13.89041,"lng":101.54181},{"id":106215,"name":"Si Mahosot","lat":13.87669,"lng":101.42499}]