[{"id":105517,"name":"Amphoe Mae Tha","lat":18.11122,"lng":99.57826},{"id":106307,"name":"Amphoe Thoen","lat":17.58128,"lng":99.28836},{"id":106342,"name":"Amphoe Wang Nuea","lat":19.16011,"lng":99.64767},{"id":105268,"name":"Chae Hom","lat":18.75404,"lng":99.66822},{"id":105343,"name":"Hang Chat","lat":18.35497,"lng":99.27978},{"id":105440,"name":"Ko Kha","lat":18.14408,"lng":99.35229},{"id":106549,"name":"Lampang","lat":18.29232,"lng":99.49277},{"id":105505,"name":"Mae Mo","lat":18.40244,"lng":99.82135},{"id":105507,"name":"Mae Phrik","lat":17.5045,"lng":99.05847},{"id":105547,"name":"Mueang Lampang","lat":18.38901,"lng":99.54388},{"id":105564,"name":"Mueang Pan","lat":18.79093,"lng":99.45408},{"id":105642,"name":"Ngao","lat":18.75948,"lng":99.95295},{"id":106240,"name":"Soem Ngam","lat":18.09406,"lng":99.17297},{"id":106249,"name":"Sop Prap","lat":17.89861,"lng":99.34081},{"id":106731,"name":"Thoen","lat":17.61289,"lng":99.21612},{"id":106745,"name":"Wang Nuea","lat":19.14678,"lng":99.61933}]