[{"id":105189,"name":"Amphoe Ban Dan Lan Hoi","lat":17.05278,"lng":99.49148},{"id":105403,"name":"Amphoe Khiri Mat","lat":16.82923,"lng":99.73976},{"id":106203,"name":"Amphoe Sawankhalok","lat":17.29899,"lng":99.85396},{"id":106224,"name":"Amphoe Si Satchanalai","lat":17.59927,"lng":99.70591},{"id":106388,"name":"Ban Dan Lan Hoi","lat":17.00683,"lng":99.57497},{"id":106401,"name":"Ban Na","lat":17.01717,"lng":99.73283},{"id":106522,"name":"Khiri Mat","lat":16.83333,"lng":99.8},{"id":105447,"name":"Kong Krailat","lat":16.93115,"lng":99.97414},{"id":105593,"name":"Mueang Sukhothai","lat":17.02318,"lng":99.77864},{"id":106695,"name":"Sawankhalok","lat":17.31597,"lng":99.83186},{"id":106217,"name":"Si Nakhon","lat":17.39275,"lng":99.97666},{"id":106223,"name":"Si Samrong","lat":17.16397,"lng":99.74672},{"id":106701,"name":"Si Satchanalai","lat":17.51692,"lng":99.75978},{"id":106707,"name":"Sukhothai","lat":17.00778,"lng":99.823},{"id":106315,"name":"Thung Saliam","lat":17.37082,"lng":99.55265}]