[{"id":106383,"name":"Ban Ao Nang","lat":8.0458,"lng":98.81035},{"id":106393,"name":"Ban Khao Lak","lat":8.61501,"lng":98.23994},{"id":106409,"name":"Ban Phru Nai","lat":7.95458,"lng":98.58989},{"id":105378,"name":"Kapong","lat":8.74139,"lng":98.47542},{"id":105435,"name":"Khura Buri","lat":9.18972,"lng":98.40806},{"id":105446,"name":"Ko Yao","lat":8.06549,"lng":98.57851},{"id":105567,"name":"Mueang Phangnga","lat":8.4935,"lng":98.50775},{"id":106622,"name":"Phang Nga","lat":8.45091,"lng":98.52985},{"id":106264,"name":"Takua Pa","lat":8.86883,"lng":98.33892},{"id":106265,"name":"Takua Thung","lat":8.28433,"lng":98.3895},{"id":106294,"name":"Thai Mueang","lat":8.48995,"lng":98.31292},{"id":106300,"name":"Thap Put","lat":8.53768,"lng":98.63208}]