[{"id":31593,"name":"Abja-Paluoja","lat":58.12528,"lng":25.34972},{"id":31625,"name":"Karksi-Nuia","lat":58.10333,"lng":25.56278},{"id":31664,"name":"Mõisaküla","lat":58.09222,"lng":25.18639},{"id":31711,"name":"Suure-Jaani","lat":58.53611,"lng":25.47056},{"id":31739,"name":"Viiratsi","lat":58.36,"lng":25.63722},{"id":31740,"name":"Viljandi","lat":58.36389,"lng":25.59},{"id":31741,"name":"Viljandi vald","lat":58.36392,"lng":25.49103},{"id":31751,"name":"Võhma","lat":58.62833,"lng":25.54833}]