[{"id":31600,"name":"Audru","lat":58.40861,"lng":24.37389},{"id":31630,"name":"Kihnu vald","lat":58.13,"lng":23.99002},{"id":31633,"name":"Kilingi-Nõmme","lat":58.15028,"lng":24.96417},{"id":31648,"name":"Lihula","lat":58.68139,"lng":23.84528},{"id":31650,"name":"Linaküla","lat":58.13722,"lng":23.97444},{"id":31674,"name":"Paikuse","lat":58.37917,"lng":24.63444},{"id":31680,"name":"Pärnu","lat":58.38588,"lng":24.49711},{"id":31681,"name":"Pärnu linn","lat":58.37901,"lng":24.52784},{"id":31682,"name":"Pärnu-Jaagupi","lat":58.61052,"lng":24.50689},{"id":31703,"name":"Saarde vald","lat":58.13802,"lng":24.95564},{"id":31708,"name":"Sauga","lat":58.4272,"lng":24.49496},{"id":31710,"name":"Sindi","lat":58.40056,"lng":24.6675},{"id":31725,"name":"Tootsi","lat":58.57806,"lng":24.7925},{"id":31726,"name":"Tori vald","lat":58.48663,"lng":24.88961},{"id":31732,"name":"Uulu","lat":58.28361,"lng":24.58722},{"id":31749,"name":"Vändra","lat":58.64806,"lng":25.03611}]