[{"id":31603,"name":"Haapsalu","lat":58.94306,"lng":23.54139},{"id":31604,"name":"Haapsalu linn","lat":58.9358,"lng":23.53005},{"id":31609,"name":"Hullo","lat":58.99004,"lng":23.24441},{"id":31656,"name":"Lääne-Nigula vald","lat":58.96045,"lng":23.74489},{"id":31715,"name":"Taebla","lat":58.95389,"lng":23.75222},{"id":31731,"name":"Uuemõisa","lat":58.93944,"lng":23.58944},{"id":31746,"name":"Vormsi vald","lat":58.99986,"lng":23.23408}]