[{"id":679,"name":"Añatuya","lat":-28.46064,"lng":-62.83472},{"id":691,"name":"Beltrán","lat":-27.82913,"lng":-64.06098},{"id":717,"name":"Campo Gallo","lat":-26.58333,"lng":-62.85},{"id":771,"name":"Clodomira","lat":-27.5744,"lng":-64.13108},{"id":777,"name":"Colonia Dora","lat":-28.6,"lng":-62.95},{"id":820,"name":"Departamento de Aguirre","lat":-29.33333,"lng":-62.5},{"id":834,"name":"Departamento de Banda","lat":-27.5,"lng":-64.33333},{"id":861,"name":"Departamento de Choya","lat":-28.75,"lng":-64.75},{"id":904,"name":"Departamento de Guasayán","lat":-28.0,"lng":-64.83333},{"id":930,"name":"Departamento de Loreto","lat":-28.55,"lng":-64.33333},{"id":948,"name":"Departamento de Moreno","lat":-27.33333,"lng":-62.5},{"id":975,"name":"Departamento de Río Hondo","lat":-27.58333,"lng":-64.75},{"id":969,"name":"Departamento de Robles","lat":-27.83333,"lng":-63.91667},{"id":997,"name":"Departamento de San Martín","lat":-28.16667,"lng":-63.83333},{"id":1011,"name":"Departamento de Sarmiento","lat":-28.08333,"lng":-63.41667},{"id":1056,"name":"El Hoyo","lat":-27.02872,"lng":-63.23197},{"id":1176,"name":"La Banda","lat":-27.73348,"lng":-64.24278},{"id":1251,"name":"Los Juríes","lat":-28.46539,"lng":-62.10862},{"id":1255,"name":"Los Telares","lat":-28.98479,"lng":-63.44889},{"id":1315,"name":"Pampa de los Guanacos","lat":-26.23002,"lng":-61.83774},{"id":1369,"name":"Quimilí","lat":-27.64615,"lng":-62.41655},{"id":1445,"name":"San Pedro","lat":-27.95386,"lng":-65.16651},{"id":1473,"name":"Santiago del Estero","lat":-27.79511,"lng":-64.26149},{"id":1489,"name":"Sumampa","lat":-29.3847,"lng":-63.46907},{"id":1491,"name":"Suncho Corral","lat":-27.93357,"lng":-63.42938},{"id":1501,"name":"Termas de Río Hondo","lat":-27.49362,"lng":-64.85972},{"id":1506,"name":"Tintina","lat":-27.02687,"lng":-62.70643},{"id":1539,"name":"Villa Atamisqui","lat":-28.49609,"lng":-63.81609},{"id":1554,"name":"Villa General Mitre","lat":-29.1431,"lng":-62.65248},{"id":1569,"name":"Villa Ojo de Agua","lat":-29.50003,"lng":-63.69377}]