[{"id":638,"name":"Abra Pampa","lat":-22.72049,"lng":-65.69697},{"id":709,"name":"Caimancito","lat":-23.74069,"lng":-64.5937},{"id":713,"name":"Calilegua","lat":-23.77368,"lng":-64.77002},{"id":862,"name":"Departamento de Cochinoca","lat":-23.0,"lng":-65.83333},{"id":965,"name":"Departamento de Rinconada","lat":-22.5,"lng":-66.5},{"id":1025,"name":"Departamento de Tumbaya","lat":-23.71667,"lng":-65.66667},{"id":1047,"name":"El Aguilar","lat":-23.21572,"lng":-65.68005},{"id":1083,"name":"Fraile Pintado","lat":-23.94079,"lng":-64.79943},{"id":1147,"name":"Humahuaca","lat":-23.20544,"lng":-65.35048},{"id":1155,"name":"Ingenio La Esperanza","lat":-24.22554,"lng":-64.83896},{"id":1193,"name":"La Mendieta","lat":-24.31187,"lng":-64.96377},{"id":1199,"name":"La Quiaca","lat":-22.10236,"lng":-65.59299},{"id":1236,"name":"Libertador General San Martín","lat":-23.80644,"lng":-64.78757},{"id":1262,"name":"Maimará","lat":-23.62392,"lng":-65.40797},{"id":1310,"name":"Palma Sola","lat":-23.97771,"lng":-64.30311},{"id":1313,"name":"Palpalá","lat":-24.25647,"lng":-65.21163},{"id":1447,"name":"San Pedro de Jujuy","lat":-24.23127,"lng":-64.86614},{"id":1451,"name":"San Salvador de Jujuy","lat":-24.19457,"lng":-65.29712},{"id":1455,"name":"Santa Clara","lat":-24.30921,"lng":-64.66253},{"id":1503,"name":"Tilcara","lat":-23.57817,"lng":-65.39516},{"id":1597,"name":"Yuto","lat":-23.64342,"lng":-64.47194}]