[{"id":657,"name":"Aluminé","lat":-39.23686,"lng":-70.9197},{"id":660,"name":"Andacollo","lat":-37.17945,"lng":-70.66912},{"id":680,"name":"Añelo","lat":-38.35441,"lng":-68.7884},{"id":684,"name":"Barrancas","lat":-36.82344,"lng":-69.91564},{"id":706,"name":"Buta Ranquil","lat":-37.05222,"lng":-69.87713},{"id":746,"name":"Centenario","lat":-38.82955,"lng":-68.1318},{"id":766,"name":"Chos Malal","lat":-37.37809,"lng":-70.27085},{"id":814,"name":"Cutral-Có","lat":-38.93424,"lng":-69.23052},{"id":823,"name":"Departamento de Aluminé","lat":-39.16667,"lng":-71.0},{"id":833,"name":"Departamento de Añelo","lat":-38.16667,"lng":-69.0},{"id":855,"name":"Departamento de Catán-Lil","lat":-39.5,"lng":-70.33333},{"id":860,"name":"Departamento de Chos-Malal","lat":-36.91667,"lng":-70.16667},{"id":863,"name":"Departamento de Collón-Curá","lat":-40.08333,"lng":-70.16667},{"id":868,"name":"Departamento de Confluencia","lat":-38.83333,"lng":-68.83333},{"id":934,"name":"Departamento de Lácar","lat":-40.25,"lng":-71.2},{"id":944,"name":"Departamento de Minas","lat":-36.83333,"lng":-70.83333},{"id":1035,"name":"Departamento de Zapala","lat":-39.0,"lng":-69.83333},{"id":1057,"name":"El Huecú","lat":-37.64522,"lng":-70.58006},{"id":1172,"name":"Junín de los Andes","lat":-39.95043,"lng":-71.06936},{"id":1217,"name":"Las Coloradas","lat":-39.55534,"lng":-70.59491},{"id":1223,"name":"Las Lajas","lat":-38.52322,"lng":-70.36745},{"id":1226,"name":"Las Ovejas","lat":-36.98881,"lng":-70.74991},{"id":1238,"name":"Loncopué","lat":-38.07284,"lng":-70.61609},{"id":1272,"name":"Mariano Moreno","lat":-38.75029,"lng":-70.02367},{"id":1298,"name":"Neuquén","lat":-38.95161,"lng":-68.0591},{"id":1330,"name":"Picún Leufú","lat":-39.51614,"lng":-69.28765},{"id":1331,"name":"Piedra del Águila","lat":-40.04811,"lng":-70.0741},{"id":1337,"name":"Plaza Huincul","lat":-38.92598,"lng":-69.20863},{"id":1338,"name":"Plottier","lat":-38.96667,"lng":-68.23333},{"id":1442,"name":"San Martín de los Andes","lat":-40.15789,"lng":-71.35337},{"id":1483,"name":"Senillosa","lat":-39.01412,"lng":-68.43281},{"id":1559,"name":"Villa La Angostura","lat":-40.76173,"lng":-71.64631},{"id":1589,"name":"Vista Alegre","lat":-38.75,"lng":-68.18333},{"id":1598,"name":"Zapala","lat":-38.89916,"lng":-70.05442}]