[{"id":655,"name":"Alto Río Senguer","lat":-45.04105,"lng":-70.81982},{"id":715,"name":"Camarones","lat":-44.79709,"lng":-65.70994},{"id":787,"name":"Comodoro Rivadavia","lat":-45.86413,"lng":-67.49656},{"id":839,"name":"Departamento de Biedma","lat":-42.41667,"lng":-65.0},{"id":873,"name":"Departamento de Cushamen","lat":-42.5,"lng":-70.83333},{"id":880,"name":"Departamento de Escalante","lat":-45.33333,"lng":-67.33333},{"id":883,"name":"Departamento de Florentino Ameghino","lat":-44.41667,"lng":-66.16667},{"id":885,"name":"Departamento de Futaleufú","lat":-43.08333,"lng":-71.41667},{"id":886,"name":"Departamento de Gaimán","lat":-43.33333,"lng":-66.33333},{"id":887,"name":"Departamento de Gastre","lat":-42.83333,"lng":-68.66667},{"id":923,"name":"Departamento de Languiñeo","lat":-43.33333,"lng":-70.66667},{"id":949,"name":"Departamento de Mártires","lat":-43.83333,"lng":-67.16667},{"id":956,"name":"Departamento de Paso de Indios","lat":-44.0,"lng":-68.83333},{"id":963,"name":"Departamento de Rawson","lat":-43.12342,"lng":-65.10179},{"id":979,"name":"Departamento de Río Senguerr","lat":-45.33333,"lng":-70.83333},{"id":1012,"name":"Departamento de Sarmiento","lat":-45.33333,"lng":-69.0},{"id":1018,"name":"Departamento de Tehuelches","lat":-44.22132,"lng":-70.2526},{"id":1019,"name":"Departamento de Telsen","lat":-42.41667,"lng":-67.16667},{"id":1042,"name":"Dolavón","lat":-43.30684,"lng":-65.70651},{"id":1058,"name":"El Maitén","lat":-42.04924,"lng":-71.16693},{"id":1070,"name":"Esquel","lat":-42.91147,"lng":-71.31947},{"id":1087,"name":"Gaimán","lat":-43.2897,"lng":-65.4929},{"id":1092,"name":"Gastre","lat":-42.26186,"lng":-69.22112},{"id":1115,"name":"Gobernador Costa","lat":-44.04992,"lng":-70.59798},{"id":1141,"name":"Hoyo de Epuyén","lat":-42.07189,"lng":-71.50811},{"id":1169,"name":"José de San Martín","lat":-44.05032,"lng":-70.46967},{"id":1206,"name":"Lago Puelo","lat":-42.06684,"lng":-71.60384},{"id":1229,"name":"Las Plumas","lat":-43.72058,"lng":-67.28319},{"id":1359,"name":"Puerto Madryn","lat":-42.7692,"lng":-65.03851},{"id":1371,"name":"Rada Tilly","lat":-45.92462,"lng":-67.55424},{"id":1374,"name":"Rawson","lat":-43.30016,"lng":-65.10228},{"id":1393,"name":"Río Mayo","lat":-45.68573,"lng":-70.25797},{"id":1394,"name":"Río Pico","lat":-44.17905,"lng":-71.36847},{"id":1477,"name":"Sarmiento","lat":-45.58815,"lng":-69.06996},{"id":1499,"name":"Tecka","lat":-43.49489,"lng":-70.8102},{"id":1512,"name":"Trelew","lat":-43.24895,"lng":-65.30505},{"id":1516,"name":"Trevelin","lat":-43.0858,"lng":-71.46386}]