[{"id":652,"name":"Alpachiri","lat":-37.37704,"lng":-63.77445},{"id":654,"name":"Alta Italia","lat":-35.3335,"lng":-64.11496},{"id":662,"name":"Anguil","lat":-36.52567,"lng":-64.01025},{"id":666,"name":"Arata","lat":-35.63895,"lng":-64.35621},{"id":692,"name":"Bernardo Larroudé","lat":-35.02449,"lng":-63.58253},{"id":694,"name":"Bernasconi","lat":-37.90459,"lng":-63.7424},{"id":712,"name":"Caleufú","lat":-35.59559,"lng":-64.55778},{"id":740,"name":"Catriló","lat":-36.40597,"lng":-63.42168},{"id":775,"name":"Colonia Barón","lat":-36.15152,"lng":-63.85404},{"id":843,"name":"Departamento de Caleu-Caleu","lat":-38.58333,"lng":-64.0},{"id":1021,"name":"Departamento de Toay","lat":-36.58333,"lng":-64.8},{"id":1041,"name":"Doblas","lat":-37.14967,"lng":-64.01183},{"id":1046,"name":"Eduardo Castex","lat":-35.91501,"lng":-64.29448},{"id":1065,"name":"Embajador Martini","lat":-35.38633,"lng":-64.28092},{"id":1094,"name":"General Acha","lat":-37.37698,"lng":-64.60431},{"id":1107,"name":"General Manuel J. Campos","lat":-37.46025,"lng":-63.58537},{"id":1108,"name":"General Pico","lat":-35.65662,"lng":-63.75682},{"id":1113,"name":"General San Martín","lat":-37.97904,"lng":-63.60449},{"id":1130,"name":"Guatraché","lat":-37.66776,"lng":-63.53021},{"id":1153,"name":"Ingeniero Luiggi","lat":-35.38585,"lng":-64.46519},{"id":1157,"name":"Intendente Alvear","lat":-35.23383,"lng":-63.59205},{"id":1164,"name":"Jacinto Arauz","lat":-38.08606,"lng":-63.43169},{"id":1175,"name":"La Adela","lat":-38.98333,"lng":-64.08333},{"id":1192,"name":"La Maruja","lat":-35.6736,"lng":-64.93997},{"id":1240,"name":"Lonquimay","lat":-36.46546,"lng":-63.62429},{"id":1259,"name":"Macachín","lat":-37.13598,"lng":-63.6665},{"id":1281,"name":"Miguel Riglos","lat":-36.85398,"lng":-63.68842},{"id":1320,"name":"Parera","lat":-35.146,"lng":-64.50089},{"id":1367,"name":"Quemú Quemú","lat":-36.05463,"lng":-63.56428},{"id":1373,"name":"Rancul","lat":-35.06862,"lng":-64.68107},{"id":1375,"name":"Realicó","lat":-35.03658,"lng":-64.2447},{"id":1459,"name":"Santa Isabel","lat":-36.22724,"lng":-66.9424},{"id":1465,"name":"Santa Rosa","lat":-36.61667,"lng":-64.28333},{"id":1500,"name":"Telén","lat":-36.26429,"lng":-65.51018},{"id":1513,"name":"Trenel","lat":-35.69837,"lng":-64.13218},{"id":1523,"name":"Uriburu","lat":-36.50682,"lng":-63.86225},{"id":1527,"name":"Veinticinco de Mayo","lat":-37.7741,"lng":-67.71638},{"id":1534,"name":"Victorica","lat":-36.21505,"lng":-65.43586},{"id":1592,"name":"Winifreda","lat":-36.22643,"lng":-64.23388}]