[{"id":53440,"name":"Canillá","lat":15.16549,"lng":-90.85256},{"id":53445,"name":"Chajul","lat":15.48523,"lng":-91.0352},{"id":53449,"name":"Chicamán","lat":15.34786,"lng":-90.79968},{"id":53451,"name":"Chiché","lat":15.00885,"lng":-91.06379},{"id":53450,"name":"Chichicastenango","lat":14.94333,"lng":-91.11116},{"id":53454,"name":"Chinique","lat":15.04147,"lng":-91.02594},{"id":53477,"name":"Cunén","lat":15.33626,"lng":-91.02776},{"id":53515,"name":"Joyabaj","lat":14.99311,"lng":-90.80161},{"id":53545,"name":"Municipio de Canillá","lat":15.19546,"lng":-90.8597},{"id":53548,"name":"Municipio de Chajul","lat":15.4871,"lng":-91.03786},{"id":53549,"name":"Municipio de Chicaman","lat":15.34833,"lng":-90.79944},{"id":53551,"name":"Municipio de Chiché","lat":15.01196,"lng":-91.03836},{"id":53550,"name":"Municipio de Chichicastenango","lat":14.89203,"lng":-91.08808},{"id":53552,"name":"Municipio de Chinique","lat":15.06947,"lng":-91.01803},{"id":53559,"name":"Municipio de Cunén","lat":15.36312,"lng":-91.01889},{"id":53563,"name":"Municipio de Ixcan","lat":15.98333,"lng":-90.76667},{"id":53566,"name":"Municipio de Joyabaj","lat":14.98073,"lng":-90.82079},{"id":53573,"name":"Municipio de Pachalum","lat":14.91798,"lng":-90.65443},{"id":53575,"name":"Municipio de Patzité","lat":14.97097,"lng":-91.19722},{"id":53579,"name":"Municipio de San Andrés Sajcabajá","lat":15.22527,"lng":-90.93018},{"id":53580,"name":"Municipio de San Antonio Ilotenango","lat":15.04898,"lng":-91.20872},{"id":53585,"name":"Municipio de San Juan Cotzal","lat":15.42699,"lng":-91.02097},{"id":53588,"name":"Municipio de San Pedro Jocopilas","lat":15.15472,"lng":-91.1561},{"id":53600,"name":"Municipio de Uspantán","lat":15.44393,"lng":-90.84398},{"id":53601,"name":"Municipio de Zacualpa","lat":15.09239,"lng":-90.88514},{"id":53603,"name":"Nebaj","lat":15.40614,"lng":-91.14682},{"id":53614,"name":"Pachalum","lat":14.92472,"lng":-90.66278},{"id":53626,"name":"Patzité","lat":14.96426,"lng":-91.20788},{"id":53629,"name":"Playa Grande","lat":15.93333,"lng":-90.73333},{"id":53644,"name":"Sacapulas","lat":15.28801,"lng":-91.08914},{"id":53651,"name":"San Andrés Sajcabajá","lat":15.17603,"lng":-90.9422},{"id":53657,"name":"San Antonio Ilotenango","lat":15.05472,"lng":-91.22986},{"id":53663,"name":"San Bartolomé Jocotenango","lat":15.19153,"lng":-91.07806},{"id":53694,"name":"San Juan Cotzal","lat":15.43368,"lng":-91.03481},{"id":53705,"name":"San Luis Ixcán","lat":15.78722,"lng":-91.095},{"id":53731,"name":"San Pédro Jocopilas","lat":15.09525,"lng":-91.15135},{"id":53759,"name":"Santa Cruz del Quiché","lat":15.03085,"lng":-91.14871},{"id":53797,"name":"Uspantán","lat":15.34672,"lng":-90.8705},{"id":53802,"name":"Zacualpa","lat":15.02681,"lng":-90.87815}]