[{"id":53510,"name":"Jalapa","lat":14.63472,"lng":-89.98889},{"id":53531,"name":"Mataquescuintla","lat":14.52917,"lng":-90.18417},{"id":53536,"name":"Monjas","lat":14.5,"lng":-89.86667},{"id":53564,"name":"Municipio de Jalapa","lat":14.63275,"lng":-90.03301},{"id":53569,"name":"Municipio de Mataquescuintla","lat":14.54777,"lng":-90.20008},{"id":53706,"name":"San Luis Jilotepeque","lat":14.65,"lng":-89.73333},{"id":53707,"name":"San Manuel Chaparrón","lat":14.51667,"lng":-89.76667},{"id":53728,"name":"San Pedro Pinula","lat":14.66667,"lng":-89.85}]