[{"id":53468,"name":"Concepción","lat":14.78417,"lng":-91.14754},{"id":53572,"name":"Municipio de Nahualá","lat":14.77548,"lng":-91.41616},{"id":53574,"name":"Municipio de Panajachel","lat":14.74676,"lng":-91.14935},{"id":53591,"name":"Municipio de Santa Catarina Palopó","lat":14.71794,"lng":-91.1306},{"id":53592,"name":"Municipio de Santa Cruz La Laguna","lat":14.74324,"lng":-91.22178},{"id":53602,"name":"Nahualá","lat":14.8429,"lng":-91.31799},{"id":53619,"name":"Panajachel","lat":14.74185,"lng":-91.15676},{"id":53652,"name":"San Andrés Semetabaj","lat":14.74497,"lng":-91.13344},{"id":53659,"name":"San Antonio Palopó","lat":14.69232,"lng":-91.11638},{"id":53683,"name":"San José Chacayá","lat":14.77096,"lng":-91.21564},{"id":53697,"name":"San Juan La Laguna","lat":14.69453,"lng":-91.28666},{"id":53703,"name":"San Lucas Tolimán","lat":14.59471,"lng":-91.14659},{"id":53709,"name":"San Marcos La Laguna","lat":14.72504,"lng":-91.25844},{"id":53723,"name":"San Pablo La Laguna","lat":14.72092,"lng":-91.27242},{"id":53726,"name":"San Pedro La Laguna","lat":14.69297,"lng":-91.27201},{"id":53749,"name":"Santa Catarina Ixtahuacán","lat":14.79797,"lng":-91.35866},{"id":53751,"name":"Santa Catarina Palopó","lat":14.72335,"lng":-91.13428},{"id":53753,"name":"Santa Clara La Laguna","lat":14.71509,"lng":-91.30355},{"id":53755,"name":"Santa Cruz La Laguna","lat":14.74421,"lng":-91.20716},{"id":53764,"name":"Santa Lucía Utatlán","lat":14.77135,"lng":-91.267},{"id":53767,"name":"Santa María Visitación","lat":14.71717,"lng":-91.30844},{"id":53770,"name":"Santiago Atitlán","lat":14.63823,"lng":-91.22901},{"id":53782,"name":"Sololá","lat":14.77222,"lng":-91.18333}]