[{"id":53535,"name":"Momostenango","lat":15.04437,"lng":-91.40864},{"id":53570,"name":"Municipio de Momostenango","lat":15.04726,"lng":-91.40625},{"id":53594,"name":"Municipio de Santa María Chiquimula","lat":15.02886,"lng":-91.32917},{"id":53599,"name":"Municipio de Totonicapán","lat":14.90193,"lng":-91.31999},{"id":53654,"name":"San Andrés Xecul","lat":14.90482,"lng":-91.48307},{"id":53662,"name":"San Bartolo","lat":15.08438,"lng":-91.45606},{"id":53670,"name":"San Cristóbal Totonicapán","lat":14.91682,"lng":-91.4406},{"id":53674,"name":"San Francisco El Alto","lat":14.9449,"lng":-91.4431},{"id":53761,"name":"Santa Lucia La Reforma","lat":15.12819,"lng":-91.23619},{"id":53765,"name":"Santa María Chiquimula","lat":15.02992,"lng":-91.3292},{"id":53795,"name":"Totonicapán","lat":14.91167,"lng":-91.36111}]