[{"id":53446,"name":"Champerico","lat":14.29337,"lng":-91.91214},{"id":53481,"name":"El Asintal","lat":14.59626,"lng":-91.72744},{"id":53583,"name":"Municipio de San Felipe","lat":14.63009,"lng":-91.60261},{"id":53608,"name":"Nuevo San Carlos","lat":14.593,"lng":-91.6939},{"id":53641,"name":"Retalhuleu","lat":14.53611,"lng":-91.67778},{"id":53653,"name":"San Andrés Villa Seca","lat":14.57801,"lng":-91.58539},{"id":53672,"name":"San Felipe","lat":14.62304,"lng":-91.595},{"id":53712,"name":"San Martín Zapotitlán","lat":14.60794,"lng":-91.60613},{"id":53737,"name":"San Sebastián","lat":14.56177,"lng":-91.64865},{"id":53756,"name":"Santa Cruz Muluá","lat":14.58153,"lng":-91.62441}]