[{"id":53434,"name":"Barberena","lat":14.30739,"lng":-90.36156},{"id":53442,"name":"Casillas","lat":14.42222,"lng":-90.24417},{"id":53456,"name":"Chiquimulilla","lat":14.0838,"lng":-90.38547},{"id":53475,"name":"Cuilapa","lat":14.27639,"lng":-90.29889},{"id":53501,"name":"Guazacapán","lat":14.07417,"lng":-90.41667},{"id":53547,"name":"Municipio de Casillas","lat":14.37854,"lng":-90.1726},{"id":53553,"name":"Municipio de Chiquimulilla","lat":14.09716,"lng":-90.37903},{"id":53562,"name":"Municipio de Guazacapán","lat":14.01786,"lng":-90.434},{"id":53606,"name":"Nueva Santa Rosa","lat":14.38111,"lng":-90.27611},{"id":53612,"name":"Oratorio","lat":14.22806,"lng":-90.17583},{"id":53633,"name":"Pueblo Nuevo Viñas","lat":14.22576,"lng":-90.47613},{"id":53699,"name":"San Juan Tecuaco","lat":14.08361,"lng":-90.26649},{"id":53733,"name":"San Rafael Las Flores","lat":14.48139,"lng":-90.17333},{"id":53757,"name":"Santa Cruz Naranjo","lat":14.38806,"lng":-90.36972},{"id":53766,"name":"Santa María Ixhuatán","lat":14.19,"lng":-90.27472},{"id":53769,"name":"Santa Rosa de Lima","lat":14.38806,"lng":-90.29556},{"id":53789,"name":"Taxisco","lat":14.06719,"lng":-90.46791}]