[{"id":53430,"name":"Amatitlán","lat":14.4774,"lng":-90.63489},{"id":53453,"name":"Chinautla","lat":14.70289,"lng":-90.49983},{"id":53458,"name":"Chuarrancho","lat":14.81794,"lng":-90.51568},{"id":53496,"name":"Fraijanes","lat":14.46528,"lng":-90.44083},{"id":53500,"name":"Guatemala City","lat":14.64072,"lng":-90.51327},{"id":53534,"name":"Mixco","lat":14.63077,"lng":-90.60711},{"id":53616,"name":"Palencia","lat":14.66715,"lng":-90.35721},{"id":53628,"name":"Petapa","lat":14.50189,"lng":-90.56196},{"id":53690,"name":"San José del Golfo","lat":14.76414,"lng":-90.37228},{"id":53688,"name":"San José Pinula","lat":14.546,"lng":-90.41288},{"id":53698,"name":"San Juan Sacatepéquez","lat":14.71889,"lng":-90.64417},{"id":53724,"name":"San Pedro Ayampuc","lat":14.77943,"lng":-90.45318},{"id":53730,"name":"San Pedro Sacatepéquez","lat":14.68612,"lng":-90.64253},{"id":53736,"name":"San Raimundo","lat":14.76462,"lng":-90.59493},{"id":53752,"name":"Santa Catarina Pinula","lat":14.57047,"lng":-90.49925},{"id":53798,"name":"Villa Canales","lat":14.48285,"lng":-90.53425},{"id":53799,"name":"Villa Nueva","lat":14.52512,"lng":-90.58544}]