[{"id":53474,"name":"Cubulco","lat":15.10452,"lng":-90.62871},{"id":53482,"name":"El Chol","lat":14.96055,"lng":-90.48799},{"id":53497,"name":"Granados","lat":14.91649,"lng":-90.52292},{"id":53636,"name":"Purulhá","lat":15.26667,"lng":-90.2},{"id":53640,"name":"Rabinal","lat":15.0853,"lng":-90.49255},{"id":53645,"name":"Salamá","lat":15.10278,"lng":-90.31806},{"id":53680,"name":"San Jerónimo","lat":15.06032,"lng":-90.2405},{"id":53716,"name":"San Miguel Chicaj","lat":15.09472,"lng":-90.39442}]