[{"id":53491,"name":"Escuintla","lat":14.305,"lng":-90.785},{"id":53498,"name":"Guanagazapa","lat":14.22528,"lng":-90.64333},{"id":53508,"name":"Iztapa","lat":13.93333,"lng":-90.7075},{"id":53517,"name":"La Democracia","lat":14.23083,"lng":-90.94722},{"id":53519,"name":"La Gomera","lat":14.08213,"lng":-91.05383},{"id":53530,"name":"Masagua","lat":14.20306,"lng":-90.84806},{"id":53605,"name":"Nueva Concepción","lat":14.2,"lng":-91.3},{"id":53618,"name":"Palín","lat":14.40358,"lng":-90.69659},{"id":53635,"name":"Puerto San José","lat":13.9274,"lng":-90.82166},{"id":53740,"name":"San Vicente Pacaya","lat":14.41466,"lng":-90.63613},{"id":53762,"name":"Santa Lucía Cotzumalguapa","lat":14.33505,"lng":-91.02339},{"id":53781,"name":"Siquinalá","lat":14.30611,"lng":-90.965},{"id":53793,"name":"Tiquisate","lat":14.28356,"lng":-91.36063}]