[{"id":80565,"name":"Atalaya","lat":-10.3898,"lng":-73.21977},{"id":80589,"name":"Campoverde","lat":-8.47533,"lng":-74.80709},{"id":80744,"name":"Padre Abad","lat":-8.7968,"lng":-75.4285},{"id":80815,"name":"Provincia de Coronel Portillo","lat":-9.5,"lng":-73.33333},{"id":80913,"name":"Pucallpa","lat":-8.37915,"lng":-74.55387},{"id":80925,"name":"Purus","lat":-10.37331,"lng":-71.58231}]