[{"id":80572,"name":"Bagua Grande","lat":-5.75611,"lng":-78.44111},{"id":80582,"name":"Cajaruro","lat":-5.73639,"lng":-78.42556},{"id":80602,"name":"Chachapoyas","lat":-6.23169,"lng":-77.86903},{"id":80632,"name":"Condorcanqui","lat":-4.16515,"lng":-78.0384},{"id":80689,"name":"La Peca","lat":-5.61111,"lng":-78.435},{"id":80781,"name":"Provincia de Bagua","lat":-5.09006,"lng":-78.39972},{"id":80784,"name":"Provincia de Bongará","lat":-5.68341,"lng":-77.87308},{"id":80803,"name":"Provincia de Chachapoyas","lat":-6.2748,"lng":-77.81067},{"id":80857,"name":"Provincia de Luya","lat":-6.41667,"lng":-78.0},{"id":80885,"name":"Provincia de Rodríguez de Mendoza","lat":-6.33333,"lng":-77.41667},{"id":81006,"name":"Utcubamba","lat":-5.77031,"lng":-78.3285}]