[{"id":80558,"name":"Ambo","lat":-10.13083,"lng":-76.20472},{"id":80646,"name":"Huacaybamba","lat":-8.9948,"lng":-76.81027},{"id":80665,"name":"Huánuco","lat":-9.93062,"lng":-76.24223},{"id":80699,"name":"Lauricocha","lat":-10.20055,"lng":-76.70359},{"id":80703,"name":"Llata","lat":-9.41667,"lng":-76.78333},{"id":80771,"name":"Provincia de Ambo","lat":-10.16667,"lng":-76.16667},{"id":80821,"name":"Provincia de Dos de Mayo","lat":-9.91667,"lng":-76.75},{"id":80828,"name":"Provincia de Huamalíes","lat":-9.25,"lng":-76.5},{"id":80842,"name":"Provincia de Huánuco","lat":-9.66667,"lng":-76.08333},{"id":80855,"name":"Provincia de Leoncio Prado","lat":-9.16667,"lng":-76.0},{"id":80859,"name":"Provincia de Marañón","lat":-8.75,"lng":-76.66667},{"id":80869,"name":"Provincia de Pachitea","lat":-9.95262,"lng":-75.8139},{"id":80917,"name":"Puerto Inca","lat":-9.36696,"lng":-75.08958},{"id":80952,"name":"San Miguel de Cauri","lat":-10.13818,"lng":-76.62288},{"id":80992,"name":"Tingo María","lat":-9.29532,"lng":-75.99574},{"id":81014,"name":"Yanacancha","lat":-10.24111,"lng":-76.64556},{"id":81016,"name":"Yarowilca","lat":-9.80263,"lng":-76.59516}]