[{"id":80557,"name":"Aguas Verdes","lat":-3.48139,"lng":-80.245},{"id":80751,"name":"Papayal","lat":-4.07771,"lng":-80.7369},{"id":80813,"name":"Provincia de Contralmirante Villar","lat":-4.0,"lng":-80.75},{"id":80905,"name":"Provincia de Tumbes","lat":-3.75,"lng":-80.41667},{"id":80912,"name":"Provincia de Zarumilla","lat":-3.66667,"lng":-80.25},{"id":80999,"name":"Tumbes","lat":-3.56694,"lng":-80.45153},{"id":81021,"name":"Zarumilla","lat":-3.50306,"lng":-80.27306},{"id":81022,"name":"Zorritos","lat":-3.68046,"lng":-80.67819}]