[{"id":80567,"name":"Ayabaca","lat":-4.63983,"lng":-79.71491},{"id":80577,"name":"Bernal","lat":-5.45,"lng":-80.75},{"id":80578,"name":"Buenos Aires","lat":-5.26083,"lng":-79.96417},{"id":80596,"name":"Catacaos","lat":-5.26667,"lng":-80.68333},{"id":80624,"name":"Chulucanas","lat":-5.0925,"lng":-80.1625},{"id":80638,"name":"El Alto","lat":-4.26851,"lng":-81.21719},{"id":80650,"name":"Huancabamba","lat":-5.23861,"lng":-79.45056},{"id":80686,"name":"La Breita","lat":-4.25691,"lng":-80.88599},{"id":80687,"name":"La Huaca","lat":-4.91167,"lng":-80.96},{"id":80691,"name":"La Unión","lat":-5.40232,"lng":-80.74224},{"id":80698,"name":"Las Lomas","lat":-4.65333,"lng":-80.24667},{"id":80727,"name":"Máncora","lat":-4.10778,"lng":-81.0475},{"id":80711,"name":"Marcavelica","lat":-4.87778,"lng":-80.70528},{"id":80721,"name":"Morropon","lat":-5.25,"lng":-80.0},{"id":80746,"name":"Paita","lat":-5.08917,"lng":-81.11444},{"id":80765,"name":"Piura","lat":-5.19449,"lng":-80.63282},{"id":80778,"name":"Provincia de Ayabaca","lat":-4.75,"lng":-79.83333},{"id":80831,"name":"Provincia de Huancabamba","lat":-5.5,"lng":-79.58333},{"id":80870,"name":"Provincia de Paita","lat":-5.10189,"lng":-81.09695},{"id":80879,"name":"Provincia de Piura","lat":-5.21416,"lng":-80.40617},{"id":80896,"name":"Provincia de Sullana","lat":-4.5,"lng":-80.66667},{"id":80899,"name":"Provincia de Talara","lat":-4.41667,"lng":-81.08333},{"id":80927,"name":"Querecotillo","lat":-4.83778,"lng":-80.64556},{"id":80937,"name":"Salinera Colán","lat":-5.03333,"lng":-81.06667},{"id":80938,"name":"Salitral","lat":-4.85722,"lng":-80.68111},{"id":80973,"name":"Sechura","lat":-5.55694,"lng":-80.82222},{"id":80979,"name":"Sullana","lat":-4.90389,"lng":-80.68528},{"id":80983,"name":"Talara","lat":-4.57722,"lng":-81.27194},{"id":80986,"name":"Tambo Grande","lat":-4.92694,"lng":-80.34472},{"id":81007,"name":"Vice","lat":-5.41667,"lng":-80.78333}]