[{"id":80554,"name":"Abancay","lat":-13.63389,"lng":-72.88139},{"id":80559,"name":"Andahuaylas","lat":-13.65556,"lng":-73.38722},{"id":80767,"name":"Provincia de Abancay","lat":-13.66667,"lng":-72.91667},{"id":80772,"name":"Provincia de Andahuaylas","lat":-13.66667,"lng":-73.41667},{"id":80775,"name":"Provincia de Antabamba","lat":-14.41667,"lng":-72.75},{"id":80779,"name":"Provincia de Aymaraes","lat":-14.41667,"lng":-73.25},{"id":80817,"name":"Provincia de Cotabambas","lat":-14.0,"lng":-72.2},{"id":80825,"name":"Provincia de Grau","lat":-14.0,"lng":-72.58333},{"id":80984,"name":"Talavera","lat":-13.65306,"lng":-73.42917}]