[{"id":155046,"name":"Bojnik","lat":43.0396233,"lng":21.502293},{"id":155050,"name":"Crna Trava","lat":42.8122649,"lng":22.2688572},{"id":97239,"name":"Kamenica","lat":44.343,"lng":19.72333},{"id":155048,"name":"Lebane","lat":42.9231294,"lng":21.7158936},{"id":97272,"name":"Leskovac","lat":42.99806,"lng":21.94611},{"id":155049,"name":"Medveđa","lat":42.8327856,"lng":21.533889},{"id":155047,"name":"Vlasotince","lat":42.9664898,"lng":22.0939966}]