[{"id":155090,"name":"Blace","lat":43.2987419,"lng":21.2484485},{"id":97452,"name":"Ðurići","lat":43.82533,"lng":19.41233},{"id":97265,"name":"Kupinovo","lat":44.70708,"lng":20.04959},{"id":155092,"name":"Kuršumlija","lat":43.1378428,"lng":21.2430921},{"id":97349,"name":"Prokuplje","lat":43.23417,"lng":21.58806},{"id":155091,"name":"Žitorađa","lat":43.1849275,"lng":21.6164132}]