[{"id":97149,"name":"Badovinci","lat":44.78534,"lng":19.37146},{"id":97157,"name":"Banovo Polje","lat":44.9104,"lng":19.44916},{"id":97172,"name":"Belotić","lat":44.81782,"lng":19.54801},{"id":97177,"name":"Bogatić","lat":44.8499741,"lng":19.4013499},{"id":97179,"name":"Bogosavac","lat":44.71799,"lng":19.59533},{"id":97186,"name":"Brdarica","lat":44.55376,"lng":19.7715},{"id":97187,"name":"Bukor","lat":44.49523,"lng":19.57116},{"id":97462,"name":"Čokešina","lat":44.65319,"lng":19.39016},{"id":97190,"name":"Crna Bara","lat":44.87374,"lng":19.3948},{"id":97195,"name":"Dobrić","lat":44.70224,"lng":19.57931},{"id":97196,"name":"Donji Dobrić","lat":44.61183,"lng":19.33109},{"id":97199,"name":"Draginje","lat":44.53302,"lng":19.7625},{"id":97209,"name":"Glušci","lat":44.89021,"lng":19.54913},{"id":97227,"name":"Jadranska Lešnica","lat":44.5973,"lng":19.35209},{"id":97235,"name":"Jelenča","lat":44.727,"lng":19.735},{"id":97237,"name":"Jevremovac","lat":44.72172,"lng":19.66364},{"id":155054,"name":"Koceljeva","lat":44.4629934,"lng":19.7868054},{"id":97254,"name":"Kozjak","lat":45.18264,"lng":20.86381},{"id":97260,"name":"Krupanj","lat":44.36556,"lng":19.36194},{"id":97273,"name":"Lešnica","lat":44.6525,"lng":19.31},{"id":97274,"name":"Lipnički Šor","lat":44.58058,"lng":19.26572},{"id":97275,"name":"Lipolist","lat":44.69783,"lng":19.50101},{"id":97277,"name":"Ljubovija","lat":44.18944,"lng":19.37667},{"id":97289,"name":"Mačva","lat":44.61472,"lng":19.47222},{"id":97285,"name":"Majur","lat":44.77105,"lng":19.65512},{"id":97287,"name":"Mali Zvornik","lat":44.37344,"lng":19.10651},{"id":97292,"name":"Metković","lat":44.85617,"lng":19.54654},{"id":97318,"name":"Novo Selo","lat":44.67041,"lng":19.34495},{"id":97334,"name":"Petkovica","lat":44.66627,"lng":19.43923},{"id":97340,"name":"Pocerski Pričinović","lat":44.72222,"lng":19.70722},{"id":97362,"name":"Ribari","lat":44.70961,"lng":19.42472},{"id":97366,"name":"Rumska","lat":44.57261,"lng":19.58988},{"id":97465,"name":"Šabac","lat":44.74667,"lng":19.69},{"id":97371,"name":"Salaš Crnobarski","lat":44.82843,"lng":19.39437},{"id":97468,"name":"Ševarice","lat":44.86704,"lng":19.66006},{"id":97380,"name":"Sinošević","lat":44.61503,"lng":19.63601},{"id":97471,"name":"Štitar","lat":44.79415,"lng":19.59529},{"id":97416,"name":"Tršić","lat":44.49502,"lng":19.2649},{"id":97423,"name":"Uzveće","lat":44.87861,"lng":19.60356},{"id":97434,"name":"Vladimirci","lat":44.61472,"lng":19.78528},{"id":97449,"name":"Zminjak","lat":44.75711,"lng":19.4707}]