[{"id":155078,"name":"Aleksandrovac","lat":43.4598942,"lng":21.0308789},{"id":155079,"name":"Brus","lat":43.383762,"lng":21.0065673},{"id":97454,"name":"Ćićevac","lat":43.71882,"lng":21.44085},{"id":97261,"name":"Kruševac","lat":43.58,"lng":21.33389},{"id":97415,"name":"Trstenik","lat":43.61694,"lng":21.0025},{"id":155080,"name":"Varvarin","lat":43.7230694,"lng":21.3409852}]