[{"id":97212,"name":"Gornja Bukovica","lat":44.33987,"lng":19.81368},{"id":97238,"name":"Joševa","lat":44.58772,"lng":19.40967},{"id":155051,"name":"Lajkovac","lat":44.3680995,"lng":20.1411036},{"id":97276,"name":"Ljig","lat":44.2228104,"lng":20.2138996},{"id":155052,"name":"Mionica","lat":44.2559528,"lng":20.0596617},{"id":97323,"name":"Osečina","lat":44.3720267,"lng":19.5792674},{"id":155053,"name":"Ub","lat":44.4559411,"lng":20.0448988},{"id":97425,"name":"Valjevo","lat":44.27513,"lng":19.89821}]