[{"id":97145,"name":"Apatin","lat":45.6726,"lng":18.978},{"id":97163,"name":"Bački Breg","lat":45.92034,"lng":18.92944},{"id":97178,"name":"Bogojevo","lat":45.53015,"lng":19.13022},{"id":97198,"name":"Doroslovo","lat":45.60699,"lng":19.18868},{"id":97206,"name":"Gakovo","lat":45.90078,"lng":19.06138},{"id":97249,"name":"Kolut","lat":45.89292,"lng":18.9276},{"id":155093,"name":"Kula","lat":45.6070631,"lng":19.4605664},{"id":97266,"name":"Kupusina","lat":45.73759,"lng":19.01082},{"id":155094,"name":"Odžaci","lat":45.5020656,"lng":19.2048714},{"id":97345,"name":"Prigrevica","lat":45.67636,"lng":19.08809},{"id":97363,"name":"Riđica","lat":45.99088,"lng":19.10635},{"id":97386,"name":"Sombor","lat":45.77417,"lng":19.11222},{"id":97387,"name":"Sonta","lat":45.59427,"lng":19.09719},{"id":97394,"name":"Stanišić","lat":45.93895,"lng":19.16709}]