[{"id":97148,"name":"Arilje","lat":43.75306,"lng":20.09556},{"id":97150,"name":"Bajina Bašta","lat":43.97083,"lng":19.5675},{"id":97456,"name":"Čajetina","lat":43.74977,"lng":19.71273},{"id":155097,"name":"Kosjerić","lat":43.9999215,"lng":19.8915676},{"id":155098,"name":"Nova Varoš","lat":43.4656811,"lng":19.7673647},{"id":97324,"name":"Osječenik","lat":43.14528,"lng":19.85889},{"id":155099,"name":"Požega","lat":43.8403358,"lng":19.996919},{"id":97344,"name":"Priboj","lat":43.58306,"lng":19.52519},{"id":97346,"name":"Prijepolje","lat":43.38996,"lng":19.6487},{"id":97381,"name":"Sjenica","lat":43.27306,"lng":19.99944},{"id":97424,"name":"Užice","lat":43.85861,"lng":19.84878}]