[{"id":97169,"name":"Belegiš","lat":45.0192,"lng":20.33323},{"id":97175,"name":"Beška","lat":45.13092,"lng":20.06698},{"id":97183,"name":"Bosut","lat":44.92977,"lng":19.36086},{"id":97188,"name":"Buđanovci","lat":44.89388,"lng":19.86344},{"id":97463,"name":"Čortanovci","lat":45.1546,"lng":20.01851},{"id":97211,"name":"Golubinci","lat":44.98533,"lng":20.06339},{"id":97216,"name":"Grabovci","lat":44.76496,"lng":19.84489},{"id":97220,"name":"Hrtkovci","lat":44.88155,"lng":19.76374},{"id":97223,"name":"Inđija","lat":45.04816,"lng":20.08165},{"id":97224,"name":"Irig","lat":45.0523,"lng":19.84448},{"id":97230,"name":"Jarak","lat":44.91843,"lng":19.75477},{"id":97244,"name":"Klenak","lat":44.78846,"lng":19.71004},{"id":97262,"name":"Krčedin","lat":45.13871,"lng":20.13308},{"id":97278,"name":"Ljukovo","lat":45.02604,"lng":20.02737},{"id":97290,"name":"Mačvanska Mitrovica","lat":44.96739,"lng":19.59314},{"id":97303,"name":"Nikinci","lat":44.85017,"lng":19.82321},{"id":97308,"name":"Nova Pazova","lat":44.94366,"lng":20.21931},{"id":97309,"name":"Novi Banovci","lat":44.95691,"lng":20.28076},{"id":97311,"name":"Novi Karlovci","lat":45.07636,"lng":20.17948},{"id":97316,"name":"Novi Slankamen","lat":45.12554,"lng":20.23914},{"id":97336,"name":"Pećinci","lat":44.90889,"lng":19.96639},{"id":97339,"name":"Platičevo","lat":44.82213,"lng":19.79487},{"id":97350,"name":"Putinci","lat":44.99259,"lng":19.97102},{"id":97353,"name":"Radenković","lat":44.92191,"lng":19.49543},{"id":97359,"name":"Ravnje","lat":44.94326,"lng":19.4228},{"id":97364,"name":"Ruma","lat":45.00806,"lng":19.82222},{"id":97372,"name":"Salaš Noćajski","lat":44.94722,"lng":19.58611},{"id":97467,"name":"Šašinci","lat":44.96514,"lng":19.74151},{"id":155085,"name":"Šid","lat":45.1496922,"lng":19.1284499},{"id":97470,"name":"Šimanovci","lat":44.87393,"lng":20.09175},{"id":97388,"name":"Sremska Mitrovica","lat":44.97639,"lng":19.61222},{"id":97395,"name":"Stara Pazova","lat":44.985,"lng":20.16083},{"id":97396,"name":"Stari Banovci","lat":44.9842,"lng":20.28382},{"id":97403,"name":"Surduk","lat":45.07118,"lng":20.3251},{"id":97433,"name":"Višnjićevo","lat":44.96731,"lng":19.28993},{"id":97437,"name":"Vojka","lat":44.93713,"lng":20.15236},{"id":97442,"name":"Vrdnik","lat":45.12174,"lng":19.79227}]