[{"id":62290,"name":"Aberdeen","lat":18.20508,"lng":-77.67932},{"id":62293,"name":"Accompong","lat":18.22985,"lng":-77.74816},{"id":62303,"name":"Alligator Pond","lat":17.86932,"lng":-77.56769},{"id":62326,"name":"Balaclava","lat":18.17228,"lng":-77.64375},{"id":62328,"name":"Ballards Valley","lat":17.87949,"lng":-77.63086},{"id":62333,"name":"Barbary Hall","lat":17.968,"lng":-77.77961},{"id":62360,"name":"Bigwoods","lat":17.93338,"lng":-77.71897},{"id":62363,"name":"Black River","lat":18.02636,"lng":-77.84873},{"id":62371,"name":"Bogue","lat":18.13619,"lng":-77.6697},{"id":62381,"name":"Braes River","lat":18.09351,"lng":-77.66487},{"id":62390,"name":"Brighton","lat":18.14836,"lng":-77.85604},{"id":62393,"name":"Brompton","lat":18.06795,"lng":-77.88821},{"id":62401,"name":"Bull Savanna","lat":17.88678,"lng":-77.59022},{"id":62402,"name":"Bull Savannah","lat":17.88056,"lng":-77.59},{"id":62405,"name":"Burnt Savannah","lat":18.03177,"lng":-77.74936},{"id":62419,"name":"Carisbrook","lat":18.14742,"lng":-77.77367},{"id":62483,"name":"Cotterwood","lat":18.09492,"lng":-77.91553},{"id":62487,"name":"Crawford","lat":18.0506,"lng":-77.91596},{"id":62534,"name":"Elderslie","lat":18.22416,"lng":-77.79381},{"id":62577,"name":"Fullerswood","lat":18.01527,"lng":-77.77572},{"id":62584,"name":"Giddy Hall","lat":18.09702,"lng":-77.86764},{"id":62586,"name":"Ginger Hill","lat":18.1918,"lng":-77.84867},{"id":62599,"name":"Goshen","lat":18.04964,"lng":-77.64136},{"id":62651,"name":"Holland","lat":18.10358,"lng":-77.80164},{"id":62655,"name":"Hopeton","lat":17.95626,"lng":-77.66239},{"id":62682,"name":"Junction","lat":17.91467,"lng":-77.59894},{"id":62699,"name":"Lacovia","lat":18.08844,"lng":-77.7535},{"id":62705,"name":"Leeds","lat":18.01399,"lng":-77.68374},{"id":62717,"name":"Lititz","lat":17.94033,"lng":-77.59511},{"id":62739,"name":"Maggotty","lat":18.17343,"lng":-77.76681},{"id":62743,"name":"Malvern","lat":17.96667,"lng":-77.7},{"id":62770,"name":"Merrywood","lat":18.21793,"lng":-77.83773},{"id":62771,"name":"Middle Quarters","lat":18.11455,"lng":-77.83808},{"id":62805,"name":"Mountainside","lat":17.98077,"lng":-77.74786},{"id":62806,"name":"Mulgrave","lat":18.21164,"lng":-77.82018},{"id":62807,"name":"Myersville","lat":17.99699,"lng":-77.62425},{"id":62809,"name":"Nain","lat":17.96526,"lng":-77.60528},{"id":62818,"name":"New Market","lat":18.15362,"lng":-77.90962},{"id":62823,"name":"Newell","lat":17.92103,"lng":-77.74653},{"id":62826,"name":"Newton","lat":18.11095,"lng":-77.72352},{"id":62854,"name":"Parottee","lat":17.96174,"lng":-77.81774},{"id":62872,"name":"Pedro Plains","lat":17.88569,"lng":-77.71337},{"id":62877,"name":"Pepper","lat":18.02105,"lng":-77.61284},{"id":62884,"name":"Pisgah","lat":18.19605,"lng":-77.88671},{"id":62889,"name":"Pondside","lat":17.98153,"lng":-77.7945},{"id":62902,"name":"Potsdam","lat":17.91872,"lng":-77.66869},{"id":62909,"name":"Quick Step","lat":18.23281,"lng":-77.67831},{"id":62915,"name":"Red Bank","lat":17.93776,"lng":-77.62585},{"id":62923,"name":"Retirement","lat":18.2074,"lng":-77.76698},{"id":62951,"name":"Rose Hall","lat":17.92654,"lng":-77.64153},{"id":62960,"name":"Russels","lat":17.98638,"lng":-77.65065},{"id":62971,"name":"Santa Cruz","lat":18.05336,"lng":-77.69836},{"id":62976,"name":"Scholefield","lat":18.02375,"lng":-77.71884},{"id":62993,"name":"Siloah","lat":18.16334,"lng":-77.71061},{"id":62996,"name":"Slipe","lat":18.0574,"lng":-77.79687},{"id":63004,"name":"Southfield","lat":17.88212,"lng":-77.66988},{"id":63017,"name":"Springfield","lat":18.17662,"lng":-77.87392},{"id":63049,"name":"Thornton","lat":18.19564,"lng":-77.72246},{"id":63054,"name":"Top Hill","lat":17.89317,"lng":-77.63793},{"id":63062,"name":"Treasure Beach","lat":17.8955,"lng":-77.76051},{"id":63083,"name":"Warminister","lat":17.96238,"lng":-77.63956},{"id":63086,"name":"Watchwell","lat":17.93876,"lng":-77.7725},{"id":63100,"name":"White Hill","lat":18.15646,"lng":-77.81067}]