[{"id":62294,"name":"Adelphi","lat":18.4506,"lng":-77.7859},{"id":62298,"name":"Albion","lat":18.48471,"lng":-77.91408},{"id":62312,"name":"Anchovy","lat":18.4103,"lng":-77.93166},{"id":62315,"name":"Arcadia","lat":18.24993,"lng":-77.79228},{"id":62337,"name":"Barrett Town","lat":18.50871,"lng":-77.79625},{"id":62358,"name":"Bickersteth","lat":18.36335,"lng":-77.93651},{"id":62370,"name":"Bogue","lat":18.43722,"lng":-77.92022},{"id":62386,"name":"Brandon Hill","lat":18.47767,"lng":-77.91117},{"id":62415,"name":"Cambridge","lat":18.31308,"lng":-77.89546},{"id":62418,"name":"Canterbury","lat":18.47919,"lng":-77.91655},{"id":62429,"name":"Catadupa","lat":18.28052,"lng":-77.86579},{"id":62430,"name":"Catherine Hall","lat":18.46258,"lng":-77.92286},{"id":62431,"name":"Catherine Mount","lat":18.45672,"lng":-77.89691},{"id":62469,"name":"Comfort Hall","lat":18.4127,"lng":-77.91814},{"id":62480,"name":"Coral Gardens","lat":18.50791,"lng":-77.88034},{"id":62481,"name":"Cornwall","lat":18.4893,"lng":-77.81016},{"id":62516,"name":"Down Town Montego Bay","lat":18.47726,"lng":-77.92031},{"id":62525,"name":"Dumfries","lat":18.42973,"lng":-77.75593},{"id":62546,"name":"Fairfield","lat":18.45079,"lng":-77.91235},{"id":62551,"name":"Farm Heights","lat":18.46869,"lng":-77.8776},{"id":62555,"name":"Flagstaff","lat":18.35412,"lng":-77.77132},{"id":62556,"name":"Flamstead","lat":18.31409,"lng":-77.81316},{"id":62557,"name":"Flankers","lat":18.50265,"lng":-77.90831},{"id":62560,"name":"Flower Hill","lat":18.48426,"lng":-77.83913},{"id":62572,"name":"Friendship","lat":18.4459,"lng":-77.86242},{"id":62579,"name":"Garlands","lat":18.27811,"lng":-77.78908},{"id":62588,"name":"Glendevon","lat":18.48488,"lng":-77.8971},{"id":62597,"name":"Goodwill","lat":18.4695,"lng":-77.75646},{"id":62604,"name":"Granville","lat":18.44191,"lng":-77.89402},{"id":62611,"name":"Green Pond","lat":18.47361,"lng":-77.87779},{"id":62615,"name":"Greenwood","lat":18.49768,"lng":-77.75243},{"id":62656,"name":"Hopeton","lat":18.39858,"lng":-77.86826},{"id":62664,"name":"Ironshore","lat":18.51323,"lng":-77.85108},{"id":62665,"name":"Irwin","lat":18.44949,"lng":-77.87722},{"id":62675,"name":"John's Hall","lat":18.42849,"lng":-77.8501},{"id":62709,"name":"Lilliput","lat":18.50591,"lng":-77.77686},{"id":62730,"name":"Lottery","lat":18.41499,"lng":-77.80696},{"id":62742,"name":"Maldon","lat":18.33831,"lng":-77.80998},{"id":62754,"name":"Maroon Town","lat":18.34464,"lng":-77.79544},{"id":62779,"name":"Mocho","lat":18.29135,"lng":-77.8258},{"id":62784,"name":"Montego Bay","lat":18.47116,"lng":-77.91883},{"id":62785,"name":"Montego Hill","lat":18.48038,"lng":-77.8815},{"id":62786,"name":"Montpelier","lat":18.37612,"lng":-77.91357},{"id":62794,"name":"Mount Carey","lat":18.38888,"lng":-77.94374},{"id":62795,"name":"Mount Horeb","lat":18.33322,"lng":-77.86675},{"id":62801,"name":"Mount Salem","lat":18.46601,"lng":-77.90793},{"id":62828,"name":"Niagara","lat":18.26534,"lng":-77.81879},{"id":62833,"name":"Norwood","lat":18.49217,"lng":-77.88634},{"id":62842,"name":"Orange","lat":18.45395,"lng":-77.82779},{"id":62852,"name":"Paradise","lat":18.49401,"lng":-77.90982},{"id":62885,"name":"Pitfour","lat":18.43206,"lng":-77.89007},{"id":62899,"name":"Porto Bello","lat":18.46607,"lng":-77.86989},{"id":62914,"name":"Reading","lat":18.43723,"lng":-77.9473},{"id":62922,"name":"Retirement","lat":18.43742,"lng":-77.88004},{"id":62926,"name":"Retrieve","lat":18.28901,"lng":-77.90081},{"id":62948,"name":"Roehampton","lat":18.39897,"lng":-77.89926},{"id":62950,"name":"Rose Hall","lat":18.51228,"lng":-77.81833},{"id":62952,"name":"Rose Heights","lat":18.46945,"lng":-77.89533},{"id":62954,"name":"Rose Mount Garden","lat":18.46394,"lng":-77.89397},{"id":62956,"name":"Rosemount","lat":18.47484,"lng":-77.89216},{"id":62965,"name":"Salt Spring","lat":18.48687,"lng":-77.86554},{"id":62985,"name":"Seven Rivers","lat":18.34702,"lng":-77.91378},{"id":63003,"name":"Somerton","lat":18.40496,"lng":-77.77071},{"id":63010,"name":"Spot Valley","lat":18.47869,"lng":-77.79106},{"id":63032,"name":"Stonehenge","lat":18.24231,"lng":-77.85042},{"id":63039,"name":"Summer Hill","lat":18.3736,"lng":-77.7935},{"id":63041,"name":"Sunderland","lat":18.39794,"lng":-77.82734},{"id":63046,"name":"Tangle River","lat":18.34337,"lng":-77.83621},{"id":63057,"name":"Tower Hill/Moy Hall","lat":18.44044,"lng":-77.96022},{"id":63070,"name":"Tucker","lat":18.449,"lng":-77.89438},{"id":63073,"name":"Unity Hall","lat":18.43304,"lng":-77.97684},{"id":63075,"name":"Vaughnsfield","lat":18.32135,"lng":-77.78051},{"id":63094,"name":"Welcome Hall","lat":18.36898,"lng":-77.83673},{"id":63097,"name":"West Green","lat":18.46244,"lng":-77.91757}]