[{"id":62316,"name":"Arcadia","lat":18.03737,"lng":-76.78201},{"id":62317,"name":"Arlene Gardens","lat":18.03713,"lng":-76.81791},{"id":62318,"name":"Arnett Gardens","lat":17.9915,"lng":-76.79829},{"id":62324,"name":"August Town","lat":17.99556,"lng":-76.73673},{"id":62334,"name":"Barbican","lat":18.03549,"lng":-76.76987},{"id":62357,"name":"Beverley Hills","lat":18.00833,"lng":-76.76208},{"id":62361,"name":"Bito","lat":17.97363,"lng":-76.66625},{"id":62365,"name":"Bloxborough","lat":17.99581,"lng":-76.64767},{"id":62377,"name":"Boucher Park","lat":18.00344,"lng":-76.81257},{"id":62385,"name":"Brandon Hill","lat":18.14822,"lng":-76.80513},{"id":62400,"name":"Bull Bay/ Seven Mile","lat":17.95247,"lng":-76.68404},{"id":62417,"name":"Cane River","lat":17.98098,"lng":-76.68624},{"id":62426,"name":"Cassia Park","lat":18.02047,"lng":-76.80665},{"id":62433,"name":"Cavaliers","lat":18.09677,"lng":-76.84321},{"id":62450,"name":"Cherry Gardens","lat":18.04963,"lng":-76.77867},{"id":62461,"name":"Cockburn Gardens","lat":18.00357,"lng":-76.82435},{"id":62471,"name":"Constant Spring","lat":18.05078,"lng":-76.79372},{"id":62472,"name":"Constant Spring Gardens","lat":18.02942,"lng":-76.79956},{"id":62473,"name":"Constitution Hill","lat":18.01488,"lng":-76.70515},{"id":62476,"name":"Content Gap","lat":18.04082,"lng":-76.6907},{"id":62478,"name":"Cooreville Gardens","lat":18.02244,"lng":-76.84852},{"id":62493,"name":"Cross Roads","lat":17.99454,"lng":-76.7881},{"id":62499,"name":"Dallas","lat":17.98463,"lng":-76.71256},{"id":62506,"name":"Delacree Park/ Union Gardens","lat":17.9921,"lng":-76.8224},{"id":62507,"name":"Delacree Pen","lat":17.99579,"lng":-76.81709},{"id":62519,"name":"Drewsland","lat":18.02381,"lng":-76.82626},{"id":62520,"name":"Drumblair","lat":18.02354,"lng":-76.78759},{"id":62523,"name":"Duhaney Park","lat":18.03086,"lng":-76.84617},{"id":62531,"name":"Eastwood Park Gardens","lat":18.01891,"lng":-76.80072},{"id":62537,"name":"Elleston Flats/ Mona Commons","lat":18.00945,"lng":-76.74034},{"id":62554,"name":"Ferry","lat":18.02771,"lng":-76.8672},{"id":62562,"name":"Forest Hills Gardens","lat":18.03848,"lng":-76.82868},{"id":62563,"name":"Forest Hills/ Plantation Height","lat":18.043,"lng":-76.8514},{"id":62594,"name":"Golden Spring","lat":18.09446,"lng":-76.79727},{"id":62598,"name":"Gordon Town","lat":18.03762,"lng":-76.72353},{"id":62603,"name":"Grants Pen","lat":18.03258,"lng":-76.78887},{"id":62614,"name":"Greenwich Town/ Newport West","lat":17.98438,"lng":-76.82559},{"id":62623,"name":"Half Way Tree","lat":18.01248,"lng":-76.79928},{"id":62630,"name":"Harbour View","lat":17.95146,"lng":-76.71662},{"id":62637,"name":"Havendale","lat":18.05429,"lng":-76.8087},{"id":62644,"name":"Hermitage","lat":17.98351,"lng":-76.74102},{"id":62653,"name":"Hope Pastures/ UTECH","lat":18.02306,"lng":-76.74987},{"id":62654,"name":"Hope Tavern","lat":18.01233,"lng":-76.73202},{"id":62658,"name":"Hughenden","lat":18.03037,"lng":-76.81728},{"id":62663,"name":"Irish Town","lat":18.06234,"lng":-76.70262},{"id":62667,"name":"Jacks Hill","lat":18.03872,"lng":-76.74892},{"id":62681,"name":"Jones Town","lat":17.98422,"lng":-76.79691},{"id":62684,"name":"Kencot","lat":18.00041,"lng":-76.79835},{"id":62695,"name":"Kintyre","lat":18.02133,"lng":-76.72688},{"id":62703,"name":"Lawrence Tavern","lat":18.13742,"lng":-76.84736},{"id":62708,"name":"Liguanea","lat":18.02097,"lng":-76.76827},{"id":62741,"name":"Majestic Gardens","lat":18.00023,"lng":-76.83295},{"id":62749,"name":"Mannings Hill","lat":18.07052,"lng":-76.81288},{"id":62750,"name":"Mannings Hill (Rural)","lat":18.08169,"lng":-76.82328},{"id":62757,"name":"Marverley","lat":18.02676,"lng":-76.82652},{"id":62759,"name":"Maryland","lat":18.05166,"lng":-76.7432},{"id":62761,"name":"Mavis Bank","lat":18.03333,"lng":-76.66667},{"id":62762,"name":"Maxfield Park","lat":17.99937,"lng":-76.808},{"id":62766,"name":"Meadowbrook","lat":18.04708,"lng":-76.81553},{"id":62767,"name":"Meadowbrook Estate","lat":18.03738,"lng":-76.82964},{"id":62780,"name":"Molynes Four Roads","lat":18.01035,"lng":-76.81112},{"id":62781,"name":"Molynes Gardens","lat":18.0198,"lng":-76.81621},{"id":62782,"name":"Mona Heights","lat":18.01331,"lng":-76.75086},{"id":62796,"name":"Mount James","lat":18.12069,"lng":-76.77394},{"id":62804,"name":"Mountain View Gardens","lat":17.99186,"lng":-76.7607},{"id":62810,"name":"Nannyville","lat":17.99677,"lng":-76.76949},{"id":62815,"name":"New Haven","lat":18.02953,"lng":-76.85425},{"id":62816,"name":"New Kingston","lat":18.00747,"lng":-76.78319},{"id":62830,"name":"Norbrook","lat":18.05483,"lng":-76.78498},{"id":62834,"name":"Oaklands","lat":18.03558,"lng":-76.79563},{"id":62851,"name":"Papine","lat":18.01536,"lng":-76.73868},{"id":62853,"name":"Parks Road","lat":18.09802,"lng":-76.85941},{"id":62867,"name":"Patrick City","lat":18.03185,"lng":-76.83774},{"id":62874,"name":"Pembroke Hall","lat":18.03113,"lng":-76.83003},{"id":62876,"name":"Penwood","lat":18.01952,"lng":-76.83094},{"id":62908,"name":"Queensborough/ Tunbridge","lat":18.04289,"lng":-76.82119},{"id":62917,"name":"Red Hills (Rural)","lat":18.06777,"lng":-76.86093},{"id":62918,"name":"Red Hills Gardens","lat":18.03,"lng":-76.80994},{"id":62919,"name":"Red Hills/ Sterling Castle","lat":18.05946,"lng":-76.84028},{"id":62931,"name":"Richmond Park","lat":18.0056,"lng":-76.80464},{"id":62938,"name":"Riverton City","lat":18.01443,"lng":-76.84897},{"id":62947,"name":"Roehampton","lat":18.0432,"lng":-76.80841},{"id":62955,"name":"Rose Town","lat":17.98697,"lng":-76.80726},{"id":62982,"name":"Seaview Gardens","lat":18.00619,"lng":-76.84106},{"id":62983,"name":"Seaward Pen","lat":18.019,"lng":-76.82368},{"id":62986,"name":"Seymour Lands","lat":18.01291,"lng":-76.77706},{"id":63026,"name":"St. Peter's","lat":18.07881,"lng":-76.67202},{"id":63028,"name":"Stadium Gardens","lat":17.99501,"lng":-76.77644},{"id":63033,"name":"Stony Hill","lat":18.07916,"lng":-76.78473},{"id":63044,"name":"Swallowfield","lat":18.00486,"lng":-76.77439},{"id":63047,"name":"Temple Hall","lat":18.10471,"lng":-76.81818},{"id":63051,"name":"Three Oaks/ Glendale","lat":18.03128,"lng":-76.82447},{"id":63056,"name":"Tower Hill","lat":18.01183,"lng":-76.82807},{"id":63059,"name":"Trafalgar Park","lat":18.0128,"lng":-76.78465},{"id":63063,"name":"Trench Town","lat":17.98743,"lng":-76.80118},{"id":63074,"name":"University","lat":18.00094,"lng":-76.74769},{"id":63077,"name":"Vineyard Town","lat":17.9869,"lng":-76.77059},{"id":63082,"name":"Waltham Gardens","lat":18.01085,"lng":-76.82049},{"id":63085,"name":"Washington Gardens","lat":18.02174,"lng":-76.8402},{"id":63090,"name":"Waterhouse","lat":18.01231,"lng":-76.83505},{"id":63102,"name":"Whitehall","lat":18.03838,"lng":-76.80583},{"id":63104,"name":"Whitfield Town","lat":17.99212,"lng":-76.8091},{"id":63111,"name":"Wilton Gardens/ Rema","lat":17.98287,"lng":-76.80422},{"id":63117,"name":"Woodford","lat":18.07362,"lng":-76.74632},{"id":63118,"name":"Woodford Park","lat":17.98712,"lng":-76.78117},{"id":63128,"name":"Zaidie Gardens","lat":18.02566,"lng":-76.80978}]