[{"id":62295,"name":"Aenon Town","lat":18.21027,"lng":-77.39851},{"id":62302,"name":"Alley","lat":17.79036,"lng":-77.27085},{"id":62307,"name":"Alston","lat":18.17639,"lng":-77.43468},{"id":62319,"name":"Ashley","lat":18.0144,"lng":-77.34019},{"id":62331,"name":"Banks","lat":17.83222,"lng":-77.30731},{"id":62344,"name":"Beckford Kraal","lat":18.08545,"lng":-77.32399},{"id":62387,"name":"Brandon Hill","lat":18.1511,"lng":-77.23663},{"id":62391,"name":"Brixton Hill","lat":18.02039,"lng":-77.31744},{"id":62397,"name":"Bucknor","lat":18.00619,"lng":-77.23749},{"id":62398,"name":"Bucks Common","lat":17.98228,"lng":-77.23846},{"id":62406,"name":"Bushy Park","lat":17.98243,"lng":-77.25135},{"id":62446,"name":"Chapelton","lat":18.08333,"lng":-77.26667},{"id":62449,"name":"Chateau","lat":17.98972,"lng":-77.18737},{"id":62462,"name":"Cockpit","lat":17.88872,"lng":-77.15835},{"id":62463,"name":"Coffee Piece","lat":18.13835,"lng":-77.40648},{"id":62466,"name":"Colonels Ridge","lat":18.13525,"lng":-77.2555},{"id":62485,"name":"Coxswain","lat":18.10272,"lng":-77.23444},{"id":62489,"name":"Crofts Hill","lat":18.13268,"lng":-77.20507},{"id":62491,"name":"Crooked River","lat":18.14289,"lng":-77.3},{"id":62496,"name":"Cumberland","lat":18.10522,"lng":-77.41617},{"id":62497,"name":"Curatoe Hill","lat":17.93982,"lng":-77.24836},{"id":62504,"name":"Dawkins","lat":18.0554,"lng":-77.33303},{"id":62533,"name":"Effortville","lat":17.9927,"lng":-77.2186},{"id":62565,"name":"Four Paths","lat":17.97089,"lng":-77.29599},{"id":62566,"name":"Frankfield","lat":18.14971,"lng":-77.36498},{"id":62570,"name":"Freetown","lat":17.92192,"lng":-77.14781},{"id":62585,"name":"Gimme-me-bit","lat":17.88946,"lng":-77.28469},{"id":62590,"name":"Glenmuir","lat":17.96801,"lng":-77.25394},{"id":62602,"name":"Grantham","lat":18.15839,"lng":-77.39643},{"id":62606,"name":"Gravel Hill","lat":17.90968,"lng":-77.33354},{"id":62638,"name":"Hayes","lat":17.87569,"lng":-77.23711},{"id":62640,"name":"Hazard","lat":17.95382,"lng":-77.23147},{"id":62661,"name":"Inverness","lat":17.91195,"lng":-77.19032},{"id":62670,"name":"James Hill","lat":18.1875,"lng":-77.337},{"id":62676,"name":"Johns Hall","lat":18.18876,"lng":-77.38063},{"id":62683,"name":"Kellits","lat":18.16184,"lng":-77.27049},{"id":62712,"name":"Limit","lat":18.15287,"lng":-77.47121},{"id":62715,"name":"Lionel Town","lat":17.81007,"lng":-77.24061},{"id":62727,"name":"Longville Park","lat":17.91188,"lng":-77.15983},{"id":62728,"name":"Longwood","lat":17.80754,"lng":-77.28728},{"id":62764,"name":"May Pen","lat":17.96454,"lng":-77.24515},{"id":62765,"name":"May Pen Proper","lat":17.97034,"lng":-77.23911},{"id":62776,"name":"Milk River","lat":17.8756,"lng":-77.35139},{"id":62777,"name":"Mineral Heights","lat":17.94183,"lng":-77.23276},{"id":62778,"name":"Mitchell Town","lat":17.81281,"lng":-77.20531},{"id":62788,"name":"Moores","lat":18.02926,"lng":-77.1854},{"id":62790,"name":"Morgans Forest","lat":18.19088,"lng":-77.41021},{"id":62791,"name":"Morgans Pass","lat":18.12123,"lng":-77.27493},{"id":62793,"name":"Mount Airy","lat":18.01843,"lng":-77.36357},{"id":62812,"name":"New Denbigh","lat":17.98563,"lng":-77.27104},{"id":62817,"name":"New Longsville","lat":18.03072,"lng":-77.23048},{"id":62836,"name":"Old Denbigh","lat":17.96116,"lng":-77.26701},{"id":62846,"name":"Orange Hill","lat":18.11788,"lng":-77.35942},{"id":62847,"name":"Osbourne Store","lat":17.95892,"lng":-77.32827},{"id":62848,"name":"Paisley","lat":17.96293,"lng":-77.22368},{"id":62849,"name":"Palmers Cross","lat":17.95,"lng":-77.20338},{"id":62858,"name":"Part of Banana Ground","lat":18.08022,"lng":-77.40971},{"id":62859,"name":"Part of Douglas Castle","lat":18.18703,"lng":-77.27538},{"id":62861,"name":"Part of Kellits","lat":18.17159,"lng":-77.2512},{"id":62871,"name":"Peckham","lat":18.17147,"lng":-77.39766},{"id":62875,"name":"Pennants","lat":18.11025,"lng":-77.31306},{"id":62886,"name":"Pleasant Valley","lat":18.01101,"lng":-77.29027},{"id":62897,"name":"Portland Cottage","lat":17.7462,"lng":-77.18772},{"id":62901,"name":"Porus","lat":18.05202,"lng":-77.40007},{"id":62910,"name":"Race Course","lat":17.84019,"lng":-77.28223},{"id":62930,"name":"Richmond Park","lat":18.05172,"lng":-77.37642},{"id":62934,"name":"Ritchies","lat":18.13904,"lng":-77.42893},{"id":62942,"name":"Rock","lat":17.99122,"lng":-77.33702},{"id":62944,"name":"Rock River","lat":18.06548,"lng":-77.19707},{"id":62946,"name":"Rocky Point","lat":17.77695,"lng":-77.24816},{"id":62964,"name":"Salt River","lat":17.84143,"lng":-77.17413},{"id":62969,"name":"Sandy Bay","lat":17.95105,"lng":-77.16225},{"id":62970,"name":"Sanguinetti","lat":18.15585,"lng":-77.42938},{"id":62984,"name":"Sedgepond","lat":17.84753,"lng":-77.32638},{"id":62992,"name":"Silent Hill","lat":18.19152,"lng":-77.45918},{"id":62998,"name":"Smithville","lat":18.11977,"lng":-77.38561},{"id":63006,"name":"Spaldings","lat":18.16875,"lng":-77.45798},{"id":63040,"name":"Summerfield","lat":18.09433,"lng":-77.28429},{"id":63048,"name":"Thompson Town","lat":18.08968,"lng":-77.37186},{"id":63053,"name":"Tollgate","lat":17.97195,"lng":-77.36566},{"id":63061,"name":"Treadlight","lat":17.99264,"lng":-77.25531},{"id":63067,"name":"Trout Hall","lat":18.13779,"lng":-77.33299},{"id":63071,"name":"Turners","lat":18.06647,"lng":-77.23523},{"id":63087,"name":"Water Lane","lat":17.82452,"lng":-77.25946},{"id":63119,"name":"Woodhall","lat":18.04757,"lng":-77.27575},{"id":63127,"name":"York Town","lat":17.92515,"lng":-77.30002}]