[{"id":66000,"name":"Belle Vue","lat":13.8051,"lng":-61.03615},{"id":66023,"name":"Bois Dinde","lat":13.80463,"lng":-61.04952},{"id":66036,"name":"Caffiere","lat":13.78409,"lng":-61.03554},{"id":66061,"name":"Cedars/Chu Tigre","lat":13.76995,"lng":-61.04716},{"id":66069,"name":"Choiseul","lat":13.77273,"lng":-61.04931},{"id":66071,"name":"Christian Hill","lat":13.77354,"lng":-61.04694},{"id":66090,"name":"Dacretin","lat":13.79617,"lng":-61.03574},{"id":66094,"name":"Debreuil","lat":13.79033,"lng":-61.02585},{"id":66097,"name":"Delcer","lat":13.80121,"lng":-61.05892},{"id":66113,"name":"Derriere Morne","lat":13.80916,"lng":-61.05101},{"id":66125,"name":"Dugard","lat":13.80386,"lng":-61.02831},{"id":66127,"name":"Dupre","lat":13.79435,"lng":-61.02947},{"id":66136,"name":"Esperance","lat":13.80775,"lng":-61.05331},{"id":66155,"name":"Franciou","lat":13.804,"lng":-61.05448},{"id":66197,"name":"Industry","lat":13.79127,"lng":-61.05992},{"id":66213,"name":"La Fargue","lat":13.77197,"lng":-61.04124},{"id":66223,"name":"La Pointe","lat":13.79443,"lng":-61.06497},{"id":66234,"name":"Lamaze","lat":13.80649,"lng":-61.01906},{"id":66236,"name":"Le Riche","lat":13.78365,"lng":-61.04815},{"id":66246,"name":"Mailly Motete","lat":13.81788,"lng":-61.02772},{"id":66259,"name":"Martin","lat":13.78941,"lng":-61.04542},{"id":66286,"name":"Mongouge","lat":13.80301,"lng":-61.04524},{"id":66289,"name":"Monzie","lat":13.80669,"lng":-61.02297},{"id":66299,"name":"Morne Jacques","lat":13.81162,"lng":-61.03165},{"id":66306,"name":"Morne Sion","lat":13.79246,"lng":-61.05467},{"id":66309,"name":"Motete","lat":13.81325,"lng":-61.0232},{"id":66314,"name":"New Field/Fiette","lat":13.78815,"lng":-61.05216},{"id":66340,"name":"Ponyon","lat":13.79639,"lng":-61.0436},{"id":66345,"name":"Raveneau","lat":13.81018,"lng":-61.04642},{"id":66354,"name":"Reunion","lat":13.77861,"lng":-61.04531},{"id":66358,"name":"River Doree","lat":13.76769,"lng":-61.03646},{"id":66360,"name":"Roblot","lat":13.80323,"lng":-61.02297},{"id":66374,"name":"Sauzay","lat":13.77743,"lng":-61.03368},{"id":66376,"name":"Savannesgeorge/Constitution","lat":13.77855,"lng":-61.05139},{"id":66418,"name":"Victoria","lat":13.81116,"lng":-61.03963},{"id":66424,"name":"Village","lat":13.77464,"lng":-61.0502}]