[{"id":65971,"name":"Augier","lat":13.76669,"lng":-60.98063},{"id":65989,"name":"Beane Field","lat":13.73976,"lng":-60.94741},{"id":65992,"name":"Beausejour","lat":13.75229,"lng":-60.95519},{"id":66002,"name":"Belle Vue","lat":13.79218,"lng":-60.95379},{"id":66012,"name":"Black Bay","lat":13.7433,"lng":-60.98272},{"id":66032,"name":"Bruceville/Shanty Town","lat":13.72558,"lng":-60.94907},{"id":66034,"name":"Cacoa","lat":13.77889,"lng":-60.93862},{"id":66042,"name":"Cantonement","lat":13.75665,"lng":-60.97662},{"id":66054,"name":"Carierre","lat":13.78514,"lng":-60.96721},{"id":66057,"name":"Catin","lat":13.77694,"lng":-60.97973},{"id":66075,"name":"Cocoa Dan","lat":13.73087,"lng":-60.97195},{"id":66081,"name":"Coolie Town","lat":13.76911,"lng":-60.9668},{"id":66093,"name":"De Mailly","lat":13.79649,"lng":-60.94938},{"id":66105,"name":"Derierre Bois","lat":13.76807,"lng":-60.97725},{"id":66107,"name":"Derierre Morne","lat":13.74126,"lng":-60.96057},{"id":66122,"name":"Docamel/La Resource","lat":13.74202,"lng":-60.95604},{"id":66129,"name":"Eau Piquant/St Urbain","lat":13.76025,"lng":-60.94012},{"id":66130,"name":"En Bamboo","lat":13.78155,"lng":-60.94763},{"id":66135,"name":"Esperance","lat":13.78854,"lng":-60.96108},{"id":66147,"name":"Fond Capeche","lat":13.77449,"lng":-60.94835},{"id":66152,"name":"Fond Sabot","lat":13.77659,"lng":-60.95546},{"id":66168,"name":"Grace","lat":13.77678,"lng":-60.96637},{"id":66189,"name":"Hewanorra Orchard","lat":13.74486,"lng":-60.97284},{"id":66193,"name":"Hope Estate","lat":13.76477,"lng":-60.95831},{"id":66196,"name":"Industrial Estate","lat":13.74096,"lng":-60.97393},{"id":66202,"name":"Joyeux","lat":13.78313,"lng":-60.96068},{"id":66225,"name":"La Resource","lat":13.74799,"lng":-60.96237},{"id":66227,"name":"La Retraite","lat":13.75944,"lng":-60.96632},{"id":66230,"name":"La Tourney/Cedar Heights","lat":13.74114,"lng":-60.96517},{"id":66244,"name":"Maganier","lat":13.7945,"lng":-60.98513},{"id":66293,"name":"Morne Cayenne","lat":13.78349,"lng":-60.95506},{"id":66307,"name":"Morne Vert","lat":13.77899,"lng":-60.97617},{"id":66310,"name":"Moule A Chique","lat":13.71458,"lng":-60.94835},{"id":66317,"name":"Obrier","lat":13.76831,"lng":-60.97313},{"id":66332,"name":"Pierrot","lat":13.76857,"lng":-60.94381},{"id":66337,"name":"Plut","lat":13.77417,"lng":-60.96076},{"id":66339,"name":"Pomme","lat":13.75792,"lng":-60.98147},{"id":66380,"name":"St Jude'S Highway","lat":13.75867,"lng":-60.9736},{"id":66394,"name":"Tete Morne/Morne Andrew","lat":13.77114,"lng":-60.95194},{"id":66406,"name":"Town","lat":13.72835,"lng":-60.95408},{"id":66420,"name":"Vieux Fort","lat":13.71667,"lng":-60.95},{"id":66421,"name":"Vieux Fort/Laborie Highway","lat":13.73197,"lng":-60.95477},{"id":66422,"name":"Vige'","lat":13.78692,"lng":-60.9355},{"id":66433,"name":"Westall Group/The Mangue","lat":13.72707,"lng":-60.95312}]