[{"id":130181,"name":"Bỉm Sơn","lat":20.07806,"lng":105.86028},{"id":130218,"name":"Huyện Bá Thước","lat":20.35767,"lng":105.25301},{"id":130276,"name":"Huyện Cẩm Thủy","lat":20.19586,"lng":105.46817},{"id":130533,"name":"Huyện Đông Sơn","lat":19.79742,"lng":105.72465},{"id":130301,"name":"Huyện Hà Trung","lat":20.02654,"lng":105.81931},{"id":130317,"name":"Huyện Hậu Lộc","lat":19.93337,"lng":105.88894},{"id":130341,"name":"Huyện Lang Chánh","lat":20.15926,"lng":105.15071},{"id":130364,"name":"Huyện Mường Lát","lat":20.52763,"lng":104.62941},{"id":130380,"name":"Huyện Nga Sơn","lat":20.01561,"lng":105.98975},{"id":130389,"name":"Huyện Ngọc Lặc","lat":20.06777,"lng":105.37386},{"id":130391,"name":"Huyện Như Thanh","lat":19.57798,"lng":105.55616},{"id":130392,"name":"Huyện Như Xuân","lat":19.62527,"lng":105.38856},{"id":130393,"name":"Huyện Nông Cống","lat":19.61376,"lng":105.68279},{"id":130404,"name":"Huyện Quan Hóa","lat":20.47565,"lng":104.95335},{"id":130405,"name":"Huyện Quan Sơn","lat":20.25758,"lng":104.83416},{"id":130409,"name":"Huyện Quảng Xương","lat":19.70252,"lng":105.79298},{"id":130439,"name":"Huyện Thiệu Hóa","lat":19.89713,"lng":105.68144},{"id":130451,"name":"Huyện Thọ Xuân","lat":19.93114,"lng":105.48284},{"id":130445,"name":"Huyện Thường Xuân","lat":19.93684,"lng":105.24109},{"id":130463,"name":"Huyện Triệu Sơn","lat":19.82578,"lng":105.58293},{"id":130501,"name":"Huyện Vĩnh Lộc","lat":20.03482,"lng":105.65755},{"id":130522,"name":"Huyện Yên Định","lat":19.98666,"lng":105.61482},{"id":130597,"name":"Thanh Hóa","lat":19.8,"lng":105.76667}]