[{"id":130188,"name":"Cát Bà","lat":20.72779,"lng":107.04819},{"id":130562,"name":"Hải Dương","lat":20.94099,"lng":106.33302},{"id":130200,"name":"Haiphong","lat":20.86481,"lng":106.68345},{"id":130221,"name":"Huyện Bình Giang","lat":20.87586,"lng":106.19138},{"id":130274,"name":"Huyện Cẩm Giàng","lat":20.95,"lng":106.21667},{"id":130286,"name":"Huyện Gia Lộc","lat":20.85164,"lng":106.2913},{"id":130329,"name":"Huyện Kinh Môn","lat":21.01634,"lng":106.50384},{"id":130376,"name":"Huyện Nam Sách","lat":21.00484,"lng":106.34042},{"id":130438,"name":"Huyện Thanh Miện","lat":20.77953,"lng":106.22218},{"id":130609,"name":"Thị Xã Chí Linh","lat":21.13722,"lng":106.39638}]