[{"id":130635,"name":"Ấp Tân Ngãi","lat":10.23333,"lng":106.28333},{"id":130180,"name":"Bến Tre","lat":10.24147,"lng":106.37585},{"id":130215,"name":"Huyện Ba Tri","lat":10.06627,"lng":106.60554},{"id":130226,"name":"Huyện Bình Đại","lat":10.19354,"lng":106.64455},{"id":130265,"name":"Huyện Càng Long","lat":9.95883,"lng":106.21395},{"id":130272,"name":"Huyện Cầu Kè","lat":9.86738,"lng":106.07916},{"id":130273,"name":"Huyện Cầu Ngang","lat":9.77186,"lng":106.43654},{"id":130250,"name":"Huyện Châu Thành","lat":10.29212,"lng":106.30827},{"id":130261,"name":"Huyện Chợ Lách","lat":10.22674,"lng":106.17077},{"id":130291,"name":"Huyện Giồng Trôm","lat":10.15909,"lng":106.47004},{"id":130342,"name":"Huyện Long Hồ","lat":10.2164,"lng":105.98483},{"id":130357,"name":"Huyện Mang Thít","lat":10.18731,"lng":106.07472},{"id":130428,"name":"Huyện Tam Bình","lat":10.08127,"lng":105.95352},{"id":130449,"name":"Huyện Thạnh Phú","lat":9.92993,"lng":106.54316},{"id":130460,"name":"Huyện Tiểu Cần","lat":9.8035,"lng":106.20594},{"id":130465,"name":"Huyện Trà Cú","lat":9.69706,"lng":106.29423},{"id":130468,"name":"Huyện Trà Ôn","lat":9.97522,"lng":106.00957},{"id":130505,"name":"Huyện Vũng Liêm","lat":10.08717,"lng":106.16038},{"id":130617,"name":"Trà Vinh","lat":9.94719,"lng":106.34225},{"id":130624,"name":"Vĩnh Long","lat":10.25369,"lng":105.9722}]