[{"id":130631,"name":"Ðông Hà","lat":16.81625,"lng":107.10031},{"id":130242,"name":"Huyện Cam Lộ","lat":16.79335,"lng":106.96175},{"id":130527,"name":"Huyện Đa Krông","lat":16.55543,"lng":106.97208},{"id":130288,"name":"Huyện Gio Linh","lat":16.91667,"lng":107.0},{"id":130316,"name":"Huyện Hải Lăng","lat":16.67574,"lng":107.23388},{"id":130311,"name":"Huyện Hướng Hóa","lat":16.70132,"lng":106.67036},{"id":130352,"name":"Huyện Lệ Thủy","lat":17.11239,"lng":106.70471},{"id":130407,"name":"Huyện Quảng Ninh","lat":17.27067,"lng":106.51387},{"id":130408,"name":"Huyện Quảng Trạch","lat":17.83447,"lng":106.36705},{"id":130462,"name":"Huyện Triệu Phong","lat":16.78132,"lng":107.16034},{"id":130477,"name":"Huyện Tuyên Hóa","lat":17.91323,"lng":106.02678},{"id":130500,"name":"Huyện Vĩnh Linh","lat":17.016,"lng":106.93384},{"id":130566,"name":"Kwang Binh","lat":17.46885,"lng":106.62226}]