[{"id":130209,"name":"Huyện An Lão","lat":14.55676,"lng":108.801},{"id":130258,"name":"Huyện Chư Păh","lat":14.15941,"lng":107.98411},{"id":130257,"name":"Huyện Chư Prông","lat":13.59976,"lng":107.81099},{"id":130259,"name":"Huyện Chư Sê","lat":13.74254,"lng":108.08663},{"id":130549,"name":"Huyện Đức Cơ","lat":13.78454,"lng":107.6697},{"id":130298,"name":"Huyện Hoài Nhơn","lat":14.50535,"lng":109.02315},{"id":130320,"name":"Huyện Ia Grai","lat":13.98937,"lng":107.7374},{"id":130322,"name":"Huyện KBang","lat":14.30506,"lng":108.49779},{"id":130335,"name":"Huyện Kông Chro","lat":13.73519,"lng":108.59697},{"id":130334,"name":"Huyện Krông Pa","lat":13.23152,"lng":108.65494},{"id":130358,"name":"Huyện Mang Yang","lat":13.9284,"lng":108.30246},{"id":130397,"name":"Huyện Phù Mỹ","lat":14.22304,"lng":109.08611},{"id":130490,"name":"Huyện Tây Sơn","lat":13.94306,"lng":108.87999},{"id":130476,"name":"Huyện Tuy Phước","lat":13.84564,"lng":109.15275},{"id":130503,"name":"Huyện Vĩnh Thạnh","lat":14.211,"lng":108.74389},{"id":130583,"name":"Pleiku","lat":13.98333,"lng":108.0},{"id":130584,"name":"Qui Nhon","lat":13.77648,"lng":109.22367}]