[{"id":130190,"name":"Cần Giuộc","lat":10.60857,"lng":106.67135},{"id":130239,"name":"Huyện Bến Cầu","lat":11.12889,"lng":106.14296},{"id":130240,"name":"Huyện Bến Lức","lat":10.68858,"lng":106.45484},{"id":130271,"name":"Huyện Cần Đước","lat":10.54148,"lng":106.59636},{"id":130270,"name":"Huyện Cần Giuộc","lat":10.57742,"lng":106.67279},{"id":130251,"name":"Huyện Châu Thành","lat":10.45214,"lng":106.49015},{"id":130282,"name":"Huyện Dương Minh Châu","lat":11.31833,"lng":106.25697},{"id":130551,"name":"Huyện Đức Hòa","lat":10.87838,"lng":106.42422},{"id":130550,"name":"Huyện Đức Huệ","lat":10.86473,"lng":106.25914},{"id":130294,"name":"Huyện Gò Dầu","lat":11.15737,"lng":106.27307},{"id":130306,"name":"Huyện Hòa Thành","lat":11.26706,"lng":106.14486},{"id":130368,"name":"Huyện Mộc Hóa","lat":10.75166,"lng":106.01729},{"id":130480,"name":"Huyện Tân Châu","lat":11.58739,"lng":106.2827},{"id":130482,"name":"Huyện Tân Hưng","lat":10.8338,"lng":105.68848},{"id":130488,"name":"Huyện Tân Thạnh","lat":10.60351,"lng":105.96576},{"id":130489,"name":"Huyện Tân Trụ","lat":10.53182,"lng":106.51644},{"id":130448,"name":"Huyện Thạnh Hóa","lat":10.66667,"lng":106.16667},{"id":130454,"name":"Huyện Thủ Thừa","lat":10.65639,"lng":106.3458},{"id":130472,"name":"Huyện Trảng Bàng","lat":11.0572,"lng":106.37539},{"id":130499,"name":"Huyện Vĩnh Hưng","lat":10.88299,"lng":105.80364},{"id":130581,"name":"Phú Khương","lat":11.28333,"lng":106.13333},{"id":130620,"name":"Tân An","lat":10.53589,"lng":106.41366},{"id":130621,"name":"Tây Ninh","lat":11.31004,"lng":106.09828}]