[{"id":130216,"name":"Huyện Ba Tơ","lat":14.73973,"lng":108.69326},{"id":130224,"name":"Huyện Bình Sơn","lat":15.31899,"lng":108.76383},{"id":130542,"name":"Huyện Đắk Glei","lat":15.11358,"lng":107.75093},{"id":130543,"name":"Huyện Đắk Hà","lat":14.60326,"lng":107.98547},{"id":130545,"name":"Huyện Đắk Tô","lat":14.70087,"lng":107.80816},{"id":130552,"name":"Huyện Đức Phổ","lat":14.78,"lng":108.97857},{"id":130321,"name":"Huyện Ia H'Drai","lat":14.06032,"lng":107.46243},{"id":130332,"name":"Huyện Kon Plông","lat":14.7562,"lng":108.32057},{"id":130348,"name":"Huyện Lý Sơn","lat":15.40608,"lng":109.09707},{"id":130359,"name":"Huyện Minh Long","lat":14.95375,"lng":108.67724},{"id":130366,"name":"Huyện Mộ Đức","lat":14.95515,"lng":108.88841},{"id":130383,"name":"Huyện Nghĩa Hành","lat":14.98712,"lng":108.80036},{"id":130388,"name":"Huyện Ngọc Hồi","lat":14.7194,"lng":107.62636},{"id":130419,"name":"Huyện Sa Thầy","lat":14.3205,"lng":107.59862},{"id":130424,"name":"Huyện Sơn Hà","lat":14.98427,"lng":108.53643},{"id":130426,"name":"Huyện Sơn Tây","lat":14.96392,"lng":108.36419},{"id":130427,"name":"Huyện Sơn Tịnh","lat":15.1909,"lng":108.74295},{"id":130464,"name":"Huyện Trà Bồng","lat":15.23752,"lng":108.52633},{"id":130491,"name":"Huyện Tư Nghĩa","lat":15.09499,"lng":108.77053},{"id":130565,"name":"Kon Tum","lat":14.35451,"lng":108.00759},{"id":130585,"name":"Quảng Ngãi","lat":15.12047,"lng":108.79232}]