[{"id":130173,"name":"Buôn Ma Thuột","lat":12.66747,"lng":108.03775},{"id":130217,"name":"Huyện Buôn Đôn","lat":12.90396,"lng":107.7387},{"id":130283,"name":"Huyện Ea H'Leo","lat":13.31814,"lng":108.07148},{"id":130284,"name":"Huyện Ea Súp","lat":13.18279,"lng":107.79954},{"id":130425,"name":"Huyện Sơn Hòa","lat":13.15868,"lng":108.97281},{"id":130421,"name":"Huyện Sông Hinh","lat":12.91667,"lng":108.91667},{"id":130593,"name":"Sông Cầu","lat":13.4556,"lng":109.22348},{"id":130618,"name":"Tuy Hòa","lat":13.09546,"lng":109.32094}]