[{"id":65301,"name":"Daejeon","lat":36.34913,"lng":127.38493},{"id":65486,"name":"Seo-gu","lat":36.27211,"lng":127.331},{"id":65503,"name":"Sintansin","lat":36.45361,"lng":127.43111},{"id":65506,"name":"Songgangdong","lat":36.43387,"lng":127.37587},{"id":65567,"name":"Yuseong-gu","lat":36.36685,"lng":127.327}]