[{"id":65281,"name":"Changnyeong","lat":35.54145,"lng":128.49506},{"id":65282,"name":"Changnyeong-gun","lat":35.50822,"lng":128.4902},{"id":65284,"name":"Changwon","lat":35.22806,"lng":128.68111},{"id":65285,"name":"Changwon-si","lat":35.27533,"lng":128.65152},{"id":65296,"name":"Chinju","lat":35.19278,"lng":128.08472},{"id":65328,"name":"Geochang-gun","lat":35.73034,"lng":127.90149},{"id":65329,"name":"Geoje-si","lat":34.9,"lng":128.66666},{"id":65337,"name":"Gimhae-si","lat":35.25,"lng":128.86667},{"id":65347,"name":"Goseong","lat":34.97631,"lng":128.32361},{"id":65348,"name":"Goseong-gun","lat":35.01478,"lng":128.28244},{"id":65372,"name":"Hadong-gun","lat":35.13628,"lng":127.77291},{"id":65376,"name":"Haman-gun","lat":35.29117,"lng":128.4297},{"id":65380,"name":"Hapcheon-gun","lat":35.5741,"lng":128.13841},{"id":65418,"name":"Jinju-si","lat":35.20445,"lng":128.12408},{"id":65425,"name":"Kimhae","lat":35.23417,"lng":128.88111},{"id":65435,"name":"Kyosai","lat":34.85028,"lng":128.58861},{"id":65439,"name":"Miryang","lat":35.49333,"lng":128.74889},{"id":65440,"name":"Miryang-si","lat":35.4975,"lng":128.7869},{"id":65449,"name":"Naesŏ","lat":35.24972,"lng":128.52},{"id":65454,"name":"Namhae-gun","lat":34.80433,"lng":127.92708},{"id":65476,"name":"Sacheon-si","lat":35.00385,"lng":128.06857},{"id":65479,"name":"Sancheong-gun","lat":35.36625,"lng":127.87065},{"id":65502,"name":"Sinhyeon","lat":34.8825,"lng":128.62667},{"id":65521,"name":"Uiryeong-gun","lat":35.3923,"lng":128.26917},{"id":65528,"name":"Ungsang","lat":35.40611,"lng":129.16861},{"id":65542,"name":"Yangsan","lat":35.34199,"lng":129.03358}]