[{"id":65276,"name":"Buk-gu","lat":35.19724,"lng":128.99134},{"id":65278,"name":"Busan","lat":35.10168,"lng":129.03004},{"id":65313,"name":"Dongnae-gu","lat":35.20447,"lng":129.078},{"id":65325,"name":"Gangseo-gu","lat":35.1593,"lng":128.933},{"id":65331,"name":"Geumjeong-gu","lat":35.25863,"lng":129.0901},{"id":65333,"name":"Gijang","lat":35.24417,"lng":129.21389},{"id":65334,"name":"Gijang-gun","lat":35.29721,"lng":129.20076},{"id":65375,"name":"Haeundae-gu","lat":35.16665,"lng":129.16792},{"id":65421,"name":"Jung-gu","lat":35.10594,"lng":129.03331},{"id":65452,"name":"Nam-gu","lat":35.13648,"lng":129.08266},{"id":65477,"name":"Saha-gu","lat":35.08552,"lng":128.98725},{"id":65482,"name":"Sasang-gu","lat":35.14479,"lng":128.97986},{"id":65484,"name":"Seo-gu","lat":35.12529,"lng":129.01946},{"id":65513,"name":"Suyeong-gu","lat":35.15627,"lng":129.11253},{"id":65552,"name":"Yeongdo-gu","lat":35.07849,"lng":129.06483}]