[{"id":65293,"name":"Cheorwon-gun","lat":38.24391,"lng":127.44522},{"id":65297,"name":"Chuncheon","lat":37.87472,"lng":127.73417},{"id":65298,"name":"Chuncheon-si","lat":37.88048,"lng":127.72776},{"id":65311,"name":"Donghae-si","lat":37.52345,"lng":129.11357},{"id":65322,"name":"Gangneung","lat":37.75266,"lng":128.87239},{"id":65323,"name":"Gangneung-si","lat":37.7519,"lng":128.87825},{"id":65349,"name":"Goseong-gun","lat":38.37945,"lng":128.46755},{"id":65383,"name":"Hoengseong-gun","lat":37.48817,"lng":127.9857},{"id":65385,"name":"Hongch’ŏn","lat":37.6918,"lng":127.8857},{"id":65384,"name":"Hongcheon-gun","lat":37.76058,"lng":128.02823},{"id":65388,"name":"Hwacheon","lat":38.10705,"lng":127.70632},{"id":65389,"name":"Hwacheon-gun","lat":38.14212,"lng":127.67615},{"id":65401,"name":"Inje-gun","lat":38.04416,"lng":128.27876},{"id":65411,"name":"Jeongseon-gun","lat":37.38911,"lng":128.72995},{"id":65430,"name":"Kosong","lat":38.37881,"lng":128.4676},{"id":65459,"name":"Neietsu","lat":37.18447,"lng":128.46821},{"id":65473,"name":"Pyeongchang","lat":37.37028,"lng":128.39306},{"id":65474,"name":"Pyeongchang-gun","lat":37.3682,"lng":128.3955},{"id":65478,"name":"Samcheok-si","lat":37.45013,"lng":129.16626},{"id":65481,"name":"Santyoku","lat":37.44056,"lng":129.17083},{"id":65504,"name":"Sokcho","lat":38.20701,"lng":128.59181},{"id":65505,"name":"Sokcho-si","lat":38.20725,"lng":128.59275},{"id":65519,"name":"T’aebaek","lat":37.1759,"lng":128.9889},{"id":65515,"name":"Taebaek-si","lat":37.1652,"lng":128.9857},{"id":65518,"name":"Tonghae","lat":37.54389,"lng":129.10694},{"id":65534,"name":"Wŏnju","lat":37.35139,"lng":127.94528},{"id":65533,"name":"Wonju-si","lat":37.32104,"lng":127.92132},{"id":65536,"name":"Yanggu","lat":38.10583,"lng":127.98944},{"id":65537,"name":"Yanggu-gun","lat":38.1016,"lng":127.98555},{"id":65543,"name":"Yangyang-gun","lat":38.06215,"lng":128.61471}]