[{"id":62,"name":"Chīras","lat":35.41674,"lng":65.98234},{"id":92,"name":"Larkird","lat":35.48936,"lng":66.66409},{"id":110,"name":"Qal‘ah-ye Shahr","lat":35.54729,"lng":65.5676},{"id":117,"name":"Sang-e Chārak","lat":35.84972,"lng":66.43694},{"id":119,"name":"Sar-e Pul","lat":36.21544,"lng":65.93249},{"id":125,"name":"Tagāw-Bāy","lat":35.69941,"lng":66.06164},{"id":128,"name":"Tukzār","lat":35.94831,"lng":66.42132}]