[{"id":60,"name":"Chahār Burj","lat":34.24475,"lng":62.19165},{"id":73,"name":"Ghōriyān","lat":34.3448,"lng":61.49321},{"id":74,"name":"Herāt","lat":34.34817,"lng":62.19967},{"id":80,"name":"Kafir Qala","lat":34.66667,"lng":61.06667},{"id":82,"name":"Karukh","lat":34.48108,"lng":62.5863},{"id":88,"name":"Kuhsān","lat":34.65389,"lng":61.19778},{"id":90,"name":"Kushk","lat":33.29565,"lng":61.95221},{"id":111,"name":"Qarah Bāgh","lat":34.94023,"lng":61.77589},{"id":123,"name":"Shīnḏanḏ","lat":33.30294,"lng":62.1474},{"id":129,"name":"Tīr Pul","lat":34.59431,"lng":61.26895},{"id":135,"name":"Zindah Jān","lat":34.34264,"lng":61.74675}]