[{"id":52,"name":"Ashkāsham","lat":36.68333,"lng":71.53333},{"id":68,"name":"Fayzabad","lat":37.11664,"lng":70.58002},{"id":78,"name":"Jurm","lat":36.86477,"lng":70.83421},{"id":84,"name":"Khandūd","lat":36.95127,"lng":72.318},{"id":115,"name":"Rāghistān","lat":37.66079,"lng":70.67346},{"id":131,"name":"Wākhān","lat":37.0571,"lng":73.34928}]