[{"id":3902,"name":"Abbey","lat":-33.66364,"lng":115.25635},{"id":3930,"name":"Albany","lat":-34.7099,"lng":118.12345},{"id":3932,"name":"Albany city centre","lat":-35.02479,"lng":117.88472},{"id":3946,"name":"Alexander Heights","lat":-31.82758,"lng":115.86501},{"id":3953,"name":"Alfred Cove","lat":-32.03316,"lng":115.81259},{"id":3958,"name":"Alkimos","lat":-31.63039,"lng":115.68638},{"id":3992,"name":"Applecross","lat":-32.01667,"lng":115.83333},{"id":4000,"name":"Ardross","lat":-32.02696,"lng":115.83548},{"id":4003,"name":"Armadale","lat":-32.17887,"lng":116.1275},{"id":4013,"name":"Ascot","lat":-31.93818,"lng":115.92258},{"id":4017,"name":"Ashburton","lat":-22.27674,"lng":116.90057},{"id":4019,"name":"Ashby","lat":-31.73255,"lng":115.79768},{"id":4021,"name":"Ashfield","lat":-31.91721,"lng":115.93796},{"id":4036,"name":"Attadale","lat":-32.02489,"lng":115.802},{"id":4038,"name":"Atwell","lat":-32.14346,"lng":115.86528},{"id":4039,"name":"Aubin Grove","lat":-32.16714,"lng":115.86264},{"id":4042,"name":"Augusta","lat":-34.31566,"lng":115.15922},{"id":4043,"name":"Augusta-Margaret River Shire","lat":-34.1152,"lng":115.32277},{"id":4049,"name":"Australind","lat":-33.2792,"lng":115.71504},{"id":4050,"name":"Aveley","lat":-31.78132,"lng":115.98959},{"id":149550,"name":"Badgingarra","lat":-30.4436733,"lng":115.4747145},{"id":4066,"name":"Bakers Hill","lat":-31.74692,"lng":116.45866},{"id":4070,"name":"Balcatta","lat":-31.87501,"lng":115.82839},{"id":4072,"name":"Baldivis","lat":-32.32889,"lng":115.83047},{"id":4073,"name":"Balga","lat":-31.85497,"lng":115.83986},{"id":4078,"name":"Ballajura","lat":-31.84062,"lng":115.89549},{"id":4097,"name":"Banjup","lat":-32.14179,"lng":115.88671},{"id":4101,"name":"Banksia Grove","lat":-31.69615,"lng":115.80501},{"id":4135,"name":"Bassendean","lat":-31.90584,"lng":115.94501},{"id":4138,"name":"Bateman","lat":-32.05547,"lng":115.84737},{"id":4150,"name":"Baynton","lat":-20.75164,"lng":116.80139},{"id":4151,"name":"Bayonet Head","lat":-34.97305,"lng":117.93446},{"id":4154,"name":"Bayswater","lat":-31.91181,"lng":115.9087},{"id":4157,"name":"Beachlands","lat":-28.7857,"lng":114.60192},{"id":4162,"name":"Beaconsfield","lat":-32.06748,"lng":115.76401},{"id":4171,"name":"Beckenham","lat":-32.02481,"lng":115.95989},{"id":4172,"name":"Bedford","lat":-31.91132,"lng":115.8892},{"id":4174,"name":"Bedfordale","lat":-32.17406,"lng":116.0504},{"id":4175,"name":"Beechboro","lat":-31.86515,"lng":115.93661},{"id":4178,"name":"Beeliar","lat":-32.13339,"lng":115.80637},{"id":4185,"name":"Beldon","lat":-31.77466,"lng":115.7627},{"id":4201,"name":"Bellevue","lat":-31.90116,"lng":116.02762},{"id":4209,"name":"Belmont","lat":-31.95458,"lng":115.94218},{"id":4220,"name":"Bennett Springs","lat":-31.85941,"lng":115.94512},{"id":4225,"name":"Bentley","lat":-32.00224,"lng":115.92473},{"id":4229,"name":"Beresford","lat":-28.75754,"lng":114.61965},{"id":4245,"name":"Bertram","lat":-32.24369,"lng":115.84572},{"id":4249,"name":"Beverley","lat":-32.10839,"lng":116.92736},{"id":4255,"name":"Bibra Lake","lat":-32.09764,"lng":115.81921},{"id":4256,"name":"Bicton","lat":-32.02778,"lng":115.78333},{"id":4262,"name":"Bilingurr","lat":-17.90909,"lng":122.22921},{"id":4264,"name":"Bindoon","lat":-31.38663,"lng":116.09664},{"id":4266,"name":"Binningup","lat":-33.1483,"lng":115.69519},{"id":4312,"name":"Bluff Point","lat":-28.7374,"lng":114.62278},{"id":4315,"name":"Boddington","lat":-32.79195,"lng":116.41883},{"id":4343,"name":"Booragoon","lat":-32.03945,"lng":115.83369},{"id":4356,"name":"Boulder","lat":-30.78204,"lng":121.4912},{"id":4371,"name":"Boyanup","lat":-33.48295,"lng":115.72838},{"id":4373,"name":"Boyup Brook","lat":-33.88555,"lng":116.51885},{"id":4374,"name":"Brabham","lat":-31.82728,"lng":115.97417},{"id":4390,"name":"Brentwood","lat":-32.04347,"lng":115.85246},{"id":4395,"name":"Bridgetown","lat":-33.96242,"lng":116.13598},{"id":4396,"name":"Bridgetown-Greenbushes","lat":-33.99234,"lng":116.22502},{"id":4418,"name":"Broadwater","lat":-33.66304,"lng":115.2842},{"id":4419,"name":"Brockman","lat":-24.88126,"lng":113.65365},{"id":4424,"name":"Brookdale","lat":-32.16696,"lng":116.00193},{"id":4429,"name":"Brookton","lat":-32.35533,"lng":116.99994},{"id":4432,"name":"Broome","lat":-17.94041,"lng":122.64038},{"id":4433,"name":"Broomehill-Tambellup","lat":-34.0132,"lng":117.65297},{"id":4437,"name":"Bruce Rock","lat":-31.96651,"lng":118.02385},{"id":4439,"name":"Brunswick","lat":-33.2324,"lng":115.86282},{"id":4451,"name":"Bulgarra","lat":-20.72584,"lng":116.85673},{"id":4453,"name":"Bull Creek","lat":-32.05625,"lng":115.86242},{"id":4458,"name":"Bullsbrook","lat":-31.66905,"lng":115.9999},{"id":4460,"name":"Bunbury","lat":-33.32711,"lng":115.64137},{"id":4485,"name":"Burns Beach","lat":-31.7206,"lng":115.7205},{"id":4498,"name":"Burswood","lat":-31.95872,"lng":115.90396},{"id":4505,"name":"Busselton","lat":-33.68477,"lng":115.3708},{"id":4506,"name":"Busselton city cenre","lat":-33.65078,"lng":115.34932},{"id":4507,"name":"Butler","lat":-31.64298,"lng":115.70431},{"id":4510,"name":"Byford","lat":-32.22099,"lng":116.009},{"id":4516,"name":"Cable Beach","lat":-17.96098,"lng":122.21269},{"id":4530,"name":"Calista","lat":-32.241,"lng":115.79763},{"id":4541,"name":"Cambridge","lat":-31.93542,"lng":115.79887},{"id":4549,"name":"Camillo","lat":-32.11292,"lng":116.00205},{"id":4569,"name":"Canning","lat":-32.04923,"lng":115.91943},{"id":4570,"name":"Canning Vale","lat":-32.05799,"lng":115.91814},{"id":4571,"name":"Cannington","lat":-32.01625,"lng":115.93648},{"id":4581,"name":"Capel","lat":-33.52704,"lng":115.61813},{"id":4589,"name":"Cardup","lat":-32.25802,"lng":115.98512},{"id":4591,"name":"Carey Park","lat":-33.34878,"lng":115.6493},{"id":4594,"name":"Carine","lat":-31.8523,"lng":115.78258},{"id":4599,"name":"Carlisle","lat":-31.97945,"lng":115.91808},{"id":4603,"name":"Carnamah","lat":-29.80411,"lng":115.59402},{"id":4604,"name":"Carnarvon","lat":-24.88258,"lng":113.65713},{"id":4610,"name":"Carramar","lat":-31.69023,"lng":115.77159},{"id":4631,"name":"Castletown","lat":-33.83237,"lng":121.91563},{"id":4633,"name":"Casuarina","lat":-32.24143,"lng":115.8698},{"id":149557,"name":"Cataby","lat":-30.7274473,"lng":115.432016},{"id":4641,"name":"Caversham","lat":-31.88333,"lng":115.96667},{"id":149552,"name":"Cervantes","lat":-30.5026475,"lng":115.0541767},{"id":4659,"name":"Champion Lakes","lat":-32.11913,"lng":115.98617},{"id":4663,"name":"Chapman Valley","lat":-28.27249,"lng":115.02794},{"id":4686,"name":"Chidlow","lat":-31.86094,"lng":116.27243},{"id":4700,"name":"Chittering","lat":-31.35829,"lng":116.05131},{"id":4705,"name":"Churchlands","lat":-31.92142,"lng":115.79322},{"id":4709,"name":"City Beach","lat":-31.9344,"lng":115.76174},{"id":4710,"name":"City of Cockburn","lat":-32.10264,"lng":115.84431},{"id":4711,"name":"City of Perth","lat":-31.94978,"lng":115.85383},{"id":4718,"name":"Claremont","lat":-31.98127,"lng":115.77942},{"id":4727,"name":"Clarkson","lat":-31.68282,"lng":115.7247},{"id":4748,"name":"Cloverdale","lat":-31.96281,"lng":115.94428},{"id":4760,"name":"Cockburn Central","lat":-32.12133,"lng":115.84776},{"id":4773,"name":"College Grove","lat":-33.37587,"lng":115.65906},{"id":4774,"name":"Collie","lat":-33.27353,"lng":116.16558},{"id":4783,"name":"Como","lat":-31.99119,"lng":115.86336},{"id":4792,"name":"Connolly","lat":-31.74864,"lng":115.75053},{"id":4795,"name":"Coodanup","lat":-32.55187,"lng":115.75352},{"id":4797,"name":"Coogee","lat":-32.11934,"lng":115.7665},{"id":4807,"name":"Coolbellup","lat":-32.08124,"lng":115.80606},{"id":4808,"name":"Coolbinia","lat":-31.9147,"lng":115.84894},{"id":4809,"name":"Coolgardie","lat":-31.01438,"lng":121.20462},{"id":4811,"name":"Cooloongup","lat":-32.31506,"lng":115.77772},{"id":4825,"name":"Coorow","lat":-29.97865,"lng":115.65613},{"id":4843,"name":"Corrigin","lat":-32.37599,"lng":117.81023},{"id":4848,"name":"Cottesloe","lat":-31.99905,"lng":115.76089},{"id":4851,"name":"Cowaramup","lat":-33.85036,"lng":115.10379},{"id":4859,"name":"Craigie","lat":-31.78727,"lng":115.76989},{"id":4869,"name":"Cranbrook","lat":-34.33414,"lng":117.32898},{"id":4873,"name":"Crawley","lat":-31.98418,"lng":115.81603},{"id":4897,"name":"Cuballing","lat":-32.74026,"lng":117.15497},{"id":4898,"name":"Cue","lat":-27.22633,"lng":118.00496},{"id":4903,"name":"Cunderdin","lat":-31.61259,"lng":117.11803},{"id":4909,"name":"Currambine","lat":-31.73306,"lng":115.74766},{"id":4919,"name":"Daglish","lat":-31.95177,"lng":115.8088},{"id":4923,"name":"Dalkeith","lat":-31.99517,"lng":115.7998},{"id":4926,"name":"Dalwallinu","lat":-30.12998,"lng":116.98401},{"id":4927,"name":"Dalyellup","lat":-33.40844,"lng":115.61506},{"id":4928,"name":"Dampier","lat":-20.66275,"lng":116.71256},{"id":4929,"name":"Dampier Peninsula","lat":-16.93241,"lng":122.86559},{"id":4930,"name":"Dandaragan","lat":-30.54142,"lng":115.46132},{"id":4934,"name":"Darch","lat":-31.81255,"lng":115.8458},{"id":4935,"name":"Dardanup","lat":-33.41611,"lng":115.8741},{"id":4938,"name":"Darling Downs","lat":-32.19442,"lng":115.99187},{"id":4943,"name":"Darlington","lat":-31.91906,"lng":116.0812},{"id":4952,"name":"Dawesville","lat":-32.63229,"lng":115.62904},{"id":4955,"name":"Dayton","lat":-31.85251,"lng":115.97494},{"id":4968,"name":"Denham","lat":-25.92679,"lng":113.53327},{"id":4974,"name":"Denmark","lat":-34.93473,"lng":117.37518},{"id":4977,"name":"Derby","lat":-17.30295,"lng":123.62864},{"id":4978,"name":"Derby-West Kimberley","lat":-17.50447,"lng":125.28014},{"id":4988,"name":"Dianella","lat":-31.88822,"lng":115.87186},{"id":4997,"name":"Djugun","lat":-17.95395,"lng":122.22792},{"id":5004,"name":"Dongara","lat":-29.25818,"lng":114.93276},{"id":5005,"name":"Donnybrook","lat":-33.5713,"lng":115.82446},{"id":5006,"name":"Donnybrook-Balingup","lat":-33.70217,"lng":115.97778},{"id":5017,"name":"Doubleview","lat":-31.89627,"lng":115.78155},{"id":5023,"name":"Dowerin","lat":-31.11328,"lng":117.10566},{"id":5030,"name":"Drummond Cove","lat":-28.67379,"lng":114.6128},{"id":5035,"name":"Dudley Park","lat":-32.55221,"lng":115.731},{"id":5039,"name":"Dumbleyung Shire","lat":-33.2178,"lng":117.9875},{"id":5040,"name":"Duncraig","lat":-31.83291,"lng":115.7759},{"id":5041,"name":"Dundas","lat":-32.12502,"lng":124.50582},{"id":5047,"name":"Dunsborough","lat":-33.61476,"lng":115.10445},{"id":5069,"name":"East Bunbury","lat":-33.33619,"lng":115.66041},{"id":5070,"name":"East Cannington","lat":-32.0098,"lng":115.95503},{"id":5071,"name":"East Carnarvon","lat":-24.86397,"lng":113.67768},{"id":5074,"name":"East Fremantle","lat":-32.03654,"lng":115.76714},{"id":5091,"name":"East Perth","lat":-31.95872,"lng":115.87109},{"id":5092,"name":"East Pilbara","lat":-21.61331,"lng":123.71368},{"id":5097,"name":"East Victoria Park","lat":-31.98894,"lng":115.90388},{"id":5101,"name":"Eaton","lat":-33.31664,"lng":115.70503},{"id":5106,"name":"Eden Hill","lat":-31.88908,"lng":115.94675},{"id":5113,"name":"Edgewater","lat":-31.76547,"lng":115.78223},{"id":5120,"name":"Eglinton","lat":-31.58677,"lng":115.68878},{"id":5141,"name":"Ellenbrook","lat":-31.76737,"lng":115.96936},{"id":5149,"name":"Embleton","lat":-31.90355,"lng":115.90902},{"id":5170,"name":"Erskine","lat":-32.55717,"lng":115.70657},{"id":5175,"name":"Esperance","lat":-33.85919,"lng":121.89164},{"id":5176,"name":"Esperance Shire","lat":-33.5197,"lng":122.15586},{"id":5202,"name":"Exmouth","lat":-22.03643,"lng":114.04358},{"id":5214,"name":"Falcon","lat":-32.58244,"lng":115.66199},{"id":5226,"name":"Ferndale","lat":-32.03494,"lng":115.92233},{"id":5242,"name":"Fitzroy Crossing","lat":-18.19714,"lng":125.56663},{"id":5256,"name":"Floreat","lat":-31.93862,"lng":115.79211},{"id":5271,"name":"Forrestdale","lat":-32.1552,"lng":115.93417},{"id":5273,"name":"Forrestfield","lat":-31.98277,"lng":116.00673},{"id":5289,"name":"Fremantle","lat":-32.05165,"lng":115.76379},{"id":5303,"name":"Garden Island","lat":-32.24264,"lng":115.69505},{"id":5321,"name":"Gelorup","lat":-33.42425,"lng":115.64094},{"id":5323,"name":"Geographe","lat":-33.63974,"lng":115.38358},{"id":5327,"name":"Geraldton","lat":-28.77897,"lng":114.61459},{"id":5328,"name":"Geraldton city centre","lat":-28.77754,"lng":114.61494},{"id":5330,"name":"Gidgegannup","lat":-31.75441,"lng":116.18746},{"id":5339,"name":"Gingin","lat":-31.18435,"lng":115.65944},{"id":5344,"name":"Girrawheen","lat":-31.84103,"lng":115.83978},{"id":5357,"name":"Glen Forrest","lat":-31.91929,"lng":116.10726},{"id":5361,"name":"Glen Iris","lat":-33.33713,"lng":115.6743},{"id":5368,"name":"Glendalough","lat":-31.91991,"lng":115.81945},{"id":5397,"name":"Gnangara","lat":-31.77612,"lng":115.86623},{"id":5398,"name":"Gnowangerup","lat":-34.08658,"lng":118.29832},{"id":5401,"name":"Golden Bay","lat":-32.42505,"lng":115.76099},{"id":5414,"name":"Goomalling","lat":-31.23457,"lng":116.79142},{"id":5417,"name":"Gooseberry Hill","lat":-31.95444,"lng":116.0492},{"id":5425,"name":"Gosnells","lat":-32.06763,"lng":116.00203},{"id":5441,"name":"Grasmere","lat":-35.01806,"lng":117.75556},{"id":149556,"name":"Green Head","lat":-30.0774961,"lng":114.9585129},{"id":5455,"name":"Greenfields","lat":-32.52429,"lng":115.76315},{"id":5456,"name":"Greenmount","lat":-31.90072,"lng":116.0495},{"id":5465,"name":"Greenwood","lat":-31.82723,"lng":115.80247},{"id":5475,"name":"Guildford","lat":-31.9,"lng":115.96667},{"id":5490,"name":"Gwelup","lat":-31.87163,"lng":115.79484},{"id":5508,"name":"Halls Creek","lat":-19.00069,"lng":127.45204},{"id":5509,"name":"Halls Head","lat":-32.54315,"lng":115.69665},{"id":5510,"name":"Hamersley","lat":-31.84898,"lng":115.80757},{"id":5514,"name":"Hamilton Hill","lat":-32.08451,"lng":115.77946},{"id":5517,"name":"Hammond Park","lat":-32.16853,"lng":115.8504},{"id":5523,"name":"Hannans","lat":-30.71909,"lng":121.4548},{"id":5530,"name":"Harrisdale","lat":-32.11084,"lng":115.93563},{"id":5533,"name":"Harvey","lat":-33.14976,"lng":115.93376},{"id":5560,"name":"Heathridge","lat":-31.76244,"lng":115.75895},{"id":5570,"name":"Helena Valley","lat":-31.91938,"lng":116.03982},{"id":5578,"name":"Henley Brook","lat":-31.81393,"lng":115.98807},{"id":5585,"name":"Herne Hill","lat":-31.82553,"lng":116.0227},{"id":5593,"name":"High Wycombe","lat":-31.94444,"lng":116.0034},{"id":5597,"name":"Highgate","lat":-31.93971,"lng":115.87015},{"id":5603,"name":"Hilbert","lat":-32.17818,"lng":115.9849},{"id":149559,"name":"Hill River","lat":-30.2574411,"lng":115.1536518},{"id":5605,"name":"Hillarys","lat":-31.80698,"lng":115.74045},{"id":5610,"name":"Hillman","lat":-32.28327,"lng":115.76364},{"id":5615,"name":"Hilton","lat":-32.06208,"lng":115.78049},{"id":5625,"name":"Hocking","lat":-31.77012,"lng":115.81832},{"id":5671,"name":"Huntingdale","lat":-32.08318,"lng":115.96614},{"id":5683,"name":"Iluka","lat":-31.73554,"lng":115.73058},{"id":5692,"name":"Inglewood","lat":-31.91663,"lng":115.8798},{"id":5693,"name":"Innaloo","lat":-31.89272,"lng":115.79508},{"id":5704,"name":"Irwin","lat":-29.34192,"lng":115.04561},{"id":5721,"name":"Jandakot","lat":-32.10158,"lng":115.87083},{"id":5723,"name":"Jane Brook","lat":-31.86368,"lng":116.05039},{"id":5725,"name":"Jarrahdale","lat":-32.3358,"lng":116.05951},{"id":5729,"name":"Jerramungup","lat":-34.0305,"lng":119.11369},{"id":5735,"name":"Jindalee","lat":-31.64938,"lng":115.69496},{"id":5740,"name":"Jolimont","lat":-31.94564,"lng":115.80947},{"id":5741,"name":"Joondalup","lat":-31.77962,"lng":115.76498},{"id":5742,"name":"Joondanna","lat":-31.90767,"lng":115.84233},{"id":5752,"name":"Jurien Bay","lat":-30.30591,"lng":115.03825},{"id":5755,"name":"Kalamunda","lat":-32.00398,"lng":116.13292},{"id":5757,"name":"Kalbarri","lat":-27.7105,"lng":114.16505},{"id":5759,"name":"Kalgoorlie","lat":-30.74614,"lng":121.4742},{"id":5760,"name":"Kalgoorlie/Boulder","lat":-30.77632,"lng":124.92347},{"id":5765,"name":"Kallaroo","lat":-31.79098,"lng":115.75298},{"id":5769,"name":"Kambalda East","lat":-31.2055,"lng":121.67011},{"id":5770,"name":"Kambalda West","lat":-31.20169,"lng":121.6306},{"id":5786,"name":"Karawara","lat":-32.0086,"lng":115.88114},{"id":5787,"name":"Kardinya","lat":-32.06561,"lng":115.81483},{"id":5790,"name":"Karnup","lat":-32.41894,"lng":115.79267},{"id":5792,"name":"Karratha","lat":-20.73765,"lng":116.84629},{"id":5793,"name":"Karrinyup","lat":-31.87233,"lng":115.77684},{"id":5796,"name":"Katanning","lat":-33.62476,"lng":117.63965},{"id":5814,"name":"Kellerberrin","lat":-31.57709,"lng":117.80561},{"id":5817,"name":"Kelmscott","lat":-32.12434,"lng":116.0259},{"id":5832,"name":"Kent Shire","lat":-33.53881,"lng":118.66993},{"id":5836,"name":"Kenwick","lat":-32.03333,"lng":115.96667},{"id":5845,"name":"Kewdale","lat":-31.97886,"lng":115.95159},{"id":5850,"name":"Kiara","lat":-31.88156,"lng":115.93893},{"id":5880,"name":"Kingsley","lat":-31.81036,"lng":115.80077},{"id":5891,"name":"Kinross","lat":-31.71868,"lng":115.73839},{"id":5903,"name":"Kojonup","lat":-33.92546,"lng":117.03982},{"id":5904,"name":"Kondinin","lat":-32.48431,"lng":119.0242},{"id":5907,"name":"Koondoola","lat":-31.84145,"lng":115.86654},{"id":5910,"name":"Koorda","lat":-30.60412,"lng":117.40736},{"id":5921,"name":"Kulin","lat":-32.66096,"lng":118.57544},{"id":5923,"name":"Kununurra","lat":-15.77825,"lng":128.74208},{"id":5933,"name":"Kwinana","lat":-32.23391,"lng":115.82785},{"id":5945,"name":"Lake Grace","lat":-33.1291,"lng":119.42041},{"id":5953,"name":"Lakelands","lat":-32.47157,"lng":115.77291},{"id":5961,"name":"Lamington","lat":-30.73425,"lng":121.46163},{"id":149555,"name":"Lancelin","lat":-31.0223127,"lng":115.3239809},{"id":5965,"name":"Landsdale","lat":-31.8075,"lng":115.86599},{"id":5970,"name":"Langford","lat":-32.04092,"lng":115.94157},{"id":5981,"name":"Lathlain","lat":-31.96755,"lng":115.90631},{"id":5989,"name":"Laverton","lat":-27.93793,"lng":125.27127},{"id":5996,"name":"Leda","lat":-32.26766,"lng":115.7993},{"id":5997,"name":"Leederville","lat":-31.93628,"lng":115.8419},{"id":149554,"name":"Leeman","lat":-29.9873579,"lng":114.9578904},{"id":5998,"name":"Leeming","lat":-32.07511,"lng":115.86613},{"id":6003,"name":"Leinster","lat":-27.92028,"lng":120.6967},{"id":6009,"name":"Leonora","lat":-28.39424,"lng":121.2596},{"id":6012,"name":"Leschenault","lat":-33.24519,"lng":115.7251},{"id":6013,"name":"Lesmurdie","lat":-32.00199,"lng":116.04821},{"id":6036,"name":"Little Grove","lat":-35.06803,"lng":117.87197},{"id":6048,"name":"Lockridge","lat":-31.88168,"lng":115.95031},{"id":6049,"name":"Lockyer","lat":-35.00567,"lng":117.85875},{"id":6074,"name":"Lower Chittering","lat":-31.58333,"lng":116.11667},{"id":6076,"name":"Lower King","lat":-34.95778,"lng":117.93833},{"id":6092,"name":"Lynwood","lat":-32.04013,"lng":115.92888},{"id":6118,"name":"Maddington","lat":-32.05,"lng":115.98333},{"id":6119,"name":"Madeley","lat":-31.8111,"lng":115.82814},{"id":6120,"name":"Madora Bay","lat":-32.46951,"lng":115.75264},{"id":6124,"name":"Maida Vale","lat":-31.95187,"lng":116.02764},{"id":149549,"name":"Malaga","lat":-31.8581429,"lng":115.8798645},{"id":6143,"name":"Mandurah","lat":-32.5269,"lng":115.7217},{"id":6144,"name":"Mandurah city centre","lat":-32.52644,"lng":115.73361},{"id":6150,"name":"Manjimup","lat":-34.59789,"lng":116.26566},{"id":6155,"name":"Manning","lat":-32.01594,"lng":115.86714},{"id":6167,"name":"Marangaroo","lat":-31.82711,"lng":115.83843},{"id":6171,"name":"Marble Bar","lat":-21.17067,"lng":119.74441},{"id":6176,"name":"Margaret River","lat":-33.95504,"lng":115.07599},{"id":6185,"name":"Marmion","lat":-31.84158,"lng":115.75692},{"id":6195,"name":"Martin","lat":-32.07549,"lng":116.04536},{"id":6211,"name":"Maylands","lat":-31.93097,"lng":115.89486},{"id":6217,"name":"McKail","lat":-34.98533,"lng":117.8301},{"id":6225,"name":"Meadow Springs","lat":-32.49718,"lng":115.75334},{"id":6230,"name":"Medina","lat":-32.23406,"lng":115.79901},{"id":6233,"name":"Meekatharra","lat":-25.3033,"lng":118.99974},{"id":6242,"name":"Melville","lat":-32.04325,"lng":115.83408},{"id":6246,"name":"Menora","lat":-31.91889,"lng":115.86208},{"id":6248,"name":"Menzies","lat":-29.39176,"lng":123.71878},{"id":6259,"name":"Merredin","lat":-31.46054,"lng":118.38509},{"id":6262,"name":"Merriwa","lat":-31.66494,"lng":115.71273},{"id":6276,"name":"Middle Swan","lat":-31.85,"lng":116.01667},{"id":6280,"name":"Midland","lat":-31.88909,"lng":116.0107},{"id":6281,"name":"Midvale","lat":-31.88881,"lng":116.03288},{"id":6289,"name":"Millars Well","lat":-20.74168,"lng":116.81731},{"id":6291,"name":"Millbridge","lat":-33.30617,"lng":115.735},{"id":6306,"name":"Mindarie","lat":-31.68932,"lng":115.70698},{"id":6309,"name":"Mingenew","lat":-29.14515,"lng":115.50123},{"id":6313,"name":"Mira Mar","lat":-35.01517,"lng":117.90096},{"id":6317,"name":"Mirrabooka","lat":-31.85963,"lng":115.86587},{"id":6365,"name":"Moora","lat":-30.51218,"lng":116.2098},{"id":6377,"name":"Morawa","lat":-29.03545,"lng":116.05643},{"id":6385,"name":"Morley","lat":-31.88775,"lng":115.9099},{"id":6400,"name":"Mosman Park","lat":-32.01421,"lng":115.76613},{"id":6407,"name":"Mount Barker","lat":-34.63084,"lng":117.66606},{"id":6410,"name":"Mount Claremont","lat":-31.96177,"lng":115.78337},{"id":6425,"name":"Mount Hawthorn","lat":-31.92,"lng":115.83509},{"id":6427,"name":"Mount Helena","lat":-31.87606,"lng":116.21025},{"id":6433,"name":"Mount Lawley","lat":-31.93439,"lng":115.8716},{"id":6439,"name":"Mount Magnet","lat":-28.29082,"lng":117.96655},{"id":6440,"name":"Mount Marshall","lat":-30.29376,"lng":118.00063},{"id":6442,"name":"Mount Melville","lat":-35.02216,"lng":117.87137},{"id":6444,"name":"Mount Nasura","lat":-32.1378,"lng":116.02473},{"id":6450,"name":"Mount Pleasant","lat":-32.03974,"lng":115.84993},{"id":6455,"name":"Mount Richon","lat":-32.17349,"lng":116.02137},{"id":6460,"name":"Mount Tarcoola","lat":-28.79859,"lng":114.6253},{"id":149551,"name":"Muchea","lat":-31.5493638,"lng":115.870362},{"id":6473,"name":"Mukinbudin","lat":-30.63684,"lng":118.28648},{"id":6477,"name":"Mullaloo","lat":-31.77896,"lng":115.73676},{"id":6480,"name":"Mundaring","lat":-31.88456,"lng":116.21551},{"id":6481,"name":"Mundijong","lat":-32.29217,"lng":115.98564},{"id":6488,"name":"Munster","lat":-32.13647,"lng":115.78302},{"id":6490,"name":"Murchison","lat":-27.00893,"lng":116.41205},{"id":6491,"name":"Murdoch","lat":-32.06987,"lng":115.83757},{"id":6493,"name":"Murray","lat":-32.62391,"lng":115.96538},{"id":6504,"name":"Myaree","lat":-32.04,"lng":115.81761},{"id":6519,"name":"Nannup","lat":-34.13466,"lng":115.67375},{"id":6528,"name":"Narembeen","lat":-32.02206,"lng":118.6899},{"id":6540,"name":"Narrogin","lat":-32.93282,"lng":117.17763},{"id":6546,"name":"Nedlands","lat":-31.97994,"lng":115.79942},{"id":6569,"name":"Newman","lat":-23.35644,"lng":119.73553},{"id":6581,"name":"Ngaanyatjarraku","lat":-25.08871,"lng":126.83494},{"id":6590,"name":"Nickol","lat":-20.74558,"lng":116.7954},{"id":6600,"name":"Nollamara","lat":-31.88016,"lng":115.84543},{"id":6604,"name":"Noranda","lat":-31.87333,"lng":115.89901},{"id":6616,"name":"North Beach","lat":-31.86298,"lng":115.75624},{"id":6624,"name":"North Coogee","lat":-32.09505,"lng":115.75972},{"id":6627,"name":"North Fremantle","lat":-32.03333,"lng":115.75},{"id":6634,"name":"North Lake","lat":-32.0819,"lng":115.83567},{"id":6644,"name":"North Perth","lat":-31.92724,"lng":115.85276},{"id":6661,"name":"Northam","lat":-31.69898,"lng":116.64964},{"id":6662,"name":"Northampton Shire","lat":-28.04956,"lng":114.49589},{"id":6664,"name":"Northbridge","lat":-31.94784,"lng":115.85881},{"id":6682,"name":"Nullagine","lat":-21.88972,"lng":120.1114},{"id":6683,"name":"Nulsen","lat":-33.85696,"lng":121.87499},{"id":6687,"name":"Nungarin","lat":-31.13714,"lng":118.21768},{"id":6699,"name":"Oakford","lat":-32.20094,"lng":115.93391},{"id":6711,"name":"Ocean Reef","lat":-31.75871,"lng":115.73601},{"id":6726,"name":"Onslow","lat":-21.63764,"lng":115.11221},{"id":6730,"name":"Orana","lat":-34.99601,"lng":117.85925},{"id":6736,"name":"Orelia","lat":-32.2333,"lng":115.82227},{"id":6743,"name":"Osborne Park","lat":-31.90066,"lng":115.81083},{"id":6756,"name":"Padbury","lat":-31.80645,"lng":115.7688},{"id":6772,"name":"Palmyra","lat":-32.04502,"lng":115.78589},{"id":6779,"name":"Paraburdoo","lat":-23.20417,"lng":117.66973},{"id":6793,"name":"Parkerville","lat":-31.87472,"lng":116.138},{"id":6802,"name":"Parkwood","lat":-32.04913,"lng":115.91838},{"id":6803,"name":"Parmelia","lat":-32.25784,"lng":115.82208},{"id":6819,"name":"Pearce","lat":-31.66667,"lng":116.01667},{"id":6822,"name":"Pearsall","lat":-31.78117,"lng":115.81823},{"id":6823,"name":"Pegs Creek","lat":-20.7383,"lng":116.83278},{"id":6825,"name":"Pemberton","lat":-34.44311,"lng":116.03689},{"id":6835,"name":"Peppermint Grove","lat":-31.99885,"lng":115.76697},{"id":6838,"name":"Perenjori","lat":-29.39784,"lng":116.53543},{"id":6840,"name":"Perth","lat":-31.95224,"lng":115.8614},{"id":6841,"name":"Perth city centre","lat":-31.95289,"lng":115.85152},{"id":6851,"name":"Piara Waters","lat":-32.13344,"lng":115.91634},{"id":6852,"name":"Piccadilly","lat":-30.7428,"lng":121.46418},{"id":6859,"name":"Pingelly","lat":-32.53174,"lng":117.20004},{"id":6860,"name":"Pinjarra","lat":-32.6298,"lng":115.87351},{"id":6865,"name":"Plantagenet Shire","lat":-34.62508,"lng":117.59753},{"id":6887,"name":"Port Denison","lat":-29.27367,"lng":114.92068},{"id":6892,"name":"Port Hedland","lat":-20.79258,"lng":118.63264},{"id":6894,"name":"Port Kennedy","lat":-32.37342,"lng":115.7515},{"id":6932,"name":"Quairading","lat":-32.01462,"lng":117.39835},{"id":6938,"name":"Queens Park","lat":-32.00314,"lng":115.94621},{"id":6947,"name":"Quindalup","lat":-33.6356,"lng":115.14899},{"id":6948,"name":"Quinns Rocks","lat":-31.67379,"lng":115.70372},{"id":6961,"name":"Rangeway","lat":-28.78665,"lng":114.63059},{"id":6969,"name":"Ravensthorpe","lat":-33.68375,"lng":120.15338},{"id":6971,"name":"Ravenswood","lat":-32.5824,"lng":115.8315},{"id":6981,"name":"Redcliffe","lat":-31.93845,"lng":115.94645},{"id":149558,"name":"Regans Ford","lat":-30.9555288,"lng":115.6073405},{"id":7013,"name":"Ridgewood","lat":-31.6615,"lng":115.72261},{"id":7026,"name":"Riverton","lat":-32.03468,"lng":115.89856},{"id":7027,"name":"Rivervale","lat":-31.95546,"lng":115.91306},{"id":7044,"name":"Rockingham","lat":-32.28239,"lng":115.73238},{"id":7045,"name":"Rockingham city centre","lat":-32.28407,"lng":115.7354},{"id":7049,"name":"Roebuck","lat":-18.1713,"lng":122.50116},{"id":7051,"name":"Roleystone","lat":-32.11458,"lng":116.0706},{"id":7079,"name":"Rossmoyne","lat":-32.03965,"lng":115.86781},{"id":7106,"name":"Safety Bay","lat":-32.30463,"lng":115.74213},{"id":7128,"name":"Salter Point","lat":-32.02384,"lng":115.86582},{"id":7130,"name":"Samson","lat":-32.06996,"lng":115.7977},{"id":7139,"name":"Sandstone","lat":-28.42189,"lng":118.98846},{"id":7149,"name":"Scarborough","lat":-31.89578,"lng":115.76431},{"id":7172,"name":"Secret Harbour","lat":-32.40589,"lng":115.75852},{"id":7181,"name":"Serpentine","lat":-32.36051,"lng":115.97723},{"id":7182,"name":"Serpentine-Jarrahdale","lat":-32.32452,"lng":116.04507},{"id":7188,"name":"Seville Grove","lat":-32.13645,"lng":115.98905},{"id":7192,"name":"Shark Bay","lat":-26.38916,"lng":114.21845},{"id":7199,"name":"Shelley","lat":-32.02957,"lng":115.88664},{"id":7202,"name":"Shenton Park","lat":-31.95575,"lng":115.79807},{"id":7208,"name":"Shoalwater","lat":-32.29088,"lng":115.71101},{"id":7214,"name":"Silver Sands","lat":-32.50857,"lng":115.73599},{"id":7217,"name":"Sinagra","lat":-31.74261,"lng":115.80633},{"id":7218,"name":"Singleton","lat":-32.44403,"lng":115.75725},{"id":7245,"name":"Somerville","lat":-30.76979,"lng":121.45438},{"id":7248,"name":"Sorrento","lat":-31.82533,"lng":115.75248},{"id":7254,"name":"South Bunbury","lat":-33.3491,"lng":115.63359},{"id":7256,"name":"South Carnarvon","lat":-24.89348,"lng":113.65846},{"id":7258,"name":"South Fremantle","lat":-32.06907,"lng":115.75453},{"id":7263,"name":"South Guildford","lat":-31.9122,"lng":115.96825},{"id":7264,"name":"South Hedland","lat":-20.40655,"lng":118.60069},{"id":7267,"name":"South Kalgoorlie","lat":-30.76507,"lng":121.47334},{"id":7271,"name":"South Lake","lat":-32.11125,"lng":115.83873},{"id":7281,"name":"South Perth","lat":-31.99884,"lng":115.87222},{"id":7291,"name":"South Yunderup","lat":-32.5851,"lng":115.78015},{"id":7297,"name":"Southern River","lat":-32.10658,"lng":115.95896},{"id":7300,"name":"Spalding","lat":-28.73525,"lng":114.63651},{"id":7301,"name":"Spearwood","lat":-32.10534,"lng":115.77797},{"id":7304,"name":"Spencer Park","lat":-35.00515,"lng":117.90005},{"id":7323,"name":"St George Ranges","lat":-18.98204,"lng":125.00873},{"id":7330,"name":"St James","lat":-32.00004,"lng":115.9098},{"id":7347,"name":"Stirling","lat":-31.8794,"lng":115.80929},{"id":7351,"name":"Stoneville","lat":-30.86667,"lng":121.76667},{"id":7356,"name":"Strathalbyn","lat":-28.75168,"lng":114.64576},{"id":7365,"name":"Stratton","lat":-31.86828,"lng":116.04066},{"id":7371,"name":"Subiaco","lat":-31.95964,"lng":115.81564},{"id":7372,"name":"Success","lat":-32.14281,"lng":115.84999},{"id":7383,"name":"Sunset Beach","lat":-28.71907,"lng":114.62297},{"id":7401,"name":"Swan","lat":-31.77039,"lng":116.08746},{"id":7403,"name":"Swan View","lat":-31.88333,"lng":116.05},{"id":7404,"name":"Swanbourne","lat":-31.96878,"lng":115.7673},{"id":7424,"name":"Tammin","lat":-31.60512,"lng":117.48306},{"id":7433,"name":"Tapping","lat":-31.71947,"lng":115.79559},{"id":7436,"name":"Tarcoola Beach","lat":-28.81001,"lng":114.62236},{"id":7458,"name":"Telfer","lat":-21.21169,"lng":123.26175},{"id":7496,"name":"The Vines","lat":-31.75492,"lng":116.00238},{"id":7507,"name":"Thornlie","lat":-32.06003,"lng":115.955},{"id":7509,"name":"Three Springs","lat":-29.51386,"lng":115.63158},{"id":7526,"name":"Tom Price","lat":-22.6939,"lng":117.7931},{"id":7530,"name":"Toodyay","lat":-31.46991,"lng":116.38804},{"id":7560,"name":"Trayning","lat":-31.16681,"lng":117.83812},{"id":7564,"name":"Trigg","lat":-31.86939,"lng":115.7571},{"id":7571,"name":"Tuart Hill","lat":-31.89808,"lng":115.83495},{"id":7594,"name":"Two Rocks","lat":-31.49985,"lng":115.58737},{"id":7609,"name":"Upper Gascoyne","lat":-24.71935,"lng":116.33876},{"id":7619,"name":"Usher","lat":-33.37982,"lng":115.6292},{"id":7620,"name":"Utakarra","lat":-28.78333,"lng":114.65},{"id":7627,"name":"Vasse","lat":-33.69337,"lng":115.2678},{"id":7633,"name":"Victoria Park","lat":-31.97651,"lng":115.90592},{"id":7634,"name":"Victoria Plains","lat":-31.01632,"lng":116.28546},{"id":7638,"name":"Vincent","lat":-31.93138,"lng":115.85412},{"id":7645,"name":"Viveash","lat":-31.87861,"lng":115.99661},{"id":7653,"name":"Waggrakine","lat":-28.71883,"lng":114.63924},{"id":7654,"name":"Wagin","lat":-33.27501,"lng":117.38554},{"id":7658,"name":"Waikiki","lat":-32.31606,"lng":115.7546},{"id":7682,"name":"Wandering","lat":-32.52589,"lng":116.56668},{"id":7683,"name":"Wandi","lat":-32.1943,"lng":115.8763},{"id":7685,"name":"Wandina","lat":-28.81938,"lng":114.63464},{"id":7691,"name":"Wannanup","lat":-32.59946,"lng":115.64488},{"id":7692,"name":"Wanneroo","lat":-31.65293,"lng":115.72211},{"id":7706,"name":"Warnbro","lat":-32.34017,"lng":115.7473},{"id":7709,"name":"Waroona","lat":-32.84916,"lng":115.90429},{"id":7726,"name":"Warwick","lat":-31.83974,"lng":115.80855},{"id":7729,"name":"Waterford","lat":-32.01574,"lng":115.88662},{"id":7732,"name":"Watermans Bay","lat":-31.84915,"lng":115.7559},{"id":7739,"name":"Wattle Grove","lat":-32.00672,"lng":116.00046},{"id":7755,"name":"Wellard","lat":-32.26667,"lng":115.83333},{"id":7760,"name":"Wembley","lat":-31.93308,"lng":115.81783},{"id":7761,"name":"Wembley Downs","lat":-31.91169,"lng":115.77358},{"id":7776,"name":"West Arthur","lat":-33.44057,"lng":116.68597},{"id":7780,"name":"West Beach","lat":-33.87464,"lng":121.89013},{"id":7781,"name":"West Busselton","lat":-33.65792,"lng":115.32293},{"id":7795,"name":"West Lamington","lat":-30.74707,"lng":121.45248},{"id":7797,"name":"West Leederville","lat":-31.94141,"lng":115.83117},{"id":7803,"name":"West Perth","lat":-31.94896,"lng":115.84199},{"id":7826,"name":"Westminster","lat":-31.86744,"lng":115.83919},{"id":7828,"name":"Westonia","lat":-30.88436,"lng":118.72974},{"id":7833,"name":"White Gum Valley","lat":-32.06031,"lng":115.77058},{"id":7848,"name":"Wickepin","lat":-32.82211,"lng":117.63996},{"id":7850,"name":"Wickham","lat":-20.67474,"lng":117.13784},{"id":7853,"name":"Willagee","lat":-32.05196,"lng":115.80533},{"id":7855,"name":"Willetton","lat":-32.05251,"lng":115.88782},{"id":7856,"name":"Williams","lat":-33.05217,"lng":116.70943},{"id":7868,"name":"Wilson","lat":-32.02058,"lng":115.91181},{"id":7873,"name":"Wiluna","lat":-25.3663,"lng":121.93243},{"id":7889,"name":"Winthrop","lat":-32.05216,"lng":115.82972},{"id":7893,"name":"Withers","lat":-33.36807,"lng":115.6305},{"id":7907,"name":"Wongan-Ballidu","lat":-30.73138,"lng":116.84854},{"id":7910,"name":"Wonthella","lat":-28.76689,"lng":114.63338},{"id":7911,"name":"Woodanilling","lat":-33.51937,"lng":117.3358},{"id":7914,"name":"Woodbridge","lat":-31.88695,"lng":115.99196},{"id":149553,"name":"Woodridge","lat":-31.3314368,"lng":115.5825247},{"id":7927,"name":"Woodvale","lat":-31.78928,"lng":115.79676},{"id":7947,"name":"Wooroloo","lat":-31.8038,"lng":116.31311},{"id":7948,"name":"Woorree","lat":-28.76677,"lng":114.65806},{"id":7961,"name":"Wundowie","lat":-31.76163,"lng":116.3799},{"id":7966,"name":"Wyalkatchem","lat":-31.19528,"lng":117.44682},{"id":7971,"name":"Wyndham-East Kimberley","lat":-15.51291,"lng":126.58779},{"id":7982,"name":"Yakamia","lat":-35.00392,"lng":117.87828},{"id":7983,"name":"Yalgoo","lat":-28.48787,"lng":117.15818},{"id":7985,"name":"Yallingup","lat":-33.64592,"lng":115.03514},{"id":7987,"name":"Yalyalup","lat":-33.67496,"lng":115.41449},{"id":7990,"name":"Yanchep","lat":-31.54678,"lng":115.63171},{"id":7992,"name":"Yangebup","lat":-32.12065,"lng":115.81623},{"id":8022,"name":"Yilgarn","lat":-30.90938,"lng":119.25881},{"id":8023,"name":"Yokine","lat":-31.90113,"lng":115.85319},{"id":8025,"name":"York","lat":-31.88809,"lng":116.7678}]