[{"id":3916,"name":"Acton Park","lat":-42.87932,"lng":147.48459},{"id":4047,"name":"Austins Ferry","lat":-42.76667,"lng":147.25},{"id":4062,"name":"Bagdad","lat":-42.62968,"lng":147.22339},{"id":4145,"name":"Battery Point","lat":-42.88995,"lng":147.33324},{"id":4160,"name":"Beaconsfield","lat":-41.20227,"lng":146.81723},{"id":4170,"name":"Beauty Point","lat":-41.16216,"lng":146.82146},{"id":4200,"name":"Bellerive","lat":-42.87551,"lng":147.3703},{"id":4239,"name":"Berriedale","lat":-42.81667,"lng":147.25},{"id":4289,"name":"Blackmans Bay","lat":-43.00311,"lng":147.31694},{"id":4292,"name":"Blackstone Heights","lat":-41.45977,"lng":147.08407},{"id":4387,"name":"Break O'Day","lat":-41.39069,"lng":147.97477},{"id":4398,"name":"Bridgewater","lat":-42.73719,"lng":147.22784},{"id":4399,"name":"Bridport","lat":-41.00046,"lng":147.39175},{"id":4404,"name":"Brighton","lat":-42.72673,"lng":147.24233},{"id":4484,"name":"Burnie","lat":-41.1965,"lng":145.81136},{"id":4540,"name":"Cambridge","lat":-42.83333,"lng":147.45},{"id":4649,"name":"Central Coast","lat":-41.26999,"lng":146.05916},{"id":4653,"name":"Central Highlands","lat":-42.19653,"lng":146.63934},{"id":4689,"name":"Chigwell","lat":-42.80912,"lng":147.2448},{"id":4707,"name":"Circular Head","lat":-41.01991,"lng":145.08366},{"id":4717,"name":"Claremont","lat":-42.78333,"lng":147.25},{"id":4720,"name":"Clarence","lat":-42.87369,"lng":147.44725},{"id":4725,"name":"Clarendon Vale","lat":-42.88988,"lng":147.44368},{"id":4878,"name":"Cressy","lat":-41.68561,"lng":147.07792},{"id":4911,"name":"Currie","lat":-39.92976,"lng":143.85385},{"id":4917,"name":"Cygnet","lat":-43.15333,"lng":147.07253},{"id":4967,"name":"Deloraine","lat":-41.52477,"lng":146.65701},{"id":4981,"name":"Derwent Valley","lat":-42.80383,"lng":146.5297},{"id":4984,"name":"Devonport","lat":-41.21296,"lng":146.32401},{"id":4999,"name":"Dodges Ferry","lat":-42.85315,"lng":147.62263},{"id":5015,"name":"Dorset","lat":-41.04789,"lng":147.73167},{"id":5052,"name":"Dynnyrne","lat":-42.90541,"lng":147.31576},{"id":5073,"name":"East Devonport","lat":-41.18792,"lng":146.3866},{"id":5085,"name":"East Launceston","lat":-41.43843,"lng":147.15101},{"id":5191,"name":"Evandale","lat":-41.56858,"lng":147.25271},{"id":5250,"name":"Flinders","lat":-40.03799,"lng":148.13965},{"id":5277,"name":"Franklin","lat":-43.08884,"lng":147.00906},{"id":5297,"name":"Gagebrook","lat":-42.7477,"lng":147.26984},{"id":5319,"name":"Geeveston","lat":-43.16337,"lng":146.92549},{"id":5320,"name":"Geilston Bay","lat":-42.82955,"lng":147.3463},{"id":5324,"name":"George Town","lat":-41.11982,"lng":147.01731},{"id":5350,"name":"Glamorgan/Spring Bay","lat":-42.27832,"lng":147.96675},{"id":5385,"name":"Glenorchy","lat":-42.83188,"lng":147.22954},{"id":5409,"name":"Goodwood","lat":-42.82822,"lng":147.29301},{"id":5438,"name":"Granton","lat":-42.75149,"lng":147.22795},{"id":5503,"name":"Hadspen","lat":-41.50059,"lng":147.07359},{"id":5582,"name":"Herdsmans Cove","lat":-42.75066,"lng":147.26483},{"id":5609,"name":"Hillcrest","lat":-41.06324,"lng":145.89437},{"id":5621,"name":"Hobart","lat":-42.87936,"lng":147.32941},{"id":5622,"name":"Hobart city centre","lat":-42.8828,"lng":147.32582},{"id":5660,"name":"Howrah","lat":-42.88728,"lng":147.40554},{"id":5673,"name":"Huon Valley","lat":-43.29385,"lng":146.56555},{"id":5674,"name":"Huonville","lat":-43.03124,"lng":147.04813},{"id":5700,"name":"Invermay","lat":-41.42036,"lng":147.13358},{"id":5835,"name":"Kentish","lat":-41.46341,"lng":146.17726},{"id":5865,"name":"King Island","lat":-39.87215,"lng":143.99153},{"id":5867,"name":"Kingborough","lat":-42.97451,"lng":147.25113},{"id":5872,"name":"Kings Meadows","lat":-41.47041,"lng":147.16196},{"id":5882,"name":"Kingston","lat":-42.97638,"lng":147.30351},{"id":5887,"name":"Kingston Beach","lat":-42.98021,"lng":147.31941},{"id":5982,"name":"Latrobe","lat":-41.21551,"lng":146.40656},{"id":5984,"name":"Lauderdale","lat":-42.91364,"lng":147.48747},{"id":5985,"name":"Launceston","lat":-41.43876,"lng":147.13467},{"id":5986,"name":"Launceston city centre","lat":-41.43352,"lng":147.1378},{"id":6000,"name":"Legana","lat":-41.36572,"lng":147.04584},{"id":6005,"name":"Lenah Valley","lat":-42.87146,"lng":147.27514},{"id":6028,"name":"Lindisfarne","lat":-42.84837,"lng":147.36192},{"id":6064,"name":"Longford","lat":-41.60512,"lng":147.11887},{"id":6087,"name":"Lutana","lat":-42.83475,"lng":147.31152},{"id":6177,"name":"Margate","lat":-43.02814,"lng":147.26256},{"id":6207,"name":"Mayfield","lat":-41.3876,"lng":147.13052},{"id":6229,"name":"Meander Valley","lat":-41.64952,"lng":146.54572},{"id":6268,"name":"Miandetta","lat":-41.1955,"lng":146.35322},{"id":6282,"name":"Midway Point","lat":-42.7948,"lng":147.52883},{"id":6350,"name":"Montello","lat":-41.05762,"lng":145.89626},{"id":6355,"name":"Montrose","lat":-42.82895,"lng":147.24735},{"id":6359,"name":"Moonah","lat":-42.84617,"lng":147.30228},{"id":6389,"name":"Mornington","lat":-42.86267,"lng":147.39819},{"id":6446,"name":"Mount Nelson","lat":-42.92073,"lng":147.32069},{"id":6459,"name":"Mount Stuart","lat":-42.87157,"lng":147.30164},{"id":6467,"name":"Mowbray","lat":-41.40243,"lng":147.15059},{"id":6560,"name":"New Norfolk","lat":-42.78261,"lng":147.0587},{"id":6561,"name":"New Town","lat":-42.85758,"lng":147.30869},{"id":6571,"name":"Newnham","lat":-41.38969,"lng":147.11397},{"id":6575,"name":"Newstead","lat":-41.44108,"lng":147.16183},{"id":6632,"name":"North Hobart","lat":-42.87406,"lng":147.31597},{"id":6668,"name":"Northern Midlands","lat":-41.87988,"lng":147.45776},{"id":6674,"name":"Norwood","lat":-41.4592,"lng":147.18077},{"id":6697,"name":"Oakdowns","lat":-42.90178,"lng":147.45595},{"id":6715,"name":"Old Beach","lat":-42.77758,"lng":147.26659},{"id":6787,"name":"Park Grove","lat":-41.05478,"lng":145.88201},{"id":6828,"name":"Penguin","lat":-41.12258,"lng":146.07318},{"id":6839,"name":"Perth","lat":-41.57231,"lng":147.17096},{"id":6906,"name":"Port Sorell","lat":-41.16652,"lng":146.55283},{"id":6924,"name":"Prospect Vale","lat":-41.481,"lng":147.10406},{"id":6943,"name":"Queenstown","lat":-42.0805,"lng":145.55646},{"id":6959,"name":"Ranelagh","lat":-43.00977,"lng":147.03764},{"id":6970,"name":"Ravenswood","lat":-41.41593,"lng":147.1825},{"id":7009,"name":"Richmond","lat":-42.73554,"lng":147.43833},{"id":7021,"name":"Risdon Vale","lat":-42.81242,"lng":147.35654},{"id":7024,"name":"Riverside","lat":-41.42105,"lng":147.05086},{"id":7039,"name":"Rocherlea","lat":-41.38083,"lng":147.15738},{"id":7050,"name":"Rokeby","lat":-42.89875,"lng":147.44917},{"id":7053,"name":"Romaine","lat":-41.09944,"lng":145.89376},{"id":7070,"name":"Rosetta","lat":-42.82105,"lng":147.25258},{"id":7115,"name":"Saint Leonards","lat":-41.45672,"lng":147.19952},{"id":7134,"name":"Sandford","lat":-42.93333,"lng":147.5},{"id":7141,"name":"Sandy Bay","lat":-42.89449,"lng":147.32439},{"id":7156,"name":"Scottsdale","lat":-41.1578,"lng":147.51727},{"id":7185,"name":"Seven Mile Beach","lat":-42.85863,"lng":147.50532},{"id":7194,"name":"Shearwater","lat":-41.15673,"lng":146.53178},{"id":7195,"name":"Sheffield","lat":-41.39947,"lng":146.33897},{"id":7209,"name":"Shorewell Park","lat":-41.0699,"lng":145.87689},{"id":7231,"name":"Smithton","lat":-40.84587,"lng":145.12498},{"id":7234,"name":"Snug","lat":-43.06669,"lng":147.25468},{"id":7242,"name":"Somerset","lat":-41.04065,"lng":145.83055},{"id":7246,"name":"Sorell","lat":-42.78908,"lng":147.69488},{"id":7265,"name":"South Hobart","lat":-42.89459,"lng":147.30924},{"id":7272,"name":"South Launceston","lat":-41.45506,"lng":147.14556},{"id":7296,"name":"Southern Midlands","lat":-42.41785,"lng":147.43414},{"id":7306,"name":"Spreyton","lat":-41.23524,"lng":146.35108},{"id":7326,"name":"St Helens","lat":-41.32028,"lng":148.23889},{"id":7375,"name":"Summerhill","lat":-41.46747,"lng":147.12796},{"id":7441,"name":"Taroona","lat":-42.9452,"lng":147.3484},{"id":7446,"name":"Tasman Peninsula","lat":-43.16245,"lng":147.94739},{"id":7556,"name":"Tranmere","lat":-42.92179,"lng":147.41701},{"id":7563,"name":"Trevallyn","lat":-41.44246,"lng":147.10484},{"id":7583,"name":"Turners Beach","lat":-41.1606,"lng":146.23193},{"id":7599,"name":"Ulverstone","lat":-41.16026,"lng":146.18242},{"id":7606,"name":"Upper Burnie","lat":-41.07139,"lng":145.8996},{"id":7701,"name":"Waratah/Wynyard","lat":-41.30709,"lng":145.45831},{"id":7715,"name":"Warrane","lat":-42.85546,"lng":147.38297},{"id":7748,"name":"Waverley","lat":-41.43602,"lng":147.18588},{"id":7782,"name":"West Coast","lat":-42.45246,"lng":145.52264},{"id":7790,"name":"West Hobart","lat":-42.87658,"lng":147.30688},{"id":7796,"name":"West Launceston","lat":-41.45092,"lng":147.13114},{"id":7800,"name":"West Moonah","lat":-42.84996,"lng":147.28181},{"id":7807,"name":"West Tamar","lat":-41.26441,"lng":146.89123},{"id":7809,"name":"West Ulverstone","lat":-41.14744,"lng":146.1267},{"id":7818,"name":"Westbury","lat":-41.52914,"lng":146.83914},{"id":7975,"name":"Wynyard","lat":-40.9897,"lng":145.72617},{"id":8029,"name":"Youngtown","lat":-41.48332,"lng":147.17067}]