[{"id":135150,"name":"Abyek","lat":36.06667,"lng":50.55},{"id":134571,"name":"Arak","lat":34.09493,"lng":49.69809},{"id":135085,"name":"Ashtian","lat":34.45,"lng":50.05},{"id":150968,"name":"Astaneh","lat":33.890833,"lng":49.357778},{"id":150965,"name":"Aveh","lat":34.8037213,"lng":50.4072045},{"id":150953,"name":"Davoud Abad","lat":34.2952133,"lng":49.8466444},{"id":134620,"name":"Delijan","lat":33.9905,"lng":50.6838},{"id":134865,"name":"Farahan","lat":34.6,"lng":49.63333},{"id":150974,"name":"Farmahin","lat":34.5056686,"lng":49.6697042},{"id":150966,"name":"Gharqabad","lat":35.1082178,"lng":49.8218393},{"id":150957,"name":"Ghurchi Bashi","lat":33.6753987,"lng":49.8753977},{"id":150972,"name":"Hendoudar","lat":33.7809931,"lng":49.226625},{"id":150958,"name":"Javarseyan","lat":34.2555487,"lng":49.3182278},{"id":150955,"name":"Karchan","lat":34.0994117,"lng":49.9286019},{"id":150973,"name":"Khenejin","lat":34.7585192,"lng":49.5223761},{"id":150956,"name":"Khomein","lat":33.6371091,"lng":50.0342697},{"id":134671,"name":"Khomeyn","lat":33.63889,"lng":50.08003},{"id":134918,"name":"Khondab","lat":34.36667,"lng":49.18333},{"id":150961,"name":"Khoshkrud","lat":35.395262,"lng":50.328927},{"id":134681,"name":"Komijan","lat":34.72142,"lng":49.32653},{"id":150976,"name":"Mahalat","lat":33.9049314,"lng":50.4410647},{"id":134959,"name":"Mahallat","lat":33.91667,"lng":50.41667},{"id":150964,"name":"Mamuniyeh","lat":35.3040559,"lng":50.4803967},{"id":150975,"name":"Milajerd","lat":34.6216597,"lng":49.200468},{"id":150971,"name":"Mohajeran","lat":34.0493146,"lng":49.4174479},{"id":150959,"name":"Naragh","lat":34.0103896,"lng":50.8314871},{"id":150977,"name":"Nimvar","lat":33.8864747,"lng":50.5631053},{"id":150967,"name":"Nowbaran","lat":35.1311747,"lng":49.7007001},{"id":150960,"name":"Parandak","lat":35.3685266,"lng":50.677228},{"id":150962,"name":"Razeqan","lat":35.3307678,"lng":49.9511755},{"id":150954,"name":"Saroogh","lat":34.4118836,"lng":49.4946956},{"id":135121,"name":"Saveh","lat":35.0213,"lng":50.3566},{"id":150970,"name":"Shahbaz","lat":33.9354129,"lng":49.3356919},{"id":135044,"name":"Shazand","lat":33.9,"lng":49.3},{"id":135126,"name":"Tafresh","lat":34.69307,"lng":50.01601},{"id":150969,"name":"Tureh","lat":34.0444097,"lng":49.2837667},{"id":135072,"name":"Zarandiyeh","lat":35.36667,"lng":50.33333},{"id":150963,"name":"Zavieh","lat":35.3772559,"lng":50.550885}]