[{"id":135149,"name":"abdanan","lat":32.9926,"lng":47.4198},{"id":150314,"name":"Arkavaz","lat":33.3854405,"lng":46.5757868},{"id":150304,"name":"Aseman Abad","lat":33.8518245,"lng":46.4440006},{"id":134574,"name":"Badreh","lat":33.0,"lng":47.25},{"id":150305,"name":"Balavah Tareh","lat":33.6669007,"lng":46.802435},{"id":150303,"name":"Bedreh","lat":33.3066261,"lng":47.0296812},{"id":134606,"name":"Chardavol","lat":33.7591,"lng":46.5698},{"id":150301,"name":"Chovar","lat":33.6952265,"lng":46.2929963},{"id":134614,"name":"Darreh Shahr","lat":33.14447,"lng":47.3799},{"id":134617,"name":"Dehloran","lat":32.6941,"lng":47.2679},{"id":150315,"name":"Delgosha","lat":33.4063312,"lng":46.589756},{"id":134862,"name":"Eyvan","lat":33.9,"lng":46.16667},{"id":135157,"name":"Ilam","lat":33.6374,"lng":46.4227},{"id":150313,"name":"Loumar","lat":33.5678776,"lng":46.8051374},{"id":134950,"name":"Malekshahi","lat":33.3,"lng":46.55},{"id":150312,"name":"Maymeh","lat":33.2278825,"lng":46.9129192},{"id":150309,"name":"Mazhin","lat":32.9529715,"lng":47.7809572},{"id":150316,"name":"Mehr","lat":33.436944,"lng":46.461111},{"id":134700,"name":"Mehran","lat":33.1222,"lng":46.1646},{"id":150311,"name":"Mousiyan","lat":32.5186816,"lng":47.3681008},{"id":150300,"name":"Murmuri","lat":32.7254681,"lng":47.6674461},{"id":150310,"name":"Pahleh","lat":33.0105976,"lng":46.8792736},{"id":150317,"name":"Saleh Abad","lat":33.4715794,"lng":46.1818457},{"id":150299,"name":"Sarabbagh","lat":32.8985604,"lng":47.5703287},{"id":150307,"name":"Sarableh","lat":33.7657773,"lng":46.5464358},{"id":150308,"name":"Shabab","lat":33.748786,"lng":46.6322851},{"id":135117,"name":"Sirvan","lat":33.7546,"lng":46.56651},{"id":150306,"name":"Tohid","lat":33.7255,"lng":47.0685},{"id":150302,"name":"Zarneh","lat":33.9286369,"lng":46.1787556}]