[{"id":150811,"name":"azeh Abad","lat":34.4969898,"lng":47.040174},{"id":150806,"name":"Banevreh","lat":34.9691788,"lng":46.3502883},{"id":150807,"name":"Bayangan","lat":34.9808804,"lng":46.2678587},{"id":150824,"name":"Bisotun","lat":34.3970564,"lng":47.4375915},{"id":134851,"name":"Dalahu","lat":34.41667,"lng":46.25},{"id":134860,"name":"Eslamabad-e-Gharb","lat":34.05,"lng":46.66667},{"id":150810,"name":"Ezgeleh","lat":34.833144,"lng":45.8325363},{"id":150814,"name":"Gahvareh","lat":34.3441622,"lng":46.4110136},{"id":134890,"name":"Gilan Gharb","lat":34.13333,"lng":46.0},{"id":150822,"name":"Gowdin","lat":34.5078825,"lng":48.0748415},{"id":150821,"name":"Halashi","lat":34.1098592,"lng":47.0871127},{"id":150805,"name":"Hamil","lat":33.9373247,"lng":46.7657732},{"id":134652,"name":"Harsin","lat":34.2721,"lng":47.5861},{"id":134657,"name":"Javanrud","lat":34.79611,"lng":46.51722},{"id":134661,"name":"Kahriz","lat":34.3838,"lng":47.0553},{"id":134663,"name":"Kangavar","lat":34.5043,"lng":47.9653},{"id":150813,"name":"Kerend-e Gharb","lat":34.278016,"lng":46.2267029},{"id":134668,"name":"Kermanshah","lat":34.31417,"lng":47.065},{"id":150820,"name":"Kuzaran","lat":34.4966536,"lng":46.5967513},{"id":150815,"name":"Mansur-e Aqai","lat":34.936519,"lng":46.4520835},{"id":150817,"name":"Miyan Rahan","lat":34.5837575,"lng":47.4415398},{"id":150808,"name":"Nowdeshah","lat":35.1820513,"lng":46.2496412},{"id":150809,"name":"Nowsud","lat":35.161354,"lng":46.2001169},{"id":134733,"name":"Paveh","lat":35.0434,"lng":46.3565},{"id":135002,"name":"Qasr-e Shirin","lat":34.2,"lng":45.63333},{"id":135008,"name":"Ravansar","lat":34.75,"lng":46.65},{"id":150812,"name":"Rijab","lat":34.4803029,"lng":46.0014356},{"id":150819,"name":"Robat","lat":34.2654623,"lng":46.7986677},{"id":135094,"name":"Sahneh","lat":34.58333,"lng":47.51667},{"id":135056,"name":"Salas-e Baba Jani","lat":34.81667,"lng":45.98333},{"id":135025,"name":"Sarpol Zahab","lat":34.5,"lng":45.85},{"id":150816,"name":"Satar","lat":34.8115128,"lng":47.4601221},{"id":135120,"name":"Sonqor","lat":34.78187,"lng":47.59945},{"id":150818,"name":"Soomar","lat":33.8812465,"lng":45.6319069},{"id":150823,"name":"Srmast","lat":34.5053719,"lng":47.8398478}]