[{"id":150580,"name":"Abbar","lat":36.9295867,"lng":48.9325492},{"id":134556,"name":"Abhar","lat":36.1468,"lng":49.218},{"id":134566,"name":"Alvand","lat":36.31885,"lng":49.16773},{"id":150578,"name":"Armaqankhaneh","lat":36.9775632,"lng":48.3633184},{"id":150581,"name":"Chavarzagh","lat":36.9980055,"lng":48.7723806},{"id":150582,"name":"Dandi","lat":36.5493942,"lng":47.5937174},{"id":150576,"name":"Garmaab","lat":35.8489691,"lng":48.1900478},{"id":150569,"name":"Halab","lat":36.2955069,"lng":48.0591774},{"id":150568,"name":"Hidaj","lat":36.2551306,"lng":49.1213214},{"id":135090,"name":"Ijrud","lat":36.33333,"lng":48.25},{"id":150575,"name":"Karasf","lat":36.0448826,"lng":48.4991884},{"id":134916,"name":"Khodabandeh","lat":36.0,"lng":48.5},{"id":134674,"name":"Khorramdarreh","lat":36.23333,"lng":49.2},{"id":134966,"name":"Mahneshan","lat":36.66667,"lng":47.56667},{"id":150579,"name":"Nik Pey","lat":36.8495173,"lng":48.1733215},{"id":150577,"name":"Nurbahar","lat":35.937778,"lng":48.794722},{"id":150574,"name":"Qeydar","lat":36.1222714,"lng":48.5754489},{"id":150567,"name":"Sain Qaleh","lat":36.3029508,"lng":49.063847},{"id":150573,"name":"Sohrevard","lat":36.0730532,"lng":48.4316826},{"id":150572,"name":"Sojas","lat":36.2394095,"lng":48.5454511},{"id":135119,"name":"Soltanieh","lat":36.43235,"lng":48.79393},{"id":135097,"name":"Tarom","lat":36.95,"lng":48.9},{"id":135142,"name":"Zanjan","lat":36.67642,"lng":48.49628},{"id":150570,"name":"Zarrin Abad","lat":36.4235242,"lng":48.247088},{"id":150571,"name":"Zarrin Rood","lat":35.7585619,"lng":48.4715294}]