[{"id":150445,"name":"Ahmad-abad-e-Solat","lat":35.1151078,"lng":60.6845283},{"id":150439,"name":"Anabad","lat":35.2501746,"lng":57.800982},{"id":134801,"name":"Bajestan","lat":34.58333,"lng":58.13333},{"id":150477,"name":"Bajgiran","lat":37.6213443,"lng":58.4160769},{"id":134821,"name":"Bakharz","lat":35.01667,"lng":60.28333},{"id":150487,"name":"Bar","lat":36.4912922,"lng":58.7095314},{"id":134581,"name":"Bardaskan","lat":35.26667,"lng":57.48333},{"id":150449,"name":"Bayg","lat":35.3748607,"lng":59.0306138},{"id":150480,"name":"Beydokht","lat":34.3477914,"lng":58.7476621},{"id":134827,"name":"Binalud","lat":36.26667,"lng":59.33333},{"id":150488,"name":"Chakaneh","lat":36.8136645,"lng":58.4972621},{"id":150463,"name":"Chapeshlu","lat":37.3509012,"lng":59.069538},{"id":134608,"name":"Chenaran","lat":36.64546,"lng":59.12123},{"id":134613,"name":"Dargaz","lat":37.33333,"lng":59.08333},{"id":150490,"name":"Darrod","lat":36.1378911,"lng":59.1055441},{"id":134628,"name":"Davarzan","lat":36.33333,"lng":56.83333},{"id":150468,"name":"Dowlat Abad","lat":35.2840396,"lng":59.5131111},{"id":150491,"name":"Eshqabad","lat":36.0438068,"lng":58.6744165},{"id":150473,"name":"Farhadgerd","lat":35.7644818,"lng":59.7241688},{"id":134869,"name":"Fariman","lat":35.7,"lng":59.83333},{"id":150486,"name":"Feyz Abad","lat":35.0182208,"lng":58.7629293},{"id":150475,"name":"Firouzeh","lat":36.2828876,"lng":58.5676859},{"id":134874,"name":"Firuzeh","lat":36.3,"lng":58.41667},{"id":150492,"name":"Ghadamgah","lat":36.1117541,"lng":59.047973},{"id":150453,"name":"Golbahar","lat":36.5636551,"lng":59.1391462},{"id":150454,"name":"Golmakan","lat":36.4825278,"lng":59.1548109},{"id":134647,"name":"Gonabad","lat":34.35287,"lng":58.68365},{"id":150476,"name":"Hemmatabad","lat":36.2979042,"lng":58.4577392},{"id":150466,"name":"Jangal","lat":34.7074678,"lng":59.2063862},{"id":134897,"name":"Joghatay","lat":36.66667,"lng":57.03333},{"id":134659,"name":"Joveyn","lat":36.58333,"lng":57.51667},{"id":150451,"name":"Kadkan","lat":35.5873956,"lng":58.8746595},{"id":150481,"name":"Kakhk","lat":34.1445751,"lng":58.6360716},{"id":134905,"name":"Kalat","lat":36.9,"lng":59.9},{"id":150443,"name":"Kariz","lat":34.8150162,"lng":60.8063648},{"id":134683,"name":"Kashmar","lat":35.23831,"lng":58.46558},{"id":150457,"name":"Khaf","lat":34.5698972,"lng":60.0988191},{"id":150455,"name":"Khalil Abad","lat":35.253661,"lng":58.2791662},{"id":150489,"name":"Kharv","lat":36.1520043,"lng":58.9840862},{"id":134921,"name":"Khowshab","lat":36.43333,"lng":58.06667},{"id":134922,"name":"Khvaf","lat":34.5,"lng":60.0},{"id":150456,"name":"Kondor","lat":35.2120174,"lng":58.142438},{"id":150464,"name":"Lotfabad","lat":36.1768725,"lng":58.7250351},{"id":134948,"name":"Mah Velat","lat":34.98333,"lng":58.78333},{"id":134698,"name":"Mashhad","lat":36.31559,"lng":59.56796},{"id":150444,"name":"Mashhad Rizeh","lat":34.7956727,"lng":60.4977178},{"id":150471,"name":"Mazdavand","lat":36.1564492,"lng":60.5264175},{"id":150484,"name":"Molkabad","lat":35.9937696,"lng":59.5646093},{"id":150461,"name":"Nashtifan","lat":34.4347326,"lng":60.1597807},{"id":150447,"name":"Nasrabad","lat":35.417925,"lng":60.3056717},{"id":150452,"name":"Neghab","lat":36.7029164,"lng":57.3931573},{"id":134714,"name":"Neyshabur","lat":36.21329,"lng":58.79575},{"id":150448,"name":"Nil Shahr","lat":35.1252579,"lng":60.7657636},{"id":150465,"name":"Nokhandan","lat":37.5183884,"lng":58.9801883},{"id":150474,"name":"Qalandarabad","lat":35.6005376,"lng":59.9362562},{"id":150460,"name":"Qasemabad","lat":35.9101775,"lng":58.5759474},{"id":134747,"name":"Quchan","lat":37.106,"lng":58.50955},{"id":150467,"name":"Rashtkhar","lat":34.9746294,"lng":59.6144771},{"id":150482,"name":"Razaviye","lat":36.2093245,"lng":59.7610331},{"id":150478,"name":"Rivash","lat":35.4789304,"lng":58.4378241},{"id":150450,"name":"Robat-e-Sang","lat":35.5484459,"lng":59.186697},{"id":135011,"name":"Roshtkhvar","lat":34.91667,"lng":59.36667},{"id":150469,"name":"Rudab","lat":36.0236779,"lng":57.3044729},{"id":134762,"name":"Sabzevar","lat":36.2126,"lng":57.68191},{"id":150458,"name":"Salami","lat":34.7457199,"lng":59.9691295},{"id":150446,"name":"Saleh Abad","lat":35.6905628,"lng":61.0832119},{"id":150483,"name":"Samen","lat":36.4260042,"lng":59.3820171},{"id":150459,"name":"Sangan","lat":34.4005526,"lng":60.2538299},{"id":134767,"name":"Sarakhs","lat":36.5449,"lng":61.1577},{"id":150472,"name":"Sefid Sang","lat":35.6621857,"lng":60.0859937},{"id":150485,"name":"Shadmehr","lat":35.1724487,"lng":59.0339184},{"id":150440,"name":"Shahrabad","lat":32.5738411,"lng":50.992706},{"id":150479,"name":"Shahrezu","lat":36.7490715,"lng":59.9274159},{"id":150441,"name":"Shandiz","lat":36.3950569,"lng":59.2906486},{"id":150470,"name":"Sheshtamad","lat":35.9604289,"lng":57.7502773},{"id":150462,"name":"Soltanabad","lat":36.1478469,"lng":58.8614202},{"id":135066,"name":"Taybad","lat":34.73333,"lng":60.73333},{"id":135063,"name":"Torbat Heydariyeh","lat":35.46667,"lng":59.1},{"id":135131,"name":"Torbat-e-Jam","lat":35.244,"lng":60.6225},{"id":150442,"name":"Torghabeh","lat":36.3147425,"lng":59.3676709},{"id":150438,"name":"Yunesi","lat":34.805278,"lng":58.4375},{"id":135076,"name":"Zaveh","lat":35.28333,"lng":59.73333}]