[{"id":134564,"name":"Aleshtar","lat":33.86419,"lng":48.26258},{"id":134567,"name":"Aligudarz","lat":33.404,"lng":49.69179},{"id":134573,"name":"Azna","lat":33.45643,"lng":49.45646},{"id":150900,"name":"Bayranshahr","lat":33.647778,"lng":48.558889},{"id":134591,"name":"Borujerd","lat":33.8973,"lng":48.7516},{"id":150904,"name":"Chalan Chulan","lat":33.6651745,"lng":48.8995456},{"id":150908,"name":"Chaqabol","lat":33.280833,"lng":47.508889},{"id":150910,"name":"Darb Gonbad","lat":33.6892903,"lng":47.1461964},{"id":134619,"name":"Delfan","lat":34.05,"lng":47.78333},{"id":150905,"name":"Dorud","lat":33.4921526,"lng":49.0252012},{"id":150909,"name":"Firouz Abad","lat":33.8985961,"lng":48.0989599},{"id":150912,"name":"Garab","lat":33.4851827,"lng":48.4879768},{"id":150903,"name":"Haft Cheshmeh","lat":34.2072771,"lng":47.761023},{"id":134673,"name":"Khorramabad","lat":33.48778,"lng":48.35583},{"id":134687,"name":"Kuhdasht","lat":33.53335,"lng":47.60999},{"id":150911,"name":"Kunani","lat":33.4029624,"lng":47.3163556},{"id":150899,"name":"Mamulan","lat":33.3794758,"lng":47.9517603},{"id":150895,"name":"Momen Abad","lat":33.5852335,"lng":49.5016907},{"id":134720,"name":"Nurabad","lat":34.0734,"lng":47.9725},{"id":150897,"name":"Oshtorinan","lat":34.0154227,"lng":48.6342858},{"id":150898,"name":"Pol Dokhtar","lat":33.1461726,"lng":47.7014994},{"id":134728,"name":"Pol-e Dokhtar","lat":33.16667,"lng":48.0},{"id":134756,"name":"Rumeshkhan","lat":33.2796,"lng":47.48995},{"id":150906,"name":"Sarab-e Dowreh","lat":33.563889,"lng":48.022222},{"id":134773,"name":"Selseleh","lat":33.83333,"lng":48.16667},{"id":150902,"name":"Sepid Dasht","lat":33.2190312,"lng":48.8815319},{"id":150896,"name":"Shool Abad","lat":33.1848116,"lng":49.185555},{"id":135138,"name":"Vasian","lat":33.49083,"lng":48.04917},{"id":150907,"name":"Veysian","lat":33.490833,"lng":48.049167},{"id":150901,"name":"Zagheh","lat":33.498889,"lng":48.708611}]