[{"id":134554,"name":"‘Aqrah","lat":36.76038,"lng":43.89428},{"id":134483,"name":"Al Mawşil al Jadīdah","lat":36.33271,"lng":43.10555},{"id":134492,"name":"Al-Hamdaniya","lat":36.27093,"lng":43.37758},{"id":134499,"name":"Ash Shaykhān","lat":36.69595,"lng":43.35202},{"id":134525,"name":"Mosul","lat":36.335,"lng":43.11889},{"id":134537,"name":"Sinjar","lat":36.29548,"lng":41.89315},{"id":134542,"name":"Tall ‘Afar","lat":36.37913,"lng":42.44806},{"id":134543,"name":"Tallkayf","lat":36.49118,"lng":43.12114}]