[{"id":134489,"name":"Al ‘Amādīyah","lat":37.09214,"lng":43.48769},{"id":134509,"name":"Batifa","lat":37.17454,"lng":43.01233},{"id":134512,"name":"Dihok","lat":36.86709,"lng":42.98845},{"id":134541,"name":"Sīnah","lat":36.80851,"lng":43.03935},{"id":134547,"name":"Zaxo","lat":37.14871,"lng":42.68591}]