[{"id":64977,"name":"Sangkom Thmei","lat":13.47395,"lng":104.77051},{"id":64999,"name":"Srŏk Ch’êh Sên","lat":13.58215,"lng":105.34533},{"id":64996,"name":"Srŏk Chhêb","lat":13.91077,"lng":105.4618},{"id":65005,"name":"Srŏk Kulén","lat":13.78597,"lng":104.61052},{"id":65018,"name":"Srŏk Rôviĕng","lat":13.35105,"lng":105.09956},{"id":65025,"name":"Srŏk Tbêng Méanchey","lat":13.78622,"lng":105.01586},{"id":65039,"name":"Tbeng Meanchey","lat":13.80731,"lng":104.98046}]