[{"id":64957,"name":"Koh Kong","lat":11.61531,"lng":102.9838},{"id":64982,"name":"Smach Mean Chey","lat":11.54665,"lng":103.03569},{"id":64984,"name":"Srae Ambel","lat":11.10968,"lng":103.76226},{"id":64991,"name":"Srŏk Batum Sakôr","lat":11.11465,"lng":103.38993},{"id":65011,"name":"Srŏk Môndôl Seima","lat":11.81292,"lng":103.01159}]