[{"id":64937,"name":"Banlung","lat":13.73939,"lng":106.98727},{"id":64966,"name":"Lumphat","lat":13.49146,"lng":106.98022},{"id":65029,"name":"Srŏk Ândong Méas","lat":13.93352,"lng":107.31155},{"id":64993,"name":"Srŏk Bâ Kêv","lat":13.70749,"lng":107.19442},{"id":64987,"name":"Srŏk Ban Lŭng","lat":13.682,"lng":107.03025},{"id":65004,"name":"Srŏk Koun Mom","lat":13.51772,"lng":106.75142},{"id":65012,"name":"Srŏk Ou Chum","lat":13.84069,"lng":107.03469},{"id":65013,"name":"Srŏk Ou Ya Dav","lat":13.54328,"lng":107.44636},{"id":65024,"name":"Srŏk Ta Vêng","lat":14.29192,"lng":107.24031}]