[{"id":38721,"name":"Ādīgrat","lat":14.277,"lng":39.462},{"id":38597,"name":"Axum","lat":14.12109,"lng":38.72337},{"id":38658,"name":"Inda Silasē","lat":14.10307,"lng":38.28289},{"id":38669,"name":"Korem","lat":12.50583,"lng":39.52278},{"id":38675,"name":"Maych’ew","lat":12.7875,"lng":39.54222},{"id":38676,"name":"Mek'ele","lat":13.49667,"lng":39.47528},{"id":38703,"name":"Southeastern Tigray Zone","lat":13.24797,"lng":39.53156},{"id":38704,"name":"Southern Tigray Zone","lat":12.96033,"lng":39.52831}]