[{"id":65194,"name":"Hamhŭng","lat":39.91833,"lng":127.53639},{"id":65199,"name":"Hongwŏn","lat":40.02528,"lng":127.95583},{"id":65204,"name":"Hŭngnam","lat":39.83167,"lng":127.61861},{"id":65205,"name":"Iwŏn-ŭp","lat":40.32306,"lng":128.65528},{"id":65215,"name":"Kowŏn-ŭp","lat":39.43806,"lng":127.24306},{"id":65235,"name":"Samho-rodongjagu","lat":39.9475,"lng":127.87111},{"id":65241,"name":"Sinsang-ni","lat":39.65028,"lng":127.40583},{"id":65258,"name":"Yŏnggwang-ŭp","lat":40.01833,"lng":127.45472},{"id":65254,"name":"Yuktae-dong","lat":40.02472,"lng":128.15972}]