[{"id":57589,"name":"Achalpur","lat":21.25665,"lng":77.51006},{"id":147667,"name":"Adawad","lat":21.21666667,"lng":75.45},{"id":147668,"name":"Agar Panchaitan","lat":18.173692,"lng":72.988533},{"id":147669,"name":"Aheri","lat":19.41166667,"lng":80.00388889},{"id":57604,"name":"Ahmadpur","lat":18.70622,"lng":76.93731},{"id":147670,"name":"Ahmednagar","lat":19.08333333,"lng":74.73333333},{"id":57609,"name":"Airoli","lat":19.15096,"lng":72.99625},{"id":57617,"name":"Ajara","lat":16.11601,"lng":74.21097},{"id":57618,"name":"Akalkot","lat":17.52532,"lng":76.20611},{"id":147672,"name":"Akluj","lat":17.88333333,"lng":75.01666667},{"id":57627,"name":"Akola","lat":20.5,"lng":77.16667},{"id":147673,"name":"Akolner","lat":18.98333333,"lng":74.66666667},{"id":57628,"name":"Akot","lat":21.0963,"lng":77.0588},{"id":147674,"name":"Akrani","lat":21.82423611,"lng":74.21687222},{"id":57633,"name":"Alandi","lat":18.67756,"lng":73.89868},{"id":147675,"name":"Ale","lat":19.17,"lng":74.12},{"id":57652,"name":"Alibag","lat":18.64813,"lng":72.87579},{"id":147676,"name":"Alkuti","lat":19.05,"lng":74.23},{"id":57642,"name":"Allapalli","lat":19.43172,"lng":80.06377},{"id":57657,"name":"Amalner","lat":21.03983,"lng":75.05887},{"id":57660,"name":"Amarnath","lat":19.2,"lng":73.16667},{"id":57665,"name":"Ambad","lat":19.61301,"lng":75.78906},{"id":57674,"name":"Ambajogai","lat":18.73312,"lng":76.38616},{"id":147678,"name":"Ambegaon","lat":19.11666667,"lng":73.73333333},{"id":147677,"name":"Ambernath","lat":19.209,"lng":73.186},{"id":147679,"name":"Amgaon","lat":20.65,"lng":79.95},{"id":57689,"name":"Amravati","lat":20.93333,"lng":77.75},{"id":147680,"name":"Andheri","lat":19.11916667,"lng":72.84694444},{"id":147681,"name":"Andura","lat":20.88333333,"lng":76.86666667},{"id":57707,"name":"Anjangaon","lat":21.16516,"lng":77.3091},{"id":147682,"name":"Anjarle","lat":17.85,"lng":73.09},{"id":57716,"name":"Anshing","lat":20.0409,"lng":77.31501},{"id":147683,"name":"Arag","lat":16.78,"lng":74.8},{"id":134461,"name":"Arangaon","lat":19.02681,"lng":74.71487},{"id":147684,"name":"Ardhapur","lat":19.28333333,"lng":77.38333333},{"id":147685,"name":"Argaon","lat":16.778999,"lng":73.64553},{"id":57741,"name":"Artist Village","lat":19.03227,"lng":73.04276},{"id":134463,"name":"Arvi","lat":20.99585,"lng":78.22914},{"id":57751,"name":"Ashta","lat":16.94943,"lng":74.40936},{"id":57753,"name":"Ashti","lat":19.37671,"lng":76.2252},{"id":147686,"name":"Asoda","lat":21.03333333,"lng":75.6},{"id":147687,"name":"Assaye","lat":20.24512778,"lng":75.88739722},{"id":147688,"name":"Astagaon","lat":19.66666667,"lng":74.5},{"id":147689,"name":"Aundh Satara","lat":17.54583333,"lng":74.375},{"id":57765,"name":"Aurangabad","lat":19.88467,"lng":75.33986},{"id":57770,"name":"Ausa","lat":18.24728,"lng":76.4993},{"id":57792,"name":"Badlapur","lat":19.15516,"lng":73.26553},{"id":147690,"name":"Badnapur","lat":19.86666667,"lng":75.73333333},{"id":147691,"name":"Badnera","lat":20.85463056,"lng":77.72931111},{"id":147692,"name":"Bagewadi","lat":16.29,"lng":74.6},{"id":58121,"name":"Balapur","lat":20.7326962,"lng":76.8363281},{"id":57829,"name":"Ballalpur","lat":19.84696,"lng":79.34578},{"id":147694,"name":"Ballard Estate","lat":18.95,"lng":72.84},{"id":147695,"name":"Ballarpur","lat":19.83333333,"lng":79.35},{"id":147696,"name":"Banda Maharashtra","lat":15.81273611,"lng":73.86132778},{"id":147697,"name":"Bandra","lat":19.05444444,"lng":72.84055556},{"id":147698,"name":"Baner","lat":18.56,"lng":73.79027778},{"id":147699,"name":"Bankot","lat":17.98333333,"lng":73.05},{"id":58146,"name":"Baramati","lat":18.15174,"lng":74.57767},{"id":58144,"name":"Barsi","lat":18.23454,"lng":75.69275},{"id":57897,"name":"Basmat","lat":19.32872,"lng":77.15746},{"id":147701,"name":"Bavdhan","lat":18.53527778,"lng":73.78277778},{"id":147702,"name":"Bawanbir","lat":21.08333333,"lng":76.71666667},{"id":57912,"name":"Beed","lat":18.98921,"lng":75.75634},{"id":147703,"name":"Bhadgaon Maharashtra","lat":20.16666667,"lng":75.23333333},{"id":57961,"name":"Bhandara","lat":21.18333,"lng":80.0},{"id":147704,"name":"Bhandardara","lat":19.52916667,"lng":73.75138889},{"id":147705,"name":"Bhandup","lat":19.14,"lng":72.93},{"id":57978,"name":"Bhayandar","lat":19.30157,"lng":72.85107},{"id":57979,"name":"Bhigvan","lat":18.3007,"lng":74.76701},{"id":57987,"name":"Bhiwandi","lat":19.30023,"lng":73.05881},{"id":147706,"name":"Bhiwapur","lat":20.83555556,"lng":79.50111111},{"id":147707,"name":"Bhokar","lat":19.217803,"lng":77.669392},{"id":147708,"name":"Bhokardan","lat":20.27,"lng":75.77},{"id":58024,"name":"Bhoom","lat":18.45908,"lng":75.65877},{"id":57997,"name":"Bhor","lat":18.14861,"lng":73.84336},{"id":58001,"name":"Bhudgaon","lat":16.90742,"lng":74.59954},{"id":147710,"name":"Bhugaon","lat":18.501284,"lng":73.750161},{"id":58005,"name":"Bhusaval","lat":21.04365,"lng":75.78506},{"id":147712,"name":"Bijur","lat":13.84388889,"lng":74.63972222},{"id":147713,"name":"Bilashi","lat":16.98333,"lng":74.03333},{"id":58047,"name":"Biloli","lat":18.77385,"lng":77.72463},{"id":58074,"name":"Boisar","lat":19.80362,"lng":72.75598},{"id":147714,"name":"Borgaon Manju","lat":20.71944444,"lng":77.15277778},{"id":147715,"name":"Borivali","lat":19.23,"lng":72.86},{"id":147716,"name":"Brahmapuri","lat":20.6084,"lng":79.8559},{"id":147717,"name":"Breach Candy","lat":18.967,"lng":72.805},{"id":58094,"name":"Buldana","lat":20.58333,"lng":76.41667},{"id":147719,"name":"Byculla","lat":18.98,"lng":72.835},{"id":131589,"name":"Chakan","lat":18.76059,"lng":73.86351},{"id":147720,"name":"Chakur","lat":18.51305556,"lng":76.87527778},{"id":131592,"name":"Chalisgaon","lat":20.45781,"lng":75.01596},{"id":131596,"name":"Chanda","lat":19.95076,"lng":79.29523},{"id":147721,"name":"Chandgad","lat":15.0,"lng":74.0},{"id":131599,"name":"Chandor","lat":20.3306,"lng":74.24467},{"id":58192,"name":"Chandrapur","lat":20.11793,"lng":79.44377},{"id":131601,"name":"Chandur","lat":19.73444,"lng":79.17167},{"id":131603,"name":"Chandur Bazar","lat":21.23853,"lng":77.74713},{"id":147722,"name":"Chausala","lat":18.708692,"lng":75.691595},{"id":147723,"name":"Chembur","lat":19.05871111,"lng":72.89969444},{"id":131544,"name":"Chicholi","lat":21.46926,"lng":79.70151},{"id":147724,"name":"Chichondi Patil","lat":19.0,"lng":74.91666667},{"id":131549,"name":"Chikhli (Buldhana)","lat":20.35046,"lng":76.25774},{"id":147725,"name":"Chikhli (Jalna)","lat":20.02193,"lng":75.78544},{"id":147726,"name":"Chimur","lat":20.49694444,"lng":79.37666667},{"id":131558,"name":"Chinchani","lat":19.87458,"lng":72.6851},{"id":147727,"name":"Chinchpokli","lat":18.98333333,"lng":72.83333333},{"id":131567,"name":"Chiplun","lat":17.53339,"lng":73.50935},{"id":131580,"name":"Chopda","lat":21.24578,"lng":75.29946},{"id":147728,"name":"Colaba","lat":18.91,"lng":72.81},{"id":131805,"name":"Dabhol","lat":17.58971,"lng":73.18001},{"id":147729,"name":"Daddi","lat":16.06666667,"lng":74.43333333},{"id":131807,"name":"Dahanu","lat":19.96778,"lng":72.71263},{"id":147730,"name":"Dahivel","lat":21.06666667,"lng":74.16666667},{"id":147731,"name":"Dapoli","lat":17.75888889,"lng":73.18555556},{"id":131810,"name":"Darwha","lat":20.31017,"lng":77.77257},{"id":131659,"name":"Daryapur","lat":20.92489,"lng":77.32644},{"id":131663,"name":"Dattapur","lat":20.78075,"lng":78.1407},{"id":131666,"name":"Daulatabad","lat":19.93611,"lng":75.22148},{"id":131667,"name":"Daund","lat":18.46515,"lng":74.58375},{"id":147732,"name":"Deccan Gymkhana","lat":18.5184,"lng":73.8406},{"id":147733,"name":"Deglur","lat":18.54777778,"lng":77.57722222},{"id":131678,"name":"Dehu","lat":18.71851,"lng":73.76635},{"id":131688,"name":"Deolali","lat":19.94404,"lng":73.83441},{"id":147734,"name":"Deolapar","lat":21.58611111,"lng":79.36944444},{"id":131686,"name":"Deoli","lat":20.6492,"lng":78.48023},{"id":147735,"name":"Deoni","lat":18.26388889,"lng":77.08222222},{"id":131709,"name":"Deulgaon Raja","lat":20.01757,"lng":76.03755},{"id":147736,"name":"Devrukh","lat":17.065,"lng":73.61583333},{"id":131722,"name":"Dharangaon","lat":21.01187,"lng":75.27407},{"id":147737,"name":"Dharavi","lat":19.05,"lng":72.86667},{"id":131728,"name":"Dharmabad","lat":18.89116,"lng":77.8494},{"id":131758,"name":"Dharur","lat":18.82017,"lng":76.10937},{"id":147738,"name":"Dhawalpuri","lat":19.16666667,"lng":74.51666667},{"id":131746,"name":"Dhule","lat":21.06852,"lng":74.58837},{"id":131759,"name":"Dhulia","lat":20.9013,"lng":74.77737},{"id":147739,"name":"Dighori","lat":20.8862,"lng":79.9342},{"id":131815,"name":"Diglur","lat":18.54829,"lng":77.57695},{"id":131768,"name":"Digras","lat":20.1035,"lng":77.71846},{"id":147740,"name":"Dindori Maharashtra","lat":20.2,"lng":73.83305556},{"id":147741,"name":"Diveagar","lat":18.17333333,"lng":72.99166667},{"id":131785,"name":"Dombivli","lat":19.21667,"lng":73.08333},{"id":131786,"name":"Dondaicha","lat":21.3236,"lng":74.56804},{"id":147742,"name":"Dongri","lat":19.28333333,"lng":72.78333333},{"id":131792,"name":"Dudhani","lat":17.35792,"lng":76.36688},{"id":131802,"name":"Durgapur","lat":20.0054,"lng":79.30273},{"id":147743,"name":"Durgapur Chandrapur","lat":20.0,"lng":79.3},{"id":131838,"name":"Erandol","lat":20.92206,"lng":75.32641},{"id":131850,"name":"Faizpur","lat":21.16766,"lng":75.86006},{"id":147744,"name":"Fort","lat":18.935,"lng":72.8359},{"id":131886,"name":"Gadchiroli","lat":19.8,"lng":80.2},{"id":131889,"name":"Gadhinglaj","lat":16.22291,"lng":74.3501},{"id":131907,"name":"Gangakher","lat":18.96962,"lng":76.74946},{"id":131910,"name":"Gangapur","lat":19.69718,"lng":75.01045},{"id":147745,"name":"Ganpatipule","lat":17.1448,"lng":73.2666},{"id":131934,"name":"Gevrai","lat":19.26372,"lng":75.75007},{"id":147746,"name":"Ghargaon","lat":18.748684,"lng":74.636734},{"id":131951,"name":"Ghatanji","lat":20.14183,"lng":78.31333},{"id":147747,"name":"Ghatkopar","lat":19.08,"lng":72.91},{"id":131947,"name":"Ghoti Budrukh","lat":19.71641,"lng":73.62821},{"id":131948,"name":"Ghugus","lat":19.9381,"lng":79.11192},{"id":147748,"name":"Girgaon","lat":18.953,"lng":72.813},{"id":147749,"name":"Gondia","lat":21.45,"lng":80.2},{"id":147750,"name":"Gorai","lat":19.250057,"lng":72.782021},{"id":131994,"name":"Goregaon","lat":18.15483,"lng":73.29147},{"id":132014,"name":"Guhagar","lat":17.48415,"lng":73.19289},{"id":147751,"name":"Hadapsar Pune","lat":18.49666667,"lng":73.94166667},{"id":132054,"name":"Hadgaon","lat":19.49552,"lng":77.65863},{"id":147752,"name":"Halkarni","lat":16.16666667,"lng":74.46666667},{"id":147753,"name":"Harangul","lat":18.9,"lng":76.66666667},{"id":132078,"name":"Harnai","lat":17.8134,"lng":73.09668},{"id":147754,"name":"Helwak","lat":17.385,"lng":73.735},{"id":132100,"name":"Hinganghat","lat":20.54875,"lng":78.83978},{"id":132101,"name":"Hingoli","lat":19.7,"lng":77.15},{"id":147755,"name":"Hirapur","lat":21.53,"lng":79.77},{"id":132149,"name":"Hirapur Hamesha","lat":21.55546,"lng":79.78581},{"id":147756,"name":"Hotgi","lat":17.58333333,"lng":75.98333333},{"id":132150,"name":"Ichalkaranji","lat":16.69117,"lng":74.46054},{"id":132155,"name":"Igatpuri","lat":19.69522,"lng":73.5626},{"id":132168,"name":"Indapur","lat":18.3,"lng":73.25},{"id":132205,"name":"Jaisingpur","lat":16.77639,"lng":74.55361},{"id":147757,"name":"Jaitapur","lat":16.59,"lng":73.35},{"id":147758,"name":"Jakhangaon","lat":17.64639,"lng":74.32111},{"id":132214,"name":"Jalgaon","lat":21.00292,"lng":75.56602},{"id":132215,"name":"Jalgaon Jamod","lat":21.05194,"lng":76.53464},{"id":147759,"name":"Jalkot","lat":18.62916667,"lng":77.18111111},{"id":132216,"name":"Jalna","lat":19.8,"lng":75.9},{"id":147760,"name":"Jamkhed","lat":18.72,"lng":75.32},{"id":147761,"name":"Jamod","lat":21.1,"lng":76.6},{"id":147762,"name":"Janephal","lat":20.29361111,"lng":76.57583333},{"id":147763,"name":"Jaoli","lat":17.9,"lng":76.4},{"id":147764,"name":"Jat Sangli","lat":17.05,"lng":75.21666667},{"id":147765,"name":"Jategaon","lat":19.91666667,"lng":73.65},{"id":132254,"name":"Jawhar","lat":19.91213,"lng":73.22679},{"id":147766,"name":"Jaysingpur","lat":16.78350556,"lng":74.56644167},{"id":132260,"name":"Jejuri","lat":18.27658,"lng":74.16008},{"id":132282,"name":"Jintur","lat":19.61186,"lng":76.6874},{"id":147767,"name":"Jogeshwari","lat":19.12,"lng":72.85},{"id":147768,"name":"Juhu","lat":19.1070215,"lng":72.8275275},{"id":132301,"name":"Junnar","lat":19.20815,"lng":73.8752},{"id":147769,"name":"Kachurwahi","lat":21.3333,"lng":79.3833},{"id":147770,"name":"Kadegaon","lat":17.3,"lng":74.35},{"id":147771,"name":"Kadus","lat":18.88333333,"lng":73.81666667},{"id":132677,"name":"Kagal","lat":16.57702,"lng":74.31544},{"id":147772,"name":"Kaij","lat":18.7,"lng":76.08333333},{"id":132345,"name":"Kalamb","lat":19.04437,"lng":73.95554},{"id":147773,"name":"Kalamb Osmanabad","lat":18.57416667,"lng":76.02166667},{"id":147774,"name":"Kalamboli","lat":19.03333,"lng":73.1},{"id":132346,"name":"Kalamnuri","lat":19.67386,"lng":77.31149},{"id":132348,"name":"Kalas","lat":18.17241,"lng":74.79045},{"id":147775,"name":"Kali(DK)","lat":19.938778,"lng":77.732857},{"id":132355,"name":"Kalmeshwar","lat":21.23219,"lng":78.91988},{"id":132684,"name":"Kalundri","lat":18.9802,"lng":73.12708},{"id":132359,"name":"Kalyan","lat":19.2437,"lng":73.13554},{"id":147776,"name":"Kalyani Nagar","lat":18.5481,"lng":73.9033},{"id":147777,"name":"Kamargaon","lat":20.61666667,"lng":77.5},{"id":147778,"name":"Kamatgi","lat":16.119,"lng":75.8482},{"id":147779,"name":"Kamptee","lat":21.2333,"lng":79.2},{"id":132700,"name":"Kandri","lat":21.4203,"lng":79.27663},{"id":132375,"name":"Kankauli","lat":16.26609,"lng":73.71217},{"id":147780,"name":"Kankavli","lat":16.28551111,"lng":73.68446111},{"id":132377,"name":"Kannad","lat":20.25684,"lng":75.13786},{"id":132412,"name":"Karad","lat":17.28937,"lng":74.18183},{"id":147781,"name":"Karajagi","lat":17.11666667,"lng":75.58333333},{"id":132717,"name":"Karanja","lat":20.48273,"lng":77.48857},{"id":147782,"name":"Karanja Lad","lat":20.4833,"lng":77.4833},{"id":132403,"name":"Karjat","lat":18.9107,"lng":73.32354},{"id":147783,"name":"Karkamb","lat":17.8653,"lng":75.2964},{"id":132404,"name":"Karmala","lat":18.4077,"lng":75.19386},{"id":147784,"name":"Kasara","lat":19.6333,"lng":73.4833},{"id":147785,"name":"Kasoda","lat":20.81666667,"lng":75.3},{"id":132724,"name":"Kati","lat":17.96137,"lng":75.88895},{"id":132725,"name":"Katol","lat":21.27388,"lng":78.5858},{"id":147786,"name":"Katral","lat":17.16666667,"lng":75.63333333},{"id":132450,"name":"Khadki","lat":18.5635,"lng":73.85205},{"id":147787,"name":"Khalapur","lat":18.81666667,"lng":73.26666667},{"id":147788,"name":"Khallar","lat":21.0402869,"lng":77.4656296},{"id":132513,"name":"Khamgaon","lat":20.70738,"lng":76.56827},{"id":147789,"name":"Khanapur","lat":17.26111111,"lng":74.70166667},{"id":147790,"name":"Khandala","lat":18.05918056,"lng":74.01262778},{"id":147791,"name":"Khangaon","lat":20.5,"lng":78.61666667},{"id":132517,"name":"Khapa","lat":21.42243,"lng":78.98168},{"id":132471,"name":"Kharakvasla","lat":18.43997,"lng":73.77545},{"id":147792,"name":"Kharda","lat":18.63753,"lng":75.47513},{"id":147793,"name":"Kharghar","lat":19.03614722,"lng":73.06172222},{"id":147794,"name":"Kharsundi","lat":17.341585,"lng":74.775996},{"id":132487,"name":"Khed","lat":17.71888,"lng":73.39693},{"id":132495,"name":"Khetia","lat":21.67124,"lng":74.58535},{"id":147796,"name":"Khoni","lat":19.3113,"lng":73.0544},{"id":132500,"name":"Khopoli","lat":18.78562,"lng":73.34589},{"id":132505,"name":"Khuldabad","lat":20.00671,"lng":75.19245},{"id":132524,"name":"Kinwat","lat":19.62557,"lng":78.1987},{"id":132543,"name":"Kodoli","lat":16.87639,"lng":74.1909},{"id":132556,"name":"Kolhapur","lat":16.69013,"lng":74.22981},{"id":132566,"name":"Kondalwadi","lat":18.80727,"lng":77.77031},{"id":147797,"name":"Kondhali","lat":21.15,"lng":78.61666667},{"id":147798,"name":"Kopar Khairane","lat":19.10305556,"lng":73.01055556},{"id":132572,"name":"Kopargaon","lat":19.88239,"lng":74.47605},{"id":147799,"name":"Kopela","lat":18.83,"lng":80.23},{"id":132586,"name":"Koradi","lat":21.24758,"lng":79.10575},{"id":132582,"name":"Koregaon","lat":18.64573,"lng":74.05909},{"id":132618,"name":"Koynanagar","lat":17.4,"lng":73.76667},{"id":132629,"name":"Kudal","lat":16.01148,"lng":73.68867},{"id":147800,"name":"Kuhi","lat":21.01082222,"lng":79.35242222},{"id":132656,"name":"Kurandvad","lat":16.68317,"lng":74.58892},{"id":147801,"name":"Kurankhed","lat":20.70194444,"lng":77.24972222},{"id":132657,"name":"Kurduvadi","lat":18.09339,"lng":75.41567},{"id":147802,"name":"Kusumba","lat":20.91666667,"lng":74.65},{"id":147803,"name":"Lakhandur","lat":20.75,"lng":79.88333333},{"id":132799,"name":"Lanja","lat":16.86086,"lng":73.54993},{"id":132800,"name":"Lasalgaon","lat":20.1427,"lng":74.23946},{"id":132759,"name":"Latur","lat":18.4,"lng":76.8},{"id":147804,"name":"Lavasa","lat":18.40528056,"lng":73.50626944},{"id":132770,"name":"Lohogaon","lat":18.59921,"lng":73.92701},{"id":132776,"name":"Lonar","lat":19.98533,"lng":76.52046},{"id":132773,"name":"Lonavla","lat":18.75275,"lng":73.40575},{"id":132844,"name":"Mahabaleshwar","lat":17.56,"lng":73.4},{"id":132846,"name":"Mahad","lat":18.08333,"lng":73.41667},{"id":147805,"name":"Mahape","lat":19.11776,"lng":73.026938},{"id":147806,"name":"Mahim","lat":19.035,"lng":72.84},{"id":132856,"name":"Maindargi","lat":17.45739,"lng":76.2932},{"id":133062,"name":"Majalgaon","lat":19.15988,"lng":76.20832},{"id":133063,"name":"Makhjan","lat":17.2698,"lng":73.50031},{"id":147807,"name":"Malabar Hill","lat":18.95,"lng":72.795},{"id":147808,"name":"Malad","lat":19.18611111,"lng":72.84861111},{"id":133065,"name":"Malegaon","lat":20.54966,"lng":74.53462},{"id":132872,"name":"Malkapur","lat":17.26214,"lng":74.17574},{"id":133070,"name":"Malvan","lat":16.05981,"lng":73.4629},{"id":132886,"name":"Manchar","lat":19.00436,"lng":73.94346},{"id":147809,"name":"Mandangad","lat":17.98333333,"lng":73.25},{"id":147810,"name":"Mandhal","lat":20.95,"lng":79.46666667},{"id":147811,"name":"Mandwa","lat":18.803,"lng":72.882},{"id":147812,"name":"Mangaon","lat":18.23333333,"lng":73.28333333},{"id":132909,"name":"Mangrul Pir","lat":20.31379,"lng":77.34178},{"id":147813,"name":"Manjlegaon","lat":19.15,"lng":76.23},{"id":147814,"name":"Mankeshwar","lat":18.35416667,"lng":75.63916667},{"id":147815,"name":"Mankhurd","lat":19.05,"lng":72.93},{"id":132918,"name":"Manmad","lat":20.25334,"lng":74.43755},{"id":132924,"name":"Manor","lat":19.7244,"lng":72.90966},{"id":132926,"name":"Mansar","lat":21.39602,"lng":79.2635},{"id":133084,"name":"Manwat","lat":19.30133,"lng":76.49735},{"id":147817,"name":"Maregaon","lat":20.1,"lng":78.81666667},{"id":147818,"name":"Mastiholi","lat":16.08333333,"lng":74.55},{"id":147819,"name":"Masur India","lat":17.4,"lng":74.15},{"id":133090,"name":"Matheran","lat":18.98281,"lng":73.2652},{"id":147820,"name":"Matunga","lat":19.01798056,"lng":72.84476389},{"id":147821,"name":"Mazagaon","lat":18.97,"lng":72.85},{"id":132961,"name":"Mehekar","lat":20.1505,"lng":76.56841},{"id":147822,"name":"Mehergaon","lat":20.96666667,"lng":74.63333333},{"id":147823,"name":"Mehkar","lat":20.15,"lng":76.575},{"id":132971,"name":"Mhasla","lat":18.1334,"lng":73.11162},{"id":132972,"name":"Mhasvad","lat":17.63359,"lng":74.78773},{"id":147824,"name":"Miraj","lat":16.83,"lng":74.63},{"id":147825,"name":"Mohadi","lat":21.30833333,"lng":79.675},{"id":147826,"name":"Mohol","lat":17.8167,"lng":75.6667},{"id":132985,"name":"Mohpa","lat":21.31012,"lng":78.82969},{"id":147827,"name":"Mokhada taluka","lat":19.93333333,"lng":73.33333333},{"id":147828,"name":"Mora Maharashtra","lat":18.889,"lng":72.934},{"id":132992,"name":"Moram","lat":17.78812,"lng":76.47077},{"id":132999,"name":"Morsi","lat":21.3403,"lng":78.01258},{"id":133006,"name":"Mowad","lat":21.46475,"lng":78.45103},{"id":133012,"name":"Mudkhed","lat":19.15657,"lng":77.50304},{"id":133018,"name":"Mukher","lat":18.70636,"lng":77.36795},{"id":133099,"name":"Mul","lat":20.06987,"lng":79.67826},{"id":147829,"name":"Mulher","lat":20.78138889,"lng":74.06388889},{"id":147830,"name":"Mulund","lat":19.17168056,"lng":72.956},{"id":133024,"name":"Mumbai","lat":19.07283,"lng":72.88261},{"id":133025,"name":"Mumbai Suburban","lat":19.12636,"lng":72.84897},{"id":133035,"name":"Murbad","lat":19.25395,"lng":73.38993},{"id":133036,"name":"Murgud","lat":16.39604,"lng":74.19142},{"id":133039,"name":"Murtajapur","lat":20.73299,"lng":77.36694},{"id":133040,"name":"Murud (Raigad)","lat":18.32817,"lng":72.9621},{"id":147831,"name":"Murud (Ratnagiri)","lat":17.77494444,"lng":73.11815},{"id":147832,"name":"Murum","lat":17.78777778,"lng":76.47},{"id":147833,"name":"Nadgaon","lat":20.90101389,"lng":76.01396389},{"id":147834,"name":"Nagapur","lat":18.87,"lng":76.43},{"id":133260,"name":"Nagothana","lat":18.54225,"lng":73.13493},{"id":133116,"name":"Nagpur","lat":21.14631,"lng":79.08491},{"id":133117,"name":"Nagpur Division","lat":21.14911,"lng":79.10748},{"id":147835,"name":"Nala Sopara","lat":19.4154,"lng":72.8613},{"id":133131,"name":"Naldurg","lat":17.81667,"lng":76.28182},{"id":147836,"name":"Nalegaon","lat":18.41666667,"lng":76.81666667},{"id":147837,"name":"Nampur","lat":20.72861111,"lng":74.31083333},{"id":133141,"name":"Nanded","lat":18.91667,"lng":77.5},{"id":133267,"name":"Nandgaon","lat":20.3068,"lng":74.65501},{"id":147838,"name":"Nandnee","lat":17.455,"lng":75.84555556},{"id":147839,"name":"Nandura","lat":20.83333333,"lng":76.45972222},{"id":133268,"name":"Nandura Buzurg","lat":20.83417,"lng":76.45924},{"id":133145,"name":"Nandurbar","lat":21.37,"lng":74.2},{"id":147840,"name":"Narayangaon","lat":19.07,"lng":73.97},{"id":147841,"name":"Nardana","lat":21.2,"lng":74.81666667},{"id":147842,"name":"Nariman Point","lat":18.92,"lng":72.83},{"id":147843,"name":"Narkhed","lat":21.47,"lng":78.53},{"id":133177,"name":"Nashik","lat":19.99727,"lng":73.79096},{"id":133178,"name":"Nashik Division","lat":19.98295,"lng":73.78942},{"id":147844,"name":"Navapur","lat":21.17,"lng":73.78},{"id":133186,"name":"Navi Mumbai","lat":19.03681,"lng":73.01582},{"id":133208,"name":"Neral","lat":19.02475,"lng":73.31688},{"id":147845,"name":"Nerur","lat":15.98333333,"lng":73.65},{"id":147846,"name":"Nevasa","lat":19.53333333,"lng":74.93333333},{"id":147847,"name":"Nighoj","lat":18.95972222,"lng":74.27694444},{"id":133217,"name":"Nilanga","lat":18.11675,"lng":76.75279},{"id":133220,"name":"Nipani","lat":16.399,"lng":74.38285},{"id":147848,"name":"Niphad","lat":20.0833,"lng":73.8},{"id":147849,"name":"Nira Narsingpur","lat":17.9835,"lng":75.12396},{"id":133305,"name":"Osmanabad","lat":18.25,"lng":76.16667},{"id":133307,"name":"Ozar","lat":20.09473,"lng":73.92816},{"id":147850,"name":"Pabal","lat":18.83083333,"lng":74.05277778},{"id":133520,"name":"Pachora","lat":20.66727,"lng":75.35305},{"id":147851,"name":"Pahur Maharashtra","lat":20.7,"lng":75.68333333},{"id":133319,"name":"Paithan","lat":19.47506,"lng":75.38558},{"id":133527,"name":"Palghar","lat":19.69693,"lng":72.76543},{"id":147852,"name":"Pali Raigad","lat":18.541384,"lng":73.219965},{"id":147853,"name":"Palso","lat":20.76666667,"lng":77.23333333},{"id":133537,"name":"Panchgani","lat":17.92449,"lng":73.8008},{"id":133347,"name":"Pandharpur","lat":17.67924,"lng":75.33098},{"id":147854,"name":"Pandhurli","lat":19.829052,"lng":73.854745},{"id":133349,"name":"Panhala","lat":16.8121,"lng":74.11007},{"id":133353,"name":"Panvel","lat":18.98878,"lng":73.11013},{"id":133358,"name":"Parbhani","lat":19.5,"lng":76.75},{"id":147855,"name":"Parel","lat":18.99,"lng":72.84},{"id":133360,"name":"Parli Vaijnath","lat":18.85057,"lng":76.53163},{"id":147856,"name":"Parner","lat":19.003,"lng":74.438},{"id":133364,"name":"Parola","lat":20.88098,"lng":75.11937},{"id":147857,"name":"Parseoni","lat":21.38333333,"lng":79.15},{"id":133367,"name":"Partur","lat":19.59925,"lng":76.21541},{"id":133554,"name":"Patan","lat":17.37513,"lng":73.90143},{"id":133556,"name":"Pathardi","lat":19.17279,"lng":75.17425},{"id":133558,"name":"Pathri","lat":19.2588,"lng":76.43412},{"id":133559,"name":"Patur","lat":20.46093,"lng":76.93725},{"id":147858,"name":"Paturda","lat":20.95,"lng":76.71666667},{"id":147859,"name":"Paud","lat":18.52416667,"lng":73.61583333},{"id":147860,"name":"Pauni","lat":20.78,"lng":79.63},{"id":133397,"name":"Pawni","lat":20.79229,"lng":79.63644},{"id":147861,"name":"Pedgaon","lat":18.51166667,"lng":74.7075},{"id":147862,"name":"Peint","lat":20.25844722,"lng":73.50305278},{"id":133404,"name":"Pen","lat":18.73734,"lng":73.09603},{"id":133434,"name":"Phaltan","lat":17.99113,"lng":74.43177},{"id":147863,"name":"Phulambri","lat":20.1,"lng":75.41666667},{"id":147864,"name":"Piliv","lat":17.678842,"lng":74.966412},{"id":147865,"name":"Pimpalgaon Baswant","lat":20.16666667,"lng":73.98333333},{"id":147866,"name":"Pimpalgaon Raja","lat":20.71666667,"lng":76.43333333},{"id":133449,"name":"Pimpri","lat":18.62292,"lng":73.80696},{"id":147867,"name":"Pimpri-Chinchwad","lat":18.62777778,"lng":73.81305556},{"id":133564,"name":"Pipri","lat":19.79371,"lng":75.53519},{"id":133484,"name":"Powai","lat":19.1164,"lng":72.90471},{"id":147868,"name":"Prabhadevi","lat":19.016905,"lng":72.828649},{"id":147869,"name":"Prakasha","lat":21.51666667,"lng":74.31666667},{"id":133496,"name":"Pulgaon","lat":20.72204,"lng":78.32056},{"id":133504,"name":"Pune","lat":18.51957,"lng":73.85535},{"id":133505,"name":"Pune Division","lat":18.74673,"lng":73.75465},{"id":147870,"name":"Puntamba","lat":19.75,"lng":74.63333333},{"id":147871,"name":"Pural","lat":16.45,"lng":73.36666667},{"id":133571,"name":"Purna","lat":19.1817,"lng":77.02566},{"id":133515,"name":"Pusad","lat":19.91274,"lng":77.57838},{"id":147872,"name":"Radhanagari","lat":16.41388889,"lng":73.99777778},{"id":147873,"name":"Rahata","lat":19.71666667,"lng":74.48333333},{"id":133583,"name":"Rahimatpur","lat":17.5921,"lng":74.19966},{"id":133663,"name":"Rahuri","lat":19.39069,"lng":74.64979},{"id":133588,"name":"Raigarh","lat":18.57,"lng":73.13},{"id":147874,"name":"Raireshwar","lat":18.05,"lng":73.73333333},{"id":133687,"name":"Rajapur","lat":16.65679,"lng":73.51701},{"id":133677,"name":"Rajgurunagar","lat":18.86667,"lng":73.9},{"id":133685,"name":"Rajur","lat":20.11087,"lng":78.89311},{"id":133689,"name":"Rajura","lat":19.77947,"lng":79.36459},{"id":147875,"name":"Ralegaon","lat":20.25,"lng":79.81},{"id":147876,"name":"Ramewadi","lat":16.03333333,"lng":74.35},{"id":133710,"name":"Ramtek","lat":21.39562,"lng":79.32725},{"id":133619,"name":"Ratnagiri","lat":17.0,"lng":73.5},{"id":133724,"name":"Raver","lat":21.24757,"lng":76.03509},{"id":147877,"name":"Renapur","lat":18.51666667,"lng":76.6},{"id":147878,"name":"Renavi","lat":17.26972222,"lng":74.61055556},{"id":133631,"name":"Revadanda","lat":18.55363,"lng":72.92559},{"id":147879,"name":"Revdanda","lat":18.55,"lng":72.93333333},{"id":133639,"name":"Risod","lat":19.97671,"lng":76.78799},{"id":133644,"name":"Roha","lat":18.43687,"lng":73.11964},{"id":147880,"name":"Sailu","lat":19.47,"lng":76.47},{"id":147881,"name":"Sakol","lat":18.2825,"lng":76.88444444},{"id":147882,"name":"Sakoli","lat":21.08,"lng":79.98},{"id":147883,"name":"Sakri","lat":20.99027778,"lng":74.31444444},{"id":147884,"name":"Samudrapur","lat":20.65,"lng":78.96666667},{"id":147885,"name":"Sangameshwar","lat":17.18694444,"lng":73.55305556},{"id":133780,"name":"Sangamner","lat":19.56784,"lng":74.21154},{"id":133782,"name":"Sangli","lat":17.11202,"lng":74.7699},{"id":134074,"name":"Sangola","lat":17.43948,"lng":75.19379},{"id":147887,"name":"Sangrampur Maharashtra","lat":21.03,"lng":76.68},{"id":147888,"name":"Saoli","lat":20.08133056,"lng":79.78286111},{"id":133797,"name":"Saoner","lat":21.3851,"lng":78.92155},{"id":147889,"name":"Sarangkheda","lat":21.433273,"lng":74.526421},{"id":147890,"name":"Saswad","lat":18.55,"lng":74.0},{"id":133825,"name":"Satana","lat":20.59483,"lng":74.20301},{"id":133815,"name":"Satara","lat":17.68589,"lng":73.99333},{"id":133816,"name":"Satara Division","lat":17.72601,"lng":74.06433},{"id":147891,"name":"Satpati","lat":19.71666667,"lng":72.7},{"id":134082,"name":"Savantvadi","lat":15.90413,"lng":73.82191},{"id":134083,"name":"Savda","lat":21.15054,"lng":75.88938},{"id":147892,"name":"Savlaj","lat":17.1,"lng":74.78},{"id":147893,"name":"Sawantvadi","lat":16.0,"lng":73.75},{"id":133836,"name":"Selu","lat":19.45512,"lng":76.44073},{"id":147894,"name":"Sevagram","lat":20.73499167,"lng":78.66256944},{"id":147895,"name":"Sewri","lat":19.0,"lng":72.86},{"id":133908,"name":"Shahada","lat":21.54538,"lng":74.47106},{"id":133909,"name":"Shahapur","lat":19.45231,"lng":73.32572},{"id":147896,"name":"Shedbal","lat":16.68916667,"lng":74.75425556},{"id":133857,"name":"Shegaon","lat":20.7932,"lng":76.69921},{"id":147897,"name":"Shevgaon","lat":19.35,"lng":75.23333333},{"id":147898,"name":"Shikrapur","lat":18.69361111,"lng":74.13805556},{"id":133873,"name":"Shiraguppi","lat":16.61875,"lng":74.70907},{"id":147899,"name":"Shirala","lat":16.98401111,"lng":74.12415278},{"id":133874,"name":"Shirdi","lat":19.76616,"lng":74.47738},{"id":133875,"name":"Shirgaon","lat":19.69589,"lng":72.71527},{"id":147900,"name":"Shirol","lat":16.73333333,"lng":74.6},{"id":133877,"name":"Shirpur","lat":21.34821,"lng":74.88035},{"id":147901,"name":"Shirud","lat":20.71666667,"lng":74.9},{"id":133878,"name":"Shirwal","lat":18.15059,"lng":73.97788},{"id":133879,"name":"Shivaji Nagar","lat":18.53017,"lng":73.85263},{"id":133886,"name":"Shrigonda","lat":18.61527,"lng":74.69895},{"id":133936,"name":"Sillod","lat":20.30303,"lng":75.65284},{"id":147902,"name":"Sindewahi","lat":20.28333333,"lng":79.65},{"id":133943,"name":"Sindhudurg","lat":16.17,"lng":73.7},{"id":133944,"name":"Sindi","lat":20.80509,"lng":78.88752},{"id":147903,"name":"Sindkheda","lat":21.26666667,"lng":74.73333333},{"id":133953,"name":"Sinnar","lat":19.84505,"lng":73.99866},{"id":147904,"name":"Sion Mumbai","lat":19.04,"lng":72.86},{"id":147905,"name":"Sironcha","lat":18.83,"lng":79.96},{"id":133970,"name":"Sirur","lat":18.8276,"lng":74.37475},{"id":147906,"name":"Sivala East Godavari","lat":16.75722222,"lng":82.08861111},{"id":133986,"name":"Solapur","lat":17.75,"lng":75.5},{"id":147907,"name":"Sonala","lat":21.11666667,"lng":76.73333333},{"id":133993,"name":"Sonegaon","lat":20.62915,"lng":78.69207},{"id":147908,"name":"Songir","lat":21.08333333,"lng":74.78333333},{"id":147909,"name":"Sonvad","lat":21.08333333,"lng":75.35},{"id":134015,"name":"Soygaon","lat":20.59606,"lng":75.61765},{"id":134033,"name":"Srivardhan","lat":18.04592,"lng":73.01552},{"id":134052,"name":"Surgana","lat":20.55956,"lng":73.63747},{"id":147910,"name":"Taklibhan","lat":19.6167,"lng":74.8},{"id":147911,"name":"Talbid","lat":17.35,"lng":74.13},{"id":134100,"name":"Talegaon Dabhade","lat":18.73502,"lng":73.67561},{"id":147912,"name":"Talegaon Dhamdhere","lat":18.6678,"lng":74.1536},{"id":134104,"name":"Taloda","lat":21.56128,"lng":74.21238},{"id":147913,"name":"Talode","lat":21.56074167,"lng":74.83},{"id":134241,"name":"Tarapur","lat":19.86499,"lng":72.68426},{"id":147914,"name":"Tardeo","lat":18.97,"lng":72.81},{"id":134242,"name":"Tasgaon","lat":17.037,"lng":74.60171},{"id":134128,"name":"Telhara","lat":21.02694,"lng":76.83889},{"id":147915,"name":"Thalner","lat":21.25,"lng":74.9667},{"id":134138,"name":"Thane","lat":19.33333,"lng":73.25},{"id":134212,"name":"Trimbak","lat":19.93268,"lng":73.52907},{"id":147916,"name":"Trombay","lat":19.0,"lng":72.9},{"id":134217,"name":"Tuljapur","lat":18.00804,"lng":76.07011},{"id":134221,"name":"Tumsar","lat":21.38333,"lng":79.73333},{"id":134255,"name":"Udgir","lat":18.39258,"lng":77.11756},{"id":134267,"name":"Ulhasnagar","lat":19.21667,"lng":73.15},{"id":134269,"name":"Umarga","lat":17.83841,"lng":76.62331},{"id":134272,"name":"Umarkhed","lat":19.60144,"lng":77.68878},{"id":134274,"name":"Umred","lat":20.85396,"lng":79.32466},{"id":134291,"name":"Uran","lat":18.87813,"lng":72.93924},{"id":147917,"name":"Uruli Kanchan","lat":18.48333333,"lng":74.13333333},{"id":134379,"name":"Vada","lat":19.65347,"lng":73.14811},{"id":147918,"name":"Vadgaon","lat":18.7486,"lng":73.641},{"id":147919,"name":"Vadner","lat":20.25,"lng":74.0333},{"id":134312,"name":"Vaijapur","lat":19.92672,"lng":74.7275},{"id":147920,"name":"Vairag","lat":18.05,"lng":75.8},{"id":147921,"name":"Valsang","lat":17.6,"lng":76.0833},{"id":147922,"name":"Vangaon","lat":19.86666667,"lng":72.75},{"id":134328,"name":"Varangaon","lat":21.01767,"lng":75.91042},{"id":147923,"name":"Vashi","lat":19.08,"lng":73.01},{"id":134334,"name":"Vasind","lat":19.40844,"lng":73.26285},{"id":147924,"name":"Vatul","lat":16.75,"lng":73.6},{"id":147925,"name":"Velas Maharashtra","lat":17.9585,"lng":73.0498},{"id":147926,"name":"Velneshwar","lat":17.3833,"lng":73.2},{"id":134346,"name":"Vengurla","lat":15.86125,"lng":73.63182},{"id":147927,"name":"Vijaydurg","lat":16.5667,"lng":73.3333},{"id":147928,"name":"Vikhroli","lat":19.11,"lng":72.94},{"id":147929,"name":"Vile Parle","lat":19.0999098,"lng":72.8440038},{"id":147930,"name":"Vinchur","lat":20.11666667,"lng":74.28333333},{"id":134368,"name":"Virar","lat":19.45591,"lng":72.81136},{"id":147931,"name":"Vita Maharashtra","lat":17.2711,"lng":74.5378},{"id":134372,"name":"Vite","lat":17.27343,"lng":74.53792},{"id":147932,"name":"Wadala","lat":19.02163056,"lng":72.86458889},{"id":134388,"name":"Wadgaon","lat":18.7392,"lng":73.63945},{"id":147933,"name":"Wadner","lat":20.84972222,"lng":76.33333333},{"id":147934,"name":"Wadwani","lat":18.98333333,"lng":76.05},{"id":147935,"name":"Wagholi","lat":17.9,"lng":74.083},{"id":134390,"name":"Wai","lat":17.95276,"lng":73.89058},{"id":147936,"name":"Wakad","lat":18.5993,"lng":73.7625},{"id":147937,"name":"Walgaon","lat":20.9989,"lng":77.7064},{"id":147938,"name":"Walki","lat":18.95,"lng":74.75},{"id":134393,"name":"Wani","lat":20.05507,"lng":78.95313},{"id":134396,"name":"Wardha","lat":20.73933,"lng":78.59784},{"id":134397,"name":"Warora","lat":20.22885,"lng":79.00277},{"id":134398,"name":"Warud","lat":21.47101,"lng":78.26965},{"id":134399,"name":"Washim","lat":20.2,"lng":77.2},{"id":147939,"name":"Worli","lat":19.0,"lng":72.815},{"id":134438,"name":"Yaval","lat":21.16772,"lng":75.69762},{"id":134427,"name":"Yavatmal","lat":20.15,"lng":78.35},{"id":134434,"name":"Yeola","lat":20.0424,"lng":74.48944}]