[{"id":57638,"name":"Aldona","lat":15.59337,"lng":73.87482},{"id":57727,"name":"Arambol","lat":15.68681,"lng":73.70449},{"id":57795,"name":"Baga","lat":15.56517,"lng":73.75517},{"id":57836,"name":"Bambolim","lat":15.46361,"lng":73.8531},{"id":57845,"name":"Bandora","lat":15.40823,"lng":73.98129},{"id":57932,"name":"Benaulim","lat":15.26435,"lng":73.92812},{"id":58165,"name":"Calangute","lat":15.5439,"lng":73.7553},{"id":58167,"name":"Candolim","lat":15.51807,"lng":73.76259},{"id":58169,"name":"Carapur","lat":15.56588,"lng":73.98713},{"id":58170,"name":"Cavelossim","lat":15.17255,"lng":73.94194},{"id":131542,"name":"Chicalim","lat":15.39835,"lng":73.84216},{"id":131559,"name":"Chinchinim","lat":15.21447,"lng":73.97555},{"id":131622,"name":"Colovale","lat":15.63522,"lng":73.82426},{"id":131623,"name":"Colva","lat":15.27976,"lng":73.92285},{"id":131625,"name":"Cortalim","lat":15.40247,"lng":73.90881},{"id":131630,"name":"Cuncolim","lat":15.1773,"lng":73.99392},{"id":131631,"name":"Curchorem","lat":15.26349,"lng":74.10875},{"id":131632,"name":"Curti","lat":15.41667,"lng":74.01667},{"id":131672,"name":"Davorlim","lat":15.27221,"lng":73.99242},{"id":131764,"name":"Dicholi","lat":15.59319,"lng":73.94571},{"id":131960,"name":"Goa Velha","lat":15.44384,"lng":73.88572},{"id":132015,"name":"Guirim","lat":15.57552,"lng":73.80722},{"id":132297,"name":"Jua","lat":15.5307,"lng":73.95047},{"id":132705,"name":"Kankon","lat":15.02698,"lng":74.04617},{"id":132811,"name":"Madgaon","lat":15.27501,"lng":73.95786},{"id":133086,"name":"Mapuca","lat":15.59154,"lng":73.80898},{"id":132997,"name":"Morjim","lat":15.63097,"lng":73.73903},{"id":132998,"name":"Mormugao","lat":15.38914,"lng":73.81491},{"id":133185,"name":"Navelim","lat":15.53333,"lng":73.98333},{"id":133238,"name":"North Goa","lat":15.53397,"lng":73.96408},{"id":133330,"name":"Palle","lat":15.46667,"lng":74.08333},{"id":133342,"name":"Panaji","lat":15.49574,"lng":73.82624},{"id":133422,"name":"Pernem","lat":15.723,"lng":73.79511},{"id":133471,"name":"Ponda","lat":15.40341,"lng":74.01519},{"id":133572,"name":"Quepem","lat":15.2128,"lng":74.0772},{"id":133573,"name":"Queula","lat":15.39011,"lng":73.98557},{"id":133585,"name":"Raia","lat":15.30499,"lng":73.97096},{"id":133764,"name":"Saligao","lat":15.55359,"lng":73.79036},{"id":133777,"name":"Sancoale","lat":15.37794,"lng":73.90352},{"id":133786,"name":"Sanguem","lat":15.22901,"lng":74.15149},{"id":133791,"name":"Sanquelim","lat":15.56422,"lng":74.00799},{"id":133795,"name":"Sanvordem","lat":15.26269,"lng":74.11965},{"id":133850,"name":"Serula","lat":15.54774,"lng":73.84329},{"id":133987,"name":"Solim","lat":15.61521,"lng":73.7674},{"id":134010,"name":"South Goa","lat":15.20425,"lng":74.16733},{"id":134101,"name":"Taleigao","lat":15.46915,"lng":73.83285},{"id":134311,"name":"Vagator","lat":15.59766,"lng":73.74496},{"id":134321,"name":"Valpoy","lat":15.53239,"lng":74.13671},{"id":134329,"name":"Varca","lat":15.23237,"lng":73.94311},{"id":134333,"name":"Vasco da Gama","lat":15.39585,"lng":73.81568}]