[{"id":58064,"name":"Bishnupur","lat":24.60769,"lng":93.77998},{"id":153522,"name":"Chandel","lat":24.5739,"lng":94.2913},{"id":131585,"name":"Churachandpur","lat":24.33333,"lng":93.68333},{"id":132162,"name":"Imphal East","lat":24.7911,"lng":93.9348},{"id":132953,"name":"Imphal West","lat":24.60998,"lng":93.88873},{"id":153527,"name":"Jiribam","lat":24.7941004,"lng":93.1170986},{"id":132341,"name":"Kakching","lat":24.4982,"lng":93.98126},{"id":153526,"name":"Kamjong","lat":24.8599686,"lng":94.5058643},{"id":153523,"name":"Kangpokpi","lat":24.0895,"lng":93.9901},{"id":153528,"name":"Noney","lat":24.8491131,"lng":93.5967366},{"id":153525,"name":"Pherzawl","lat":24.1437,"lng":93.527},{"id":133837,"name":"Senapati","lat":25.26705,"lng":94.02237},{"id":134109,"name":"Tamenglong","lat":24.97548,"lng":93.51563},{"id":153524,"name":"Tengnoupal","lat":24.3945,"lng":94.1053},{"id":134159,"name":"Thoubal","lat":24.62205,"lng":94.01001},{"id":134264,"name":"Ukhrul","lat":25.04828,"lng":94.35883}]