[{"id":57643,"name":"Almora","lat":29.69223,"lng":79.49789},{"id":57800,"name":"Bageshwar","lat":29.97315,"lng":79.83224},{"id":57841,"name":"Banbasa","lat":28.99132,"lng":80.07608},{"id":57879,"name":"Barkot","lat":30.80861,"lng":78.20596},{"id":58153,"name":"Bazpur","lat":29.15299,"lng":79.10814},{"id":58020,"name":"Bhim Tal","lat":29.34447,"lng":79.56336},{"id":57998,"name":"Bhowali","lat":29.38985,"lng":79.50481},{"id":58059,"name":"Birbhaddar","lat":30.0712,"lng":78.28189},{"id":58176,"name":"Chakrata","lat":30.70369,"lng":77.86386},{"id":58182,"name":"Chamoli","lat":30.5,"lng":79.5},{"id":58183,"name":"Champawat","lat":29.28756,"lng":80.03737},{"id":131615,"name":"Clement Town","lat":30.26361,"lng":78.00862},{"id":131676,"name":"Dehradun","lat":30.33,"lng":78.06},{"id":131702,"name":"Devaprayag","lat":30.14603,"lng":78.60272},{"id":131754,"name":"Dharchula","lat":29.84707,"lng":80.51951},{"id":131784,"name":"Doiwala","lat":30.17667,"lng":78.11659},{"id":131793,"name":"Dugadda","lat":29.80673,"lng":78.61109},{"id":131804,"name":"Dwarahat","lat":29.77785,"lng":79.42731},{"id":131923,"name":"Garhwal","lat":29.96366,"lng":78.92853},{"id":132058,"name":"Haldwani","lat":29.22254,"lng":79.5286},{"id":132069,"name":"Harbatpur","lat":30.43863,"lng":77.74058},{"id":132075,"name":"Haridwar","lat":29.94791,"lng":78.16025},{"id":132247,"name":"Jaspur","lat":29.27919,"lng":78.82798},{"id":132296,"name":"Joshimath","lat":30.55543,"lng":79.56436},{"id":132685,"name":"Kaladhungi","lat":29.28351,"lng":79.351},{"id":132686,"name":"Kalagarh Project Colony","lat":29.4778,"lng":78.78449},{"id":132418,"name":"Kashipur","lat":29.21399,"lng":78.95693},{"id":132484,"name":"Khatima","lat":28.92134,"lng":79.97075},{"id":132521,"name":"Kichha","lat":28.91154,"lng":79.52009},{"id":132597,"name":"Kotdwara","lat":29.74612,"lng":78.52219},{"id":132749,"name":"Laksar","lat":29.7587,"lng":78.04148},{"id":132756,"name":"Lansdowne","lat":29.84183,"lng":78.68014},{"id":132767,"name":"Lohaghat","lat":29.40356,"lng":80.08965},{"id":132908,"name":"Manglaur","lat":29.79094,"lng":77.87836},{"id":133046,"name":"Mussoorie","lat":30.45498,"lng":78.07068},{"id":133123,"name":"Naini Tal","lat":29.39743,"lng":79.44686},{"id":133166,"name":"Narendranagar","lat":30.16173,"lng":78.28712},{"id":133394,"name":"Pauri","lat":30.15286,"lng":78.7771},{"id":133563,"name":"Pipalkoti","lat":30.42553,"lng":79.43066},{"id":133464,"name":"Pithoragarh","lat":30.0,"lng":80.25},{"id":133666,"name":"Raipur","lat":30.31097,"lng":78.08979},{"id":133735,"name":"Raiwala Bara","lat":30.01864,"lng":78.2293},{"id":133703,"name":"Ramnagar","lat":29.3925,"lng":79.1283},{"id":133716,"name":"Ranikhet","lat":29.64082,"lng":79.43229},{"id":133638,"name":"Rishikesh","lat":30.10778,"lng":78.29255},{"id":133650,"name":"Roorkee","lat":29.86632,"lng":77.89118},{"id":133652,"name":"Rudraprayag","lat":30.60872,"lng":79.06517},{"id":133973,"name":"Sitarganj","lat":28.9293,"lng":79.70436},{"id":134027,"name":"Srinagar","lat":30.22243,"lng":78.78341},{"id":134038,"name":"Sultanpur","lat":29.75534,"lng":78.11034},{"id":134110,"name":"Tanakpur","lat":29.074,"lng":80.11139},{"id":134122,"name":"Tehri","lat":30.39086,"lng":78.4803},{"id":134123,"name":"Tehri-Garhwal","lat":30.5,"lng":78.66667},{"id":134256,"name":"Udham Singh Nagar","lat":29.02746,"lng":79.52347},{"id":134301,"name":"Uttarkashi","lat":30.72986,"lng":78.44342},{"id":134360,"name":"Vikasnagar","lat":30.46944,"lng":77.77275}]