[{"id":57596,"name":"Adoor","lat":9.15595,"lng":76.73192},{"id":57637,"name":"Alappuzha","lat":9.49004,"lng":76.3264},{"id":57647,"name":"Aluva","lat":10.10764,"lng":76.35158},{"id":57650,"name":"Alwaye","lat":10.10649,"lng":76.35484},{"id":57703,"name":"Angamali","lat":10.19055,"lng":76.38789},{"id":57738,"name":"Aroor","lat":9.8694,"lng":76.30498},{"id":57742,"name":"Arukutti","lat":9.86667,"lng":76.35},{"id":57762,"name":"Attingal","lat":8.69609,"lng":76.81507},{"id":57772,"name":"Avanoor","lat":10.60826,"lng":76.1762},{"id":57778,"name":"Azhikkal","lat":11.91524,"lng":75.34761},{"id":57945,"name":"Beypore","lat":11.17151,"lng":75.80611},{"id":58195,"name":"Changanacheri","lat":9.44203,"lng":76.53604},{"id":131609,"name":"Chelakara","lat":10.69289,"lng":76.34387},{"id":131516,"name":"Chengannur","lat":9.31575,"lng":76.61513},{"id":131519,"name":"Cherpulassery","lat":10.87655,"lng":76.30932},{"id":131521,"name":"Cherthala","lat":9.68444,"lng":76.33558},{"id":131524,"name":"Chetwayi","lat":10.52885,"lng":76.04793},{"id":131576,"name":"Chittur","lat":10.69967,"lng":76.7471},{"id":131617,"name":"Cochin","lat":9.93988,"lng":76.26022},{"id":131724,"name":"Dharmadom","lat":11.77538,"lng":75.46459},{"id":131829,"name":"Edakkulam","lat":10.6102,"lng":76.18352},{"id":131835,"name":"Elur","lat":10.06667,"lng":76.28333},{"id":131844,"name":"Erattupetta","lat":9.68747,"lng":76.77891},{"id":131840,"name":"Ernakulam","lat":10.0,"lng":76.5},{"id":131874,"name":"Ferokh","lat":11.17989,"lng":75.84141},{"id":132038,"name":"Guruvayur","lat":10.5943,"lng":76.0411},{"id":132154,"name":"Idukki","lat":10.0,"lng":77.0},{"id":132170,"name":"Iringal","lat":11.55929,"lng":75.61663},{"id":132171,"name":"Irinjalakuda","lat":10.34238,"lng":76.21124},{"id":132323,"name":"Kadakkavoor","lat":8.67921,"lng":76.76714},{"id":132344,"name":"Kalamassery","lat":10.0614,"lng":76.32631},{"id":132350,"name":"Kalavoor","lat":9.57046,"lng":76.32756},{"id":132356,"name":"Kalpetta","lat":11.60871,"lng":76.08343},{"id":132707,"name":"Kanhangad","lat":12.30814,"lng":75.10632},{"id":132379,"name":"Kannavam","lat":11.8445,"lng":75.66266},{"id":132383,"name":"Kannur","lat":12.16667,"lng":75.33333},{"id":132720,"name":"Kasaragod","lat":12.49838,"lng":74.98959},{"id":132428,"name":"Kattanam","lat":9.17614,"lng":76.56325},{"id":132731,"name":"Kayankulam","lat":9.18173,"lng":76.50093},{"id":132536,"name":"Kizhake Chalakudi","lat":10.30067,"lng":76.33763},{"id":132545,"name":"Kodungallur","lat":10.23263,"lng":76.19513},{"id":132558,"name":"Kollam","lat":8.88113,"lng":76.58469},{"id":132595,"name":"Kotamangalam","lat":10.06435,"lng":76.62843},{"id":132609,"name":"Kottayam","lat":9.66667,"lng":76.66667},{"id":132614,"name":"Kovalam","lat":8.36667,"lng":76.99667},{"id":132619,"name":"Kozhikode","lat":11.5,"lng":76.0},{"id":132639,"name":"Kumbalam","lat":9.9063,"lng":76.31127},{"id":132649,"name":"Kunnamangalam","lat":11.30459,"lng":75.87772},{"id":132650,"name":"Kunnamkulam","lat":10.64667,"lng":76.06695},{"id":132652,"name":"Kunnumma","lat":9.35672,"lng":76.41343},{"id":132669,"name":"Kutiatodu","lat":9.8,"lng":76.33333},{"id":132671,"name":"Kuttampuzha","lat":10.15033,"lng":76.73544},{"id":132794,"name":"Lalam","lat":9.71667,"lng":76.7},{"id":132852,"name":"Mahe","lat":11.70172,"lng":75.53474},{"id":132866,"name":"Malappuram","lat":11.0,"lng":76.16667},{"id":132913,"name":"Manjeri","lat":11.12018,"lng":76.11996},{"id":132915,"name":"Manjeshwaram","lat":12.71287,"lng":74.88857},{"id":132920,"name":"Mannarakkat","lat":10.99223,"lng":76.46418},{"id":132933,"name":"Marayur","lat":10.27641,"lng":77.16205},{"id":132942,"name":"Mattanur","lat":11.93018,"lng":75.57152},{"id":133092,"name":"Mavelikara","lat":9.25929,"lng":76.55642},{"id":132950,"name":"Mavoor","lat":11.26667,"lng":75.91667},{"id":133023,"name":"Muluppilagadu","lat":11.79788,"lng":75.45111},{"id":133034,"name":"Munnar","lat":10.08818,"lng":77.06239},{"id":133103,"name":"Muvattupula","lat":9.98493,"lng":76.57728},{"id":133050,"name":"Muvattupuzha","lat":9.97985,"lng":76.57381},{"id":133253,"name":"Nadapuram","lat":11.68465,"lng":75.65493},{"id":133107,"name":"Naduvannur","lat":11.48772,"lng":75.77511},{"id":133198,"name":"Nedumangad","lat":8.60267,"lng":77.00139},{"id":133211,"name":"Neyyattinkara","lat":8.39854,"lng":77.08586},{"id":133287,"name":"Nileshwar","lat":12.25953,"lng":75.1352},{"id":133306,"name":"Ottappalam","lat":10.7735,"lng":76.37758},{"id":133321,"name":"Palackattumala","lat":9.74356,"lng":76.6294},{"id":133322,"name":"Palakkad","lat":10.775,"lng":76.651},{"id":133528,"name":"Palghat","lat":10.77319,"lng":76.65366},{"id":133343,"name":"Panamaram","lat":11.74014,"lng":76.07369},{"id":133546,"name":"Pappinissheri","lat":11.95655,"lng":75.34034},{"id":133357,"name":"Paravur Tekkumbhagam","lat":8.7947,"lng":76.66798},{"id":133359,"name":"Pariyapuram","lat":11.01667,"lng":75.86667},{"id":133380,"name":"Pathanamthitta","lat":9.26667,"lng":76.78333},{"id":133389,"name":"Pattanamtitta","lat":9.28068,"lng":76.86967},{"id":133399,"name":"Payyanur","lat":12.0935,"lng":75.20249},{"id":153628,"name":"Perinthalmanna","lat":10.97768,"lng":76.228508},{"id":133423,"name":"Perumbavoor","lat":10.10695,"lng":76.47366},{"id":133424,"name":"Perumpavur","lat":10.11544,"lng":76.47611},{"id":133427,"name":"Perya","lat":11.83334,"lng":75.85408},{"id":133457,"name":"Piravam","lat":9.86667,"lng":76.5},{"id":133472,"name":"Ponmana","lat":9.00798,"lng":76.52023},{"id":133477,"name":"Ponnani","lat":10.76695,"lng":75.92523},{"id":133502,"name":"Punalur","lat":9.01956,"lng":76.92261},{"id":133692,"name":"Ramamangalam","lat":9.93333,"lng":76.5},{"id":133865,"name":"Shertallai","lat":9.68581,"lng":76.33996},{"id":133915,"name":"Shoranur","lat":10.76181,"lng":76.27078},{"id":134103,"name":"Taliparamba","lat":12.04161,"lng":75.35927},{"id":134129,"name":"Thalassery","lat":11.74811,"lng":75.4929},{"id":134142,"name":"Thanniyam","lat":10.41667,"lng":76.13333},{"id":134154,"name":"Thiruvananthapuram","lat":8.60399,"lng":76.98574},{"id":134161,"name":"Thrissur","lat":10.51667,"lng":76.21667},{"id":134192,"name":"Tirur","lat":10.91368,"lng":75.92118},{"id":134194,"name":"Tiruvalla","lat":9.3816,"lng":76.57489},{"id":134313,"name":"Vaikam","lat":9.74858,"lng":76.39637},{"id":134330,"name":"Varkala","lat":8.7333,"lng":76.7167},{"id":57786,"name":"Vatakara","lat":11.59776,"lng":75.58142},{"id":134336,"name":"Vayalar","lat":9.71158,"lng":76.33888},{"id":134353,"name":"Vettur","lat":8.71742,"lng":76.72582},{"id":134400,"name":"Wayanad","lat":11.605,"lng":76.083}]