[{"id":131822,"name":"East","lat":27.33333,"lng":88.66667},{"id":131905,"name":"Gangtok","lat":27.32574,"lng":88.61216},{"id":132041,"name":"Gyalshing","lat":27.28952,"lng":88.25764},{"id":132293,"name":"Jorethang","lat":27.10696,"lng":88.32332},{"id":132906,"name":"Mangan","lat":27.50965,"lng":88.52206},{"id":133137,"name":"Namchi","lat":27.16494,"lng":88.3638},{"id":133194,"name":"Naya Bazar","lat":27.13082,"lng":88.23972},{"id":133235,"name":"North","lat":27.66667,"lng":88.5},{"id":133609,"name":"Rangpo","lat":27.17733,"lng":88.53358},{"id":133949,"name":"Singtam","lat":27.23467,"lng":88.50168},{"id":134008,"name":"South","lat":27.33333,"lng":88.41667},{"id":134405,"name":"West","lat":27.33333,"lng":88.25}]