[{"id":57600,"name":"Agartala","lat":23.83605,"lng":91.27939},{"id":57662,"name":"Amarpur","lat":23.5257,"lng":91.65879},{"id":134458,"name":"Ambasa","lat":23.936,"lng":91.85436},{"id":57876,"name":"Barjala","lat":23.6182,"lng":91.35596},{"id":57926,"name":"Belonia","lat":23.25178,"lng":91.45407},{"id":131710,"name":"Dhalai","lat":23.84307,"lng":91.92591},{"id":131725,"name":"Dharmanagar","lat":24.36667,"lng":92.16667},{"id":131979,"name":"Gomati","lat":23.53399,"lng":91.48122},{"id":132334,"name":"Kailashahar","lat":24.33199,"lng":92.00391},{"id":132362,"name":"Kamalpur","lat":24.19593,"lng":91.83438},{"id":132502,"name":"Khowai","lat":24.07964,"lng":91.59972},{"id":133241,"name":"North Tripura","lat":24.1305,"lng":92.15552},{"id":133721,"name":"Ranir Bazar","lat":23.83463,"lng":91.36614},{"id":133740,"name":"Sabrum","lat":23.00153,"lng":91.72427},{"id":133997,"name":"Sonamura","lat":23.47547,"lng":91.2659},{"id":134011,"name":"South Tripura","lat":23.1671,"lng":91.60953},{"id":134249,"name":"Udaipur","lat":23.53333,"lng":91.48333},{"id":134281,"name":"Unakoti","lat":24.32781,"lng":92.00377},{"id":134412,"name":"West Tripura","lat":23.91667,"lng":91.5}]