[{"id":57599,"name":"Agar","lat":23.71177,"lng":76.01571},{"id":57611,"name":"Ajaigarh","lat":24.89879,"lng":80.25921},{"id":57626,"name":"Akodia","lat":23.38027,"lng":76.59875},{"id":57631,"name":"Alampur","lat":26.02514,"lng":78.79697},{"id":57639,"name":"Alirajpur","lat":22.31384,"lng":74.36452},{"id":57646,"name":"Alot","lat":23.76336,"lng":75.55662},{"id":57691,"name":"Amanganj","lat":24.42664,"lng":80.03579},{"id":57659,"name":"Amarkantak","lat":22.67486,"lng":81.75908},{"id":57663,"name":"Amarpatan","lat":24.31371,"lng":80.97703},{"id":57664,"name":"Amarwara","lat":22.2978,"lng":79.16943},{"id":57673,"name":"Ambah","lat":26.70423,"lng":78.22678},{"id":57680,"name":"Amla","lat":21.92485,"lng":78.12786},{"id":57706,"name":"Anjad","lat":22.04171,"lng":75.05519},{"id":57719,"name":"Antri","lat":26.05804,"lng":78.21027},{"id":57721,"name":"Anuppur","lat":23.05674,"lng":81.68399},{"id":134462,"name":"Aron","lat":24.38109,"lng":77.41739},{"id":57750,"name":"Ashoknagar","lat":24.58,"lng":77.73},{"id":57752,"name":"Ashta","lat":23.01754,"lng":76.72208},{"id":58103,"name":"Babai","lat":22.70256,"lng":77.93494},{"id":57788,"name":"Badarwas","lat":24.97516,"lng":77.5649},{"id":57793,"name":"Badnawar","lat":23.02181,"lng":75.23268},{"id":58106,"name":"Bagh","lat":22.35905,"lng":74.79052},{"id":58111,"name":"Bagli","lat":22.64124,"lng":76.34877},{"id":57811,"name":"Baihar","lat":22.10133,"lng":80.54967},{"id":57813,"name":"Baikunthpur","lat":24.72768,"lng":81.40975},{"id":57821,"name":"Bakshwaha","lat":24.25106,"lng":79.28618},{"id":58119,"name":"Balaghat","lat":21.96667,"lng":80.33333},{"id":57824,"name":"Baldeogarh","lat":24.75619,"lng":79.06715},{"id":57838,"name":"Bamna","lat":23.09454,"lng":74.76164},{"id":58122,"name":"Bamor Kalan","lat":24.89298,"lng":78.15105},{"id":57839,"name":"Bamora","lat":24.05539,"lng":78.08925},{"id":57842,"name":"Banda","lat":24.04488,"lng":78.96094},{"id":57868,"name":"Barela","lat":23.09678,"lng":80.05084},{"id":57870,"name":"Barghat","lat":22.03065,"lng":79.7328},{"id":57871,"name":"Bargi","lat":22.99138,"lng":79.8755},{"id":57872,"name":"Barhi","lat":23.90326,"lng":80.81516},{"id":57888,"name":"Barwani","lat":22.02485,"lng":74.91805},{"id":58148,"name":"Basoda","lat":23.85153,"lng":77.93652},{"id":57913,"name":"Begamganj","lat":23.59917,"lng":78.34064},{"id":57935,"name":"Beohari","lat":24.02423,"lng":81.37831},{"id":57936,"name":"Berasia","lat":23.63134,"lng":77.43351},{"id":57940,"name":"Betma","lat":22.68653,"lng":75.61456},{"id":57942,"name":"Betul","lat":21.83333,"lng":77.83333},{"id":57943,"name":"Betul Bazar","lat":21.85572,"lng":77.92913},{"id":58006,"name":"Bhabhra","lat":22.53048,"lng":74.32846},{"id":57959,"name":"Bhainsdehi","lat":21.64491,"lng":77.63023},{"id":58011,"name":"Bhander","lat":25.73581,"lng":78.74555},{"id":58012,"name":"Bhanpura","lat":24.513,"lng":75.7469},{"id":57975,"name":"Bhawaniganj","lat":24.41582,"lng":75.83552},{"id":57980,"name":"Bhikangaon","lat":21.86764,"lng":75.96391},{"id":57982,"name":"Bhind","lat":26.5,"lng":78.75},{"id":57985,"name":"Bhitarwar","lat":25.79216,"lng":78.11085},{"id":57995,"name":"Bhopal","lat":23.25469,"lng":77.40289},{"id":58025,"name":"Biaora","lat":23.9205,"lng":76.91074},{"id":58038,"name":"Bijawar","lat":24.62351,"lng":79.48994},{"id":58036,"name":"Bijrauni","lat":24.93296,"lng":77.64352},{"id":58073,"name":"Bodri","lat":23.16524,"lng":81.43262},{"id":58096,"name":"Burhanpur","lat":21.31,"lng":76.23},{"id":58097,"name":"Burhar","lat":23.21494,"lng":81.53204},{"id":58188,"name":"Chanderi","lat":24.71312,"lng":78.13809},{"id":58189,"name":"Chandia","lat":23.65647,"lng":80.70911},{"id":58191,"name":"Chandla","lat":25.07148,"lng":80.19294},{"id":131532,"name":"Chhatarpur","lat":24.75,"lng":79.75},{"id":131534,"name":"Chhindwara","lat":22.05697,"lng":78.93958},{"id":131543,"name":"Chichli","lat":22.83363,"lng":78.82611},{"id":131581,"name":"Chorhat","lat":24.42743,"lng":81.66948},{"id":131636,"name":"Daboh","lat":26.00239,"lng":78.87658},{"id":131637,"name":"Dabra","lat":25.88572,"lng":78.33221},{"id":131651,"name":"Damoh","lat":23.75,"lng":79.58333},{"id":131662,"name":"Datia","lat":25.75,"lng":78.5},{"id":131691,"name":"Deori Khas","lat":23.39017,"lng":79.0163},{"id":131693,"name":"Depalpur","lat":22.85095,"lng":75.54224},{"id":131707,"name":"Dewas","lat":23.0,"lng":76.16667},{"id":131749,"name":"Dhamnod","lat":22.20928,"lng":75.47057},{"id":131751,"name":"Dhana","lat":23.74697,"lng":78.86234},{"id":131753,"name":"Dhar","lat":22.59373,"lng":75.29774},{"id":131720,"name":"Dharampuri","lat":22.14951,"lng":75.34439},{"id":131775,"name":"Dindori","lat":22.8,"lng":81.1},{"id":131848,"name":"Etawa","lat":24.18351,"lng":78.20289},{"id":132043,"name":"Gadarwara","lat":22.9235,"lng":78.7849},{"id":131917,"name":"Garha Brahman","lat":23.86873,"lng":77.35731},{"id":131924,"name":"Garhakota","lat":23.7791,"lng":79.14321},{"id":131930,"name":"Gautampura","lat":22.98664,"lng":75.51921},{"id":131936,"name":"Ghansor","lat":22.65976,"lng":79.95013},{"id":131965,"name":"Gogapur","lat":23.55746,"lng":75.51665},{"id":131966,"name":"Gohadi","lat":26.43278,"lng":78.44205},{"id":132002,"name":"Govindgarh","lat":24.37845,"lng":81.29644},{"id":132024,"name":"Guna","lat":24.55464,"lng":77.20082},{"id":132033,"name":"Gurh","lat":24.50265,"lng":81.50037},{"id":132040,"name":"Gwalior","lat":26.22983,"lng":78.17337},{"id":132070,"name":"Harda","lat":22.23406,"lng":76.96431},{"id":132071,"name":"Harda Khas","lat":22.34414,"lng":77.09536},{"id":132080,"name":"Harpalpur","lat":25.28773,"lng":79.33279},{"id":132081,"name":"Harrai","lat":22.61428,"lng":79.22207},{"id":132082,"name":"Harsud","lat":22.09947,"lng":76.73423},{"id":132145,"name":"Hatod","lat":22.79378,"lng":75.73928},{"id":132088,"name":"Hatta","lat":24.13406,"lng":79.60119},{"id":132098,"name":"Hindoria","lat":23.90345,"lng":79.56861},{"id":132120,"name":"Hoshangabad","lat":22.58827,"lng":77.98887},{"id":132180,"name":"Iawar","lat":23.00943,"lng":76.5007},{"id":132152,"name":"Ichhawar","lat":23.02816,"lng":77.01729},{"id":132158,"name":"Iklehra","lat":23.14667,"lng":76.39044},{"id":132166,"name":"Indore","lat":22.66667,"lng":75.75},{"id":132175,"name":"Isagarh","lat":24.83906,"lng":77.88274},{"id":132179,"name":"Itarsi","lat":22.61477,"lng":77.76222},{"id":132181,"name":"Jabalpur","lat":23.16,"lng":79.95},{"id":132204,"name":"Jaisinghnagar","lat":23.68582,"lng":81.39085},{"id":132206,"name":"Jaithari","lat":23.20856,"lng":78.61487},{"id":132309,"name":"Jamai","lat":22.19644,"lng":78.59191},{"id":132241,"name":"Jaora","lat":23.63783,"lng":75.12711},{"id":132251,"name":"Jatara","lat":25.00964,"lng":79.04869},{"id":132314,"name":"Jawad","lat":24.59916,"lng":74.86261},{"id":132275,"name":"Jhabua","lat":22.76772,"lng":74.59087},{"id":132316,"name":"Jiran","lat":24.30871,"lng":74.89087},{"id":132283,"name":"Jobat","lat":22.41599,"lng":74.56828},{"id":132333,"name":"Kailaras","lat":26.30498,"lng":77.616},{"id":132336,"name":"Kaimori","lat":23.38465,"lng":79.7442},{"id":132382,"name":"Kannod","lat":22.66764,"lng":76.74286},{"id":132397,"name":"Kareli","lat":22.91533,"lng":79.06378},{"id":132398,"name":"Karera","lat":25.45815,"lng":78.13583},{"id":132407,"name":"Karrapur","lat":23.94891,"lng":78.86584},{"id":132419,"name":"Kasrawad","lat":22.12745,"lng":75.61101},{"id":132420,"name":"Katangi","lat":21.77369,"lng":79.80513},{"id":132424,"name":"Katni","lat":23.83555,"lng":80.39417},{"id":132511,"name":"Khachrod","lat":23.42322,"lng":75.28185},{"id":132453,"name":"Khailar","lat":25.34127,"lng":78.53133},{"id":132457,"name":"Khajuraho Group of Monuments","lat":24.84809,"lng":79.93351},{"id":132460,"name":"Khamaria","lat":23.22558,"lng":79.88007},{"id":132467,"name":"Khandwa","lat":21.82427,"lng":76.35086},{"id":132476,"name":"Khargapur","lat":24.823,"lng":79.144},{"id":132474,"name":"Khargone","lat":21.82306,"lng":75.61028},{"id":132519,"name":"Khategaon","lat":22.59573,"lng":76.9133},{"id":132497,"name":"Khilchipur","lat":24.03943,"lng":76.578},{"id":132498,"name":"Khirkiyan","lat":22.16732,"lng":76.86137},{"id":132504,"name":"Khujner","lat":23.78597,"lng":76.61773},{"id":132507,"name":"Khurai","lat":24.04372,"lng":78.33014},{"id":132561,"name":"Kolaras","lat":25.21928,"lng":77.61167},{"id":132585,"name":"Korwai","lat":24.11774,"lng":78.04007},{"id":132613,"name":"Kotar","lat":24.69802,"lng":80.98073},{"id":132598,"name":"Kothi","lat":24.7526,"lng":80.77751},{"id":132603,"name":"Kotma","lat":23.20383,"lng":81.97904},{"id":132611,"name":"Kotwa","lat":25.0308,"lng":81.31908},{"id":132631,"name":"Kukshi","lat":22.20677,"lng":74.75788},{"id":132640,"name":"Kumbhraj","lat":24.37338,"lng":77.04841},{"id":132741,"name":"Lahar","lat":26.19401,"lng":78.94137},{"id":132746,"name":"Lakhnadon","lat":22.60049,"lng":79.60094},{"id":132763,"name":"Leteri","lat":24.05979,"lng":77.40858},{"id":132766,"name":"Lodhikheda","lat":21.58235,"lng":78.85911},{"id":133054,"name":"Machalpur","lat":24.12767,"lng":76.31672},{"id":132814,"name":"Madhogarh","lat":24.56401,"lng":80.91126},{"id":132833,"name":"Maheshwar","lat":22.17592,"lng":75.58715},{"id":132835,"name":"Mahgawan","lat":26.49471,"lng":78.61593},{"id":132854,"name":"Maihar","lat":24.26594,"lng":80.76063},{"id":132860,"name":"Majholi","lat":23.50114,"lng":79.92396},{"id":132864,"name":"Maksi","lat":23.25999,"lng":76.14567},{"id":132869,"name":"Malhargarh","lat":24.28286,"lng":74.99024},{"id":132930,"name":"Manasa","lat":24.47764,"lng":75.14095},{"id":132931,"name":"Manawar","lat":22.23566,"lng":75.08917},{"id":132894,"name":"Mandideep","lat":23.08166,"lng":77.53328},{"id":132895,"name":"Mandla","lat":22.64041,"lng":80.51344},{"id":133075,"name":"Mandleshwar","lat":22.17598,"lng":75.65995},{"id":132897,"name":"Mandsaur","lat":24.33333,"lng":75.25},{"id":132907,"name":"Mangawan","lat":24.66754,"lng":81.54644},{"id":133080,"name":"Manpur","lat":22.43151,"lng":75.62107},{"id":132943,"name":"Mau","lat":26.26584,"lng":78.67108},{"id":132947,"name":"Mauganj","lat":24.66721,"lng":81.87339},{"id":132973,"name":"Mihona","lat":26.28373,"lng":78.98048},{"id":132983,"name":"Mohgaon","lat":21.63941,"lng":78.73638},{"id":133003,"name":"Morar","lat":26.2264,"lng":78.22482},{"id":132994,"name":"Morena","lat":26.16667,"lng":77.5},{"id":133022,"name":"Multai","lat":21.77463,"lng":78.25756},{"id":133028,"name":"Mundi","lat":22.06693,"lng":76.49326},{"id":133030,"name":"Mungaoli","lat":24.40837,"lng":78.09588},{"id":133042,"name":"Murwara","lat":23.83776,"lng":80.39405},{"id":133115,"name":"Nagda","lat":23.45834,"lng":75.41759},{"id":133259,"name":"Nagod","lat":24.56924,"lng":80.58809},{"id":133197,"name":"Naigarhi","lat":24.78686,"lng":81.77868},{"id":133124,"name":"Nainpur","lat":22.42996,"lng":80.10561},{"id":133138,"name":"Namli","lat":23.46115,"lng":75.06036},{"id":133155,"name":"Naraini","lat":25.19033,"lng":80.475},{"id":133276,"name":"Narayangarh","lat":24.27083,"lng":75.05007},{"id":133171,"name":"Narsimhapur","lat":22.91667,"lng":79.16667},{"id":133172,"name":"Narsinghgarh","lat":23.70758,"lng":77.09319},{"id":133174,"name":"Narwar","lat":25.6439,"lng":77.9129},{"id":133179,"name":"Nasrullahganj","lat":22.6837,"lng":77.27069},{"id":133202,"name":"Neemuch","lat":24.47,"lng":74.87},{"id":133207,"name":"Nepanagar","lat":21.4538,"lng":76.39335},{"id":133304,"name":"Orchha","lat":25.35192,"lng":78.64033},{"id":133308,"name":"Pachmarhi","lat":22.46791,"lng":78.43312},{"id":133325,"name":"Palera","lat":25.02013,"lng":79.22818},{"id":133530,"name":"Pali","lat":23.36453,"lng":81.04374},{"id":133354,"name":"Panagar","lat":23.28539,"lng":79.99509},{"id":133344,"name":"Panara","lat":22.20568,"lng":78.55093},{"id":133348,"name":"Pandhana","lat":21.69816,"lng":76.22487},{"id":133538,"name":"Pandhurna","lat":21.59556,"lng":78.52628},{"id":133351,"name":"Panna","lat":24.5,"lng":80.25},{"id":133542,"name":"Pansemal","lat":21.65981,"lng":74.69937},{"id":133371,"name":"Parasia","lat":22.1913,"lng":78.75904},{"id":133555,"name":"Patan","lat":23.28636,"lng":79.68962},{"id":133381,"name":"Patharia","lat":23.89921,"lng":79.19393},{"id":133396,"name":"Pawai","lat":24.26635,"lng":80.16196},{"id":133430,"name":"Petlawad","lat":23.01102,"lng":74.79772},{"id":133454,"name":"Piploda","lat":23.35,"lng":75.43333},{"id":133462,"name":"Pithampur","lat":22.60197,"lng":75.69649},{"id":133481,"name":"Porsa","lat":26.67444,"lng":78.37081},{"id":133508,"name":"Punasa","lat":22.23507,"lng":76.39335},{"id":133660,"name":"Raghogarh","lat":24.44318,"lng":77.19768},{"id":133661,"name":"Rahatgarh","lat":23.78968,"lng":78.39473},{"id":133591,"name":"Raisen","lat":23.25,"lng":78.08333},{"id":133675,"name":"Rajgarh","lat":22.67821,"lng":74.94483},{"id":133680,"name":"Rajnagar","lat":24.88929,"lng":79.91178},{"id":133595,"name":"Rajpur","lat":22.30393,"lng":74.35568},{"id":133709,"name":"Rampura","lat":24.467,"lng":75.43996},{"id":133717,"name":"Ranapur","lat":22.64704,"lng":74.52118},{"id":133615,"name":"Ratangarh","lat":24.81667,"lng":75.11667},{"id":133618,"name":"Ratlam","lat":23.33033,"lng":75.04032},{"id":133623,"name":"Rehli","lat":23.63722,"lng":79.06275},{"id":133624,"name":"Rehti","lat":22.73781,"lng":77.43399},{"id":133633,"name":"Rewa","lat":24.53256,"lng":81.29234},{"id":133738,"name":"Sabalgarh","lat":26.24918,"lng":77.40786},{"id":134061,"name":"Sagar","lat":23.75,"lng":78.75},{"id":133757,"name":"Sailana","lat":23.46219,"lng":74.92318},{"id":133796,"name":"Sanawad","lat":22.17391,"lng":76.06993},{"id":134070,"name":"Sanchi","lat":23.48646,"lng":77.7378},{"id":134075,"name":"Sanwer","lat":22.97415,"lng":75.8271},{"id":134078,"name":"Sarangpur","lat":23.56651,"lng":76.47306},{"id":133820,"name":"Satna","lat":24.5,"lng":81.0},{"id":133824,"name":"Satwas","lat":22.53628,"lng":76.68452},{"id":133826,"name":"Saugor","lat":23.83877,"lng":78.73874},{"id":133829,"name":"Sausar","lat":21.65576,"lng":78.79669},{"id":133835,"name":"Sehore","lat":23.2,"lng":77.08333},{"id":133838,"name":"Sendhwa","lat":21.68562,"lng":75.09622},{"id":133840,"name":"Seondha","lat":26.15422,"lng":78.7812},{"id":133842,"name":"Seoni","lat":22.08503,"lng":79.55037},{"id":133843,"name":"Seoni Malwa","lat":22.45046,"lng":77.4665},{"id":133853,"name":"Shahdol","lat":23.5,"lng":81.5},{"id":133893,"name":"Shahgarh","lat":24.31365,"lng":79.11806},{"id":133899,"name":"Shahpur","lat":21.23742,"lng":76.22558},{"id":133904,"name":"Shahpura","lat":23.13663,"lng":79.66402},{"id":133910,"name":"Shajapur","lat":23.5,"lng":76.25},{"id":133912,"name":"Shamgarh","lat":24.18817,"lng":75.63903},{"id":133861,"name":"Sheopur","lat":25.8,"lng":77.0},{"id":133880,"name":"Shivpuri","lat":25.42378,"lng":77.66223},{"id":133888,"name":"Shujalpur","lat":23.40673,"lng":76.7098},{"id":133922,"name":"Sidhi","lat":24.25,"lng":82.0},{"id":133926,"name":"Sihora","lat":23.4871,"lng":80.10404},{"id":133938,"name":"Simaria","lat":24.79497,"lng":81.152},{"id":133947,"name":"Singoli","lat":24.96667,"lng":75.3},{"id":133948,"name":"Singrauli","lat":24.19973,"lng":82.67535},{"id":133956,"name":"Sirmaur","lat":24.83648,"lng":81.36448},{"id":133959,"name":"Sironj","lat":24.10313,"lng":77.69055},{"id":134090,"name":"Sitamau","lat":24.01473,"lng":75.35324},{"id":133981,"name":"Sohagi","lat":24.98181,"lng":81.69558},{"id":133982,"name":"Sohagpur","lat":22.70055,"lng":78.19522},{"id":134039,"name":"Sultanpur","lat":23.13812,"lng":77.93404},{"id":134055,"name":"Susner","lat":23.94667,"lng":76.08825},{"id":134230,"name":"Tal","lat":23.71979,"lng":75.38514},{"id":134102,"name":"Talen","lat":23.56949,"lng":76.72821},{"id":134119,"name":"Tarana","lat":23.33383,"lng":76.04253},{"id":134124,"name":"Tekanpur","lat":25.99401,"lng":78.28322},{"id":134130,"name":"Tendukheda","lat":23.3962,"lng":79.53947},{"id":134132,"name":"Teonthar","lat":24.98207,"lng":81.64194},{"id":134137,"name":"Thandla","lat":23.00959,"lng":74.57747},{"id":134244,"name":"Tikamgarh","lat":24.74327,"lng":78.83061},{"id":134177,"name":"Tirodi","lat":21.68522,"lng":79.71906},{"id":134251,"name":"Udaipura","lat":23.07434,"lng":78.51108},{"id":134263,"name":"Ujjain","lat":23.41667,"lng":75.5},{"id":134266,"name":"Ukwa","lat":21.97102,"lng":80.46625},{"id":134270,"name":"Umaria","lat":23.52473,"lng":80.83716},{"id":134276,"name":"Umri","lat":26.51056,"lng":78.93667},{"id":134282,"name":"Unhel","lat":23.33794,"lng":75.55931},{"id":134354,"name":"Vidisha","lat":23.91667,"lng":78.0},{"id":134418,"name":"Waraseoni","lat":21.76184,"lng":80.04301}]