[{"id":53857,"name":"Arizona","lat":15.63333,"lng":-87.31667},{"id":53860,"name":"Atenas de San Cristóbal","lat":15.68333,"lng":-87.31667},{"id":53921,"name":"Corozal","lat":15.8,"lng":-86.71667},{"id":53974,"name":"El Pino","lat":15.7,"lng":-86.93333},{"id":53976,"name":"El Porvenir","lat":15.75,"lng":-86.93333},{"id":53995,"name":"El Triunfo de la Cruz","lat":15.76667,"lng":-87.43333},{"id":54001,"name":"Esparta","lat":15.66291,"lng":-87.25622},{"id":54041,"name":"Jutiapa","lat":15.69586,"lng":-86.50414},{"id":54048,"name":"La Ceiba","lat":15.75971,"lng":-86.78221},{"id":54071,"name":"La Masica","lat":15.59865,"lng":-87.135},{"id":54080,"name":"La Unión","lat":15.71667,"lng":-87.0},{"id":54127,"name":"Mezapa","lat":15.58333,"lng":-87.65},{"id":54145,"name":"Nueva Armenia","lat":15.79556,"lng":-86.49845},{"id":54208,"name":"Sambo Creek","lat":15.81667,"lng":-86.68333},{"id":54212,"name":"San Antonio","lat":15.6,"lng":-87.15},{"id":54226,"name":"San Francisco","lat":15.65246,"lng":-87.01736},{"id":54259,"name":"San Juan Pueblo","lat":15.58333,"lng":-87.23333},{"id":54290,"name":"Santa Ana","lat":15.65,"lng":-87.06667},{"id":54334,"name":"Tela","lat":15.77425,"lng":-87.46731},{"id":54341,"name":"Tornabé","lat":15.75,"lng":-87.55}]