[{"id":53844,"name":"Ahuas","lat":15.46923,"lng":-84.34479},{"id":53862,"name":"Auas","lat":15.48333,"lng":-84.33333},{"id":53863,"name":"Auka","lat":14.94087,"lng":-83.83229},{"id":53869,"name":"Barra Patuca","lat":15.8,"lng":-84.28333},{"id":53875,"name":"Brus Laguna","lat":15.75,"lng":-84.48333},{"id":54028,"name":"Iralaya","lat":15.0,"lng":-83.23333},{"id":54039,"name":"Juan Francisco Bulnes","lat":15.91676,"lng":-84.9099},{"id":54165,"name":"Paptalaya","lat":15.5,"lng":-84.31667},{"id":54186,"name":"Puerto Lempira","lat":15.26667,"lng":-83.77222},{"id":54363,"name":"Villeda Morales","lat":15.08472,"lng":-83.35361},{"id":54365,"name":"Wampusirpi","lat":15.18333,"lng":-84.61667},{"id":54366,"name":"Wawina","lat":15.41667,"lng":-84.43333}]