[{"id":53856,"name":"Arimís","lat":14.78333,"lng":-86.0},{"id":53883,"name":"Campamento","lat":14.55,"lng":-86.65},{"id":53890,"name":"Catacamas","lat":14.60384,"lng":-85.54261},{"id":53917,"name":"Concordia","lat":14.61667,"lng":-86.65},{"id":53938,"name":"Dulce Nombre de Culmí","lat":15.1,"lng":-85.53333},{"id":53956,"name":"El Guayabito","lat":14.83333,"lng":-86.03333},{"id":53986,"name":"El Rosario","lat":14.8872,"lng":-86.68764},{"id":53987,"name":"El Rusio","lat":14.46667,"lng":-86.36667},{"id":54002,"name":"Esquipulas del Norte","lat":15.27763,"lng":-86.5576},{"id":54015,"name":"Gualaco","lat":15.02521,"lng":-86.07076},{"id":54021,"name":"Guarizama","lat":14.91667,"lng":-86.33333},{"id":54022,"name":"Guata","lat":15.15133,"lng":-86.37624},{"id":54023,"name":"Guayape","lat":14.71667,"lng":-86.83333},{"id":54032,"name":"Jano","lat":15.07902,"lng":-86.51521},{"id":54042,"name":"Juticalpa","lat":14.66667,"lng":-86.21944},{"id":54043,"name":"Jutiquile","lat":14.71667,"lng":-86.08333},{"id":54049,"name":"La Concepción","lat":14.7,"lng":-86.23333},{"id":54057,"name":"La Estancia","lat":15.05,"lng":-86.35},{"id":54061,"name":"La Guata","lat":15.08333,"lng":-86.38333},{"id":54082,"name":"La Unión","lat":15.09759,"lng":-86.6891},{"id":54087,"name":"Laguna Seca","lat":14.7,"lng":-86.1},{"id":54115,"name":"Mangulile","lat":15.06667,"lng":-86.8},{"id":54116,"name":"Manto","lat":14.91667,"lng":-86.38333},{"id":54137,"name":"Municipio de San Francisco de La Paz","lat":14.84183,"lng":-86.11819},{"id":54166,"name":"Patuca","lat":14.36,"lng":-85.97},{"id":54189,"name":"Punuare","lat":14.73333,"lng":-85.96667},{"id":54207,"name":"Salamá","lat":14.81052,"lng":-86.61996},{"id":54224,"name":"San Esteban","lat":15.29467,"lng":-85.69487},{"id":54228,"name":"San Francisco de Becerra","lat":14.63333,"lng":-86.1},{"id":54234,"name":"San Francisco de la Paz","lat":14.9,"lng":-86.2},{"id":54252,"name":"San José de Río Tinto","lat":14.93333,"lng":-85.7},{"id":54278,"name":"San Nicolás","lat":14.55,"lng":-86.25},{"id":54307,"name":"Santa María del Real","lat":14.76667,"lng":-85.95},{"id":54318,"name":"Silca","lat":14.76205,"lng":-86.51521},{"id":54373,"name":"Yocón","lat":14.95,"lng":-86.82},{"id":54379,"name":"Zopilotepe","lat":14.6,"lng":-86.26667}]