[{"id":53838,"name":"Agua Blanca Sur","lat":15.25,"lng":-87.88333},{"id":53855,"name":"Arenal","lat":15.35,"lng":-86.83333},{"id":53858,"name":"Armenia","lat":15.46667,"lng":-86.36667},{"id":53864,"name":"Ayapa","lat":15.11174,"lng":-87.17557},{"id":53877,"name":"Bálsamo Oriental","lat":15.48333,"lng":-86.33333},{"id":53886,"name":"Carbajales","lat":15.51667,"lng":-86.35},{"id":53926,"name":"Coyoles Central","lat":15.4,"lng":-86.66667},{"id":53943,"name":"El Bálsamo","lat":15.06667,"lng":-87.46667},{"id":53957,"name":"El Juncal","lat":15.45,"lng":-86.43333},{"id":53963,"name":"El Negrito","lat":15.31667,"lng":-87.7},{"id":53967,"name":"El Ocote","lat":15.41667,"lng":-86.56667},{"id":53980,"name":"El Progreso","lat":15.42762,"lng":-87.77396},{"id":54013,"name":"Guaimitas","lat":15.5,"lng":-87.71667},{"id":54037,"name":"Jocón","lat":15.28333,"lng":-86.96667},{"id":54056,"name":"La Estancia","lat":15.28333,"lng":-87.55},{"id":54059,"name":"La Guacamaya","lat":15.25,"lng":-87.8},{"id":54072,"name":"La Mina","lat":15.31667,"lng":-87.83333},{"id":54075,"name":"La Rosa","lat":15.35,"lng":-87.06667},{"id":54077,"name":"La Sarrosa","lat":15.23333,"lng":-87.83333},{"id":54078,"name":"La Trinidad","lat":15.1,"lng":-87.2},{"id":54095,"name":"Las Vegas","lat":15.01667,"lng":-87.45},{"id":54106,"name":"Lomitas","lat":15.1,"lng":-87.21667},{"id":54130,"name":"Mojimán","lat":15.26667,"lng":-87.6},{"id":54133,"name":"Morazán","lat":15.31667,"lng":-87.6},{"id":54143,"name":"Nombre de Jesús","lat":15.35,"lng":-86.68333},{"id":54147,"name":"Nueva Esperanza","lat":15.2625391,"lng":-87.5957212},{"id":54153,"name":"Ocote Paulino","lat":15.41667,"lng":-87.6},{"id":54158,"name":"Olanchito","lat":15.48131,"lng":-86.57415},{"id":54167,"name":"Paujiles","lat":15.1,"lng":-87.35},{"id":54187,"name":"Punta Ocote","lat":15.2,"lng":-87.28333},{"id":54211,"name":"San Antonio","lat":15.33333,"lng":-87.15},{"id":54244,"name":"San José","lat":15.31667,"lng":-87.16667},{"id":54308,"name":"Santa Rita","lat":15.18,"lng":-87.81},{"id":54322,"name":"Subirana","lat":15.2,"lng":-87.45},{"id":54324,"name":"Sulaco","lat":14.91667,"lng":-87.26667},{"id":54332,"name":"Teguajinal","lat":15.36667,"lng":-86.6},{"id":54336,"name":"Tepusteca","lat":15.41667,"lng":-86.31667},{"id":54342,"name":"Toyós","lat":15.55,"lng":-87.65},{"id":54347,"name":"Trojas","lat":15.35,"lng":-86.7},{"id":54358,"name":"Victoria","lat":15.10012,"lng":-87.5302},{"id":54374,"name":"Yorito","lat":15.06667,"lng":-87.28333},{"id":54375,"name":"Yoro","lat":15.1375,"lng":-87.12778}]