[{"id":79779,"name":"Bulls","lat":-40.17487,"lng":175.38463},{"id":79794,"name":"Foxton","lat":-40.46667,"lng":175.3},{"id":79803,"name":"Horowhenua","lat":-40.57733,"lng":175.38071},{"id":79817,"name":"Levin","lat":-40.63333,"lng":175.275},{"id":79822,"name":"Manawatu","lat":-40.11979,"lng":175.67426},{"id":79853,"name":"Palmerston North","lat":-40.35636,"lng":175.61113},{"id":79904,"name":"Waiouru","lat":-39.47753,"lng":175.66834},{"id":79913,"name":"Wanganui","lat":-39.93333,"lng":175.05}]