[{"id":31023,"name":"Arroyo Salado","lat":19.5,"lng":-69.9},{"id":31037,"name":"Cabrera","lat":19.6426,"lng":-69.90489},{"id":31059,"name":"El Factor","lat":19.31834,"lng":-69.88827},{"id":31106,"name":"La Entrada","lat":19.55367,"lng":-69.90762},{"id":31137,"name":"Nagua","lat":19.3832,"lng":-69.8474},{"id":31168,"name":"Río San Juan","lat":19.55022,"lng":-70.07703}]