[{"id":31029,"name":"Bella Vista","lat":18.45539,"lng":-69.9454},{"id":31047,"name":"Ciudad Nueva","lat":18.46707,"lng":-69.89339},{"id":31051,"name":"Cristo Rey","lat":18.5016872,"lng":-69.9261343},{"id":31067,"name":"Ensanche Luperón","lat":18.5,"lng":-69.9},{"id":31101,"name":"La Agustina","lat":18.4920297,"lng":-69.93251},{"id":31107,"name":"La Julia","lat":18.46667,"lng":-69.93333},{"id":31182,"name":"San Carlos","lat":18.4787324,"lng":-69.8949563},{"id":31197,"name":"Santo Domingo","lat":18.47186,"lng":-69.89232},{"id":31213,"name":"Villa Consuelo","lat":18.4842583,"lng":-69.899887},{"id":31215,"name":"Villa Francisca","lat":18.48278,"lng":-69.88914}]