[{"id":31027,"name":"Baní","lat":18.27964,"lng":-70.33185},{"id":31128,"name":"Matanzas","lat":18.24297,"lng":-70.41768},{"id":31139,"name":"Nizao","lat":18.24697,"lng":-70.21053},{"id":31147,"name":"Paya","lat":18.26196,"lng":-70.2956},{"id":31157,"name":"Pizarrete","lat":18.29935,"lng":-70.22648},{"id":31170,"name":"Sabana Buey","lat":18.27351,"lng":-70.52352}]