[{"id":31052,"name":"Cristóbal","lat":18.29405,"lng":-71.29298},{"id":31055,"name":"Duvergé","lat":18.31634,"lng":-71.59451},{"id":31079,"name":"Guayabal","lat":18.5981,"lng":-71.64184},{"id":31094,"name":"Jimaní","lat":18.49169,"lng":-71.85022},{"id":31105,"name":"La Descubierta","lat":18.57053,"lng":-71.72967},{"id":31130,"name":"Mella","lat":18.35871,"lng":-71.41716},{"id":31159,"name":"Postrer Río","lat":18.54374,"lng":-71.63561}]