[{"id":31033,"name":"Bohechío","lat":18.77515,"lng":-70.98889},{"id":31045,"name":"Cercado Abajo","lat":18.72681,"lng":-71.51742},{"id":31058,"name":"El Cercado","lat":18.7,"lng":-71.46667},{"id":31098,"name":"Juan de Herrera","lat":18.87402,"lng":-71.2383},{"id":31113,"name":"Las Matas de Farfán","lat":18.91667,"lng":-71.5},{"id":31129,"name":"Matayaya","lat":18.89036,"lng":-71.59459},{"id":31149,"name":"Pedro Corto","lat":18.84856,"lng":-71.41041},{"id":31190,"name":"San Juan de la Maguana","lat":18.80588,"lng":-71.22991},{"id":31208,"name":"Vallejuelo","lat":18.65354,"lng":-71.33431}]