[{"id":31061,"name":"El Palmar","lat":18.41139,"lng":-71.24558},{"id":31074,"name":"Galván","lat":18.50228,"lng":-71.34271},{"id":31109,"name":"La Uvilla","lat":18.36186,"lng":-71.21046},{"id":31122,"name":"Los Ríos","lat":18.52131,"lng":-71.59106},{"id":31138,"name":"Neiba","lat":18.48137,"lng":-71.41965},{"id":31203,"name":"Tamayo","lat":18.5,"lng":-71.16667},{"id":31218,"name":"Villa Jaragua","lat":18.49077,"lng":-71.48377}]