[{"id":31028,"name":"Bayaguana","lat":18.78333,"lng":-69.6},{"id":31054,"name":"Don Juan","lat":18.82774,"lng":-69.94629},{"id":31068,"name":"Esperalvillo","lat":18.81509,"lng":-70.03557},{"id":31076,"name":"Gonzalo","lat":18.95147,"lng":-69.75114},{"id":31119,"name":"Los Botados","lat":18.73226,"lng":-69.99536},{"id":31126,"name":"Majagual","lat":19.04134,"lng":-69.83616},{"id":31136,"name":"Monte Plata","lat":18.807,"lng":-69.78399},{"id":31171,"name":"Sabana Grande de Boyá","lat":18.94498,"lng":-69.79331},{"id":31224,"name":"Yamasá","lat":18.77315,"lng":-70.02583}]