[{"id":31019,"name":"Agua Santa del Yuna","lat":19.15072,"lng":-69.80069},{"id":31022,"name":"Arenoso","lat":19.18732,"lng":-69.85917},{"id":31043,"name":"Castillo","lat":19.25,"lng":-70.0},{"id":31086,"name":"Hostos","lat":19.18043,"lng":-70.02046},{"id":31112,"name":"Las Guáranas","lat":19.1931,"lng":-70.20835},{"id":31156,"name":"Pimentel","lat":19.21667,"lng":-70.16667},{"id":31185,"name":"San Francisco de Macorís","lat":19.30099,"lng":-70.25259},{"id":31219,"name":"Villa Riva","lat":19.15051,"lng":-69.8837}]