[{"id":31040,"name":"Cana Chapetón","lat":19.60703,"lng":-71.25734},{"id":31042,"name":"Castañuelas","lat":19.71387,"lng":-71.49876},{"id":31082,"name":"Guayubín","lat":19.61667,"lng":-71.33333},{"id":31083,"name":"Hatillo Palma","lat":19.66256,"lng":-71.19406},{"id":31114,"name":"Las Matas de Santa Cruz","lat":19.67119,"lng":-71.50471},{"id":31134,"name":"Monte Cristi","lat":19.83333,"lng":-71.61667},{"id":31152,"name":"Pepillo Salcedo","lat":19.66667,"lng":-71.66667},{"id":31184,"name":"San Fernando de Monte Cristi","lat":19.84826,"lng":-71.64597},{"id":31214,"name":"Villa Elisa","lat":19.6856,"lng":-71.27007},{"id":31221,"name":"Villa Vásquez","lat":19.80791,"lng":-71.44}]