[{"id":31048,"name":"Concepción de La Vega","lat":19.22207,"lng":-70.52956},{"id":31049,"name":"Constanza","lat":18.90919,"lng":-70.74499},{"id":31091,"name":"Jarabacoa","lat":19.11683,"lng":-70.63595},{"id":31093,"name":"Jima Abajo","lat":19.13292,"lng":-70.37607},{"id":31166,"name":"Rincón","lat":19.11938,"lng":-70.40632},{"id":31169,"name":"Río Verde Arriba","lat":19.31583,"lng":-70.56643},{"id":31206,"name":"Tireo Arriba","lat":18.93537,"lng":-70.6885}]