[{"id":55056,"name":"Arrondissement de Fort Liberté","lat":19.56667,"lng":-71.83333},{"id":55069,"name":"Arrondissement du Trou du Nord","lat":19.55,"lng":-71.98333},{"id":55077,"name":"Caracol","lat":19.69274,"lng":-72.01733},{"id":55078,"name":"Carice","lat":19.37795,"lng":-71.8303},{"id":55093,"name":"Dérac","lat":19.65476,"lng":-71.81451},{"id":55096,"name":"Ferrier","lat":19.61549,"lng":-71.77792},{"id":55101,"name":"Fort Liberté","lat":19.66273,"lng":-71.83798},{"id":55131,"name":"Montòrganize","lat":19.40815,"lng":-71.78132},{"id":55135,"name":"Ouanaminthe","lat":19.54934,"lng":-71.72475},{"id":55136,"name":"Perches","lat":19.52201,"lng":-71.92323},{"id":55140,"name":"Phaëton","lat":19.67525,"lng":-71.89691},{"id":55165,"name":"Trou du Nord","lat":19.61668,"lng":-72.02442},{"id":55167,"name":"Wanament","lat":19.48333,"lng":-71.76667}]