[{"id":55046,"name":"Anse Rouge","lat":19.63382,"lng":-73.0553},{"id":55064,"name":"Arrondissement de Saint-Marc","lat":19.0,"lng":-72.5},{"id":55094,"name":"Désarmes","lat":18.99345,"lng":-72.39058},{"id":55091,"name":"Dessalines","lat":19.26177,"lng":-72.51611},{"id":55095,"name":"Ennery","lat":19.48342,"lng":-72.48537},{"id":55102,"name":"Gonaïves","lat":19.44755,"lng":-72.68928},{"id":55104,"name":"Grande Saline","lat":19.26513,"lng":-72.76897},{"id":55107,"name":"Gros Morne","lat":19.6708,"lng":-72.67808},{"id":55126,"name":"Marmelade","lat":19.51736,"lng":-72.36133},{"id":55155,"name":"Saint-Marc","lat":19.10819,"lng":-72.69379},{"id":55166,"name":"Verrettes","lat":19.0505,"lng":-72.46585}]