[{"id":104844,"name":"Antiguo Cuscatlán","lat":13.66492,"lng":-89.25319},{"id":104858,"name":"Ciudad Arce","lat":13.84028,"lng":-89.44722},{"id":104884,"name":"La Libertad","lat":13.48833,"lng":-89.32222},{"id":104894,"name":"Nuevo Cuscatlán","lat":13.64861,"lng":-89.26528},{"id":104900,"name":"Quezaltepeque","lat":13.83124,"lng":-89.27221},{"id":104907,"name":"San Juan Opico","lat":13.87611,"lng":-89.35972},{"id":104911,"name":"San Pablo Tacachico","lat":13.97556,"lng":-89.34},{"id":104920,"name":"Santa Tecla","lat":13.67694,"lng":-89.27972},{"id":104939,"name":"Zaragoza","lat":13.58944,"lng":-89.28889}]