[{"id":104861,"name":"Cojutepeque","lat":13.71667,"lng":-88.93333},{"id":104909,"name":"San Martín","lat":13.78333,"lng":-88.91667},{"id":104930,"name":"Suchitoto","lat":13.93806,"lng":-89.02778},{"id":104932,"name":"Tecoluca","lat":13.78917,"lng":-89.00528},{"id":104933,"name":"Tenancingo","lat":13.83333,"lng":-88.98333}]