[{"id":104842,"name":"Ahuachapán","lat":13.92139,"lng":-89.845},{"id":104848,"name":"Atiquizaya","lat":13.97694,"lng":-89.7525},{"id":104863,"name":"Concepción de Ataco","lat":13.87028,"lng":-89.84861},{"id":104873,"name":"Guaymango","lat":13.75028,"lng":-89.84222},{"id":104883,"name":"Jujutla","lat":13.78694,"lng":-89.85722},{"id":104906,"name":"San Francisco Menéndez","lat":13.84306,"lng":-90.01583},{"id":104931,"name":"Tacuba","lat":13.90111,"lng":-89.92972}]