[{"id":104154,"name":"Kromberk","lat":45.96083,"lng":13.66556},{"id":104206,"name":"Nova Gorica","lat":45.95604,"lng":13.64837},{"id":104237,"name":"Prvačina","lat":45.89,"lng":13.71806},{"id":104342,"name":"Šempas","lat":45.93028,"lng":13.74361},{"id":104276,"name":"Solkan","lat":45.97139,"lng":13.64944}]