[{"id":104101,"name":"Dravlje","lat":46.0729,"lng":14.44741},{"id":104129,"name":"Jarše","lat":46.07345,"lng":14.55431},{"id":104169,"name":"Ljubljana","lat":46.05108,"lng":14.50513},{"id":104211,"name":"Opčina Ljubljana-Bežigrad","lat":46.08333,"lng":14.53333},{"id":104212,"name":"Opština Ljubljana-Center","lat":46.05,"lng":14.53333},{"id":104213,"name":"Opština Ljubljana-Moste-Polje","lat":46.06667,"lng":14.61667},{"id":104262,"name":"Rožnik","lat":46.05999,"lng":14.46779},{"id":104349,"name":"Šentvid","lat":46.10559,"lng":14.43329},{"id":104278,"name":"Sostro","lat":46.04341,"lng":14.67293},{"id":104300,"name":"Trnovo","lat":46.02412,"lng":14.48891},{"id":104315,"name":"Vič","lat":46.00779,"lng":14.46968}]