[{"id":104370,"name":"Banská Bystrica","lat":48.73946,"lng":19.15349},{"id":104371,"name":"Banská Štiavnica","lat":48.44858,"lng":18.91003},{"id":104376,"name":"Brezno","lat":48.80431,"lng":19.63631},{"id":104589,"name":"Čierny Balog","lat":48.74722,"lng":19.65125},{"id":104381,"name":"Detva","lat":48.56082,"lng":19.41954},{"id":104385,"name":"Dudince","lat":48.17135,"lng":18.88782},{"id":104388,"name":"Fiľakovo","lat":48.26757,"lng":19.82473},{"id":104397,"name":"Hriňová","lat":48.57787,"lng":19.52574},{"id":104398,"name":"HrochoťSlovakia","lat":48.65567,"lng":19.31284},{"id":104408,"name":"Kováčová","lat":48.60148,"lng":19.10252},{"id":104415,"name":"Kremnica","lat":48.70519,"lng":18.91834},{"id":104417,"name":"Krupina","lat":48.3554,"lng":19.06474},{"id":104426,"name":"Lučenec","lat":48.33249,"lng":19.66708},{"id":104440,"name":"Nová Baňa","lat":48.42305,"lng":18.64037},{"id":104447,"name":"Okres Banská Bystrica","lat":48.73333,"lng":19.15},{"id":104448,"name":"Okres Banská Štiavnica","lat":48.44961,"lng":18.9082},{"id":104455,"name":"Okres Brezno","lat":48.8,"lng":19.75},{"id":104458,"name":"Okres Detva","lat":48.55985,"lng":19.42044},{"id":104469,"name":"Okres Krupina","lat":48.35736,"lng":19.06334},{"id":104474,"name":"Okres Lučenec","lat":48.33333,"lng":19.66667},{"id":104487,"name":"Okres Poltár","lat":48.42895,"lng":19.79488},{"id":104493,"name":"Okres Revúca","lat":48.683,"lng":20.11568},{"id":104512,"name":"Okres Veľký Krtíš","lat":48.2,"lng":19.35},{"id":104518,"name":"Okres Žarnovica","lat":48.48438,"lng":18.72076},{"id":104519,"name":"Okres Žiar nad Hronom","lat":48.58333,"lng":18.86667},{"id":104515,"name":"Okres Zvolen","lat":48.58333,"lng":19.13333},{"id":104527,"name":"Poltár","lat":48.43094,"lng":19.79408},{"id":104535,"name":"Revúca","lat":48.68346,"lng":20.11734},{"id":104536,"name":"Rimavská Sobota","lat":48.38284,"lng":20.02239},{"id":104559,"name":"Svätý Anton","lat":48.41923,"lng":18.9401},{"id":104562,"name":"Tisovec","lat":48.67738,"lng":19.94364},{"id":104573,"name":"Veľký Krtíš","lat":48.21059,"lng":19.35043},{"id":104597,"name":"Žarnovica","lat":48.48123,"lng":18.71565},{"id":104601,"name":"Žiar nad Hronom","lat":48.59184,"lng":18.84958},{"id":104585,"name":"Zvolen","lat":48.57442,"lng":19.15324}]