[{"id":104378,"name":"Bytča","lat":49.22404,"lng":18.55878},{"id":104587,"name":"Čadca","lat":49.43503,"lng":18.78895},{"id":104383,"name":"Dolný Kubín","lat":49.20983,"lng":19.30341},{"id":104401,"name":"Hybe","lat":49.04439,"lng":19.82895},{"id":104414,"name":"Krasňany","lat":49.21491,"lng":18.88718},{"id":104418,"name":"Kysucké Nové Mesto","lat":49.3,"lng":18.78333},{"id":104424,"name":"Liptovský Hrádok","lat":49.03962,"lng":19.72335},{"id":104425,"name":"Liptovský Mikuláš","lat":49.08061,"lng":19.62218},{"id":104427,"name":"Lúčky","lat":49.12944,"lng":19.40228},{"id":104430,"name":"Martin","lat":49.06651,"lng":18.92399},{"id":104446,"name":"Námestovo","lat":49.4079,"lng":19.48032},{"id":104439,"name":"Nižná","lat":49.31046,"lng":19.52428},{"id":104456,"name":"Okres Bytča","lat":49.22267,"lng":18.55844},{"id":104516,"name":"Okres Čadca","lat":49.43333,"lng":18.78333},{"id":104459,"name":"Okres Dolný Kubín","lat":49.2,"lng":19.3},{"id":104470,"name":"Okres Kysucké Nové Mesto","lat":49.30206,"lng":18.78603},{"id":104473,"name":"Okres Liptovský Mikuláš","lat":49.08333,"lng":19.61667},{"id":104476,"name":"Okres Martin","lat":49.06667,"lng":18.93333},{"id":104480,"name":"Okres Namestovo","lat":49.40651,"lng":19.4767},{"id":104495,"name":"Okres Ružomberok","lat":49.07494,"lng":19.30083},{"id":104510,"name":"Okres Turčianske Teplice","lat":48.86283,"lng":18.85759},{"id":104511,"name":"Okres Tvrdošín","lat":49.33421,"lng":19.55461},{"id":104520,"name":"Okres Žilina","lat":49.22303,"lng":18.74044},{"id":104521,"name":"Oravská Lesná","lat":49.36672,"lng":19.18093},{"id":104522,"name":"Oravský Podzámok","lat":49.25939,"lng":19.3569},{"id":104531,"name":"Pribylina","lat":49.0995,"lng":19.79427},{"id":104534,"name":"Rajec","lat":49.08899,"lng":18.64007},{"id":104538,"name":"Ružomberok","lat":49.0748,"lng":19.30751},{"id":104561,"name":"Terchová","lat":49.25895,"lng":19.02935},{"id":104569,"name":"Trstená","lat":49.36101,"lng":19.61249},{"id":104571,"name":"Turčianske Teplice","lat":48.86225,"lng":18.86048},{"id":104570,"name":"Turzovka","lat":49.40429,"lng":18.62258},{"id":104572,"name":"Tvrdošín","lat":49.337,"lng":19.556},{"id":104581,"name":"Vrútky","lat":49.11328,"lng":18.91714},{"id":104602,"name":"Žilina","lat":49.22315,"lng":18.73941}]