[{"id":66888,"name":"Cēsis","lat":57.31188,"lng":25.27456},{"id":66924,"name":"Līgatne","lat":57.23429,"lng":25.04059},{"id":66943,"name":"Priekuļi","lat":57.315,"lng":25.36147},{"id":66967,"name":"Stalbe","lat":57.37065,"lng":25.03106},{"id":66981,"name":"Vecpiebalga","lat":57.0609,"lng":25.81624}]