[{"id":106834,"name":"Baguia","lat":-8.62787,"lng":126.65743},{"id":106836,"name":"Baucau","lat":-8.46667,"lng":126.45},{"id":106837,"name":"Baukau","lat":-8.47572,"lng":126.45633},{"id":106852,"name":"Laga","lat":-8.47411,"lng":126.59228},{"id":106866,"name":"Quelicai","lat":-8.60135,"lng":126.55904},{"id":106877,"name":"Vemasse","lat":-8.51036,"lng":126.20823},{"id":106878,"name":"Venilale","lat":-8.64306,"lng":126.37833}]