[{"id":22112,"name":"Bakov nad Jizerou","lat":50.4823,"lng":14.94149},{"id":22202,"name":"Bělá pod Bezdězem","lat":50.50121,"lng":14.80418},{"id":22124,"name":"Benátky nad Jizerou","lat":50.29085,"lng":14.82343},{"id":22121,"name":"Benešov","lat":49.78162,"lng":14.68697},{"id":22126,"name":"Beroun","lat":49.96382,"lng":14.072},{"id":22141,"name":"Bohutín","lat":49.65551,"lng":13.94389},{"id":22158,"name":"Brandýs nad Labem-Stará Boleslav","lat":50.18709,"lng":14.66326},{"id":22160,"name":"Brandýsek","lat":50.18923,"lng":14.16199},{"id":22206,"name":"Březnice","lat":49.55763,"lng":13.95063},{"id":22181,"name":"Buštěhrad","lat":50.15594,"lng":14.18897},{"id":22189,"name":"Byšice","lat":50.31044,"lng":14.61136},{"id":22185,"name":"Bystřice","lat":49.73213,"lng":14.6674},{"id":23398,"name":"Čáslav","lat":49.91099,"lng":15.38972},{"id":23364,"name":"Čechtice","lat":49.62403,"lng":15.04824},{"id":23369,"name":"Čelákovice","lat":50.16038,"lng":14.75005},{"id":23382,"name":"Čerčany","lat":49.85293,"lng":14.70299},{"id":22215,"name":"Cerhenice","lat":50.07127,"lng":15.07203},{"id":23372,"name":"Černošice","lat":49.96008,"lng":14.31979},{"id":23380,"name":"Červené Pečky","lat":49.97822,"lng":15.20856},{"id":23391,"name":"Český Brod","lat":50.0742,"lng":14.86081},{"id":22241,"name":"Chyňava","lat":50.02736,"lng":14.07398},{"id":22246,"name":"Církvice","lat":49.9456,"lng":15.33505},{"id":22247,"name":"Cítov","lat":50.37225,"lng":14.39813},{"id":22251,"name":"Davle","lat":49.89218,"lng":14.40037},{"id":22255,"name":"Divišov","lat":49.78849,"lng":14.87579},{"id":22264,"name":"Dobřichovice","lat":49.92749,"lng":14.27469},{"id":22266,"name":"Dobříš","lat":49.78113,"lng":14.16717},{"id":22260,"name":"Dobrovice","lat":50.36933,"lng":14.96233},{"id":22268,"name":"Doksy","lat":50.119,"lng":14.04782},{"id":22273,"name":"Dolní Beřkovice","lat":50.39313,"lng":14.45024},{"id":22276,"name":"Dolní Bousov","lat":50.43825,"lng":15.12812},{"id":22278,"name":"Dolní Břežany","lat":49.96321,"lng":14.4585},{"id":22386,"name":"Horní Počaply","lat":50.4244,"lng":14.38993},{"id":22395,"name":"Horoměřice","lat":50.13173,"lng":14.33879},{"id":22408,"name":"Hořovice","lat":49.83597,"lng":13.90268},{"id":22399,"name":"Hostivice","lat":50.08158,"lng":14.25856},{"id":22401,"name":"Hostomice","lat":49.82526,"lng":14.0456},{"id":22405,"name":"Hovorčovice","lat":50.17866,"lng":14.51789},{"id":22415,"name":"Hradištko","lat":49.86828,"lng":14.40935},{"id":22442,"name":"Hřebeč","lat":50.13595,"lng":14.16446},{"id":22432,"name":"Hudlice","lat":49.96096,"lng":13.97063},{"id":22441,"name":"Hýskov","lat":49.99072,"lng":14.05055},{"id":22465,"name":"Jeneč","lat":50.0873,"lng":14.21482},{"id":22466,"name":"Jesenice","lat":49.96814,"lng":14.5135},{"id":22486,"name":"Jílové u Prahy","lat":49.89545,"lng":14.49333},{"id":22474,"name":"Jince","lat":49.78624,"lng":13.97867},{"id":22478,"name":"Jirny","lat":50.11578,"lng":14.69923},{"id":22505,"name":"Kačice","lat":50.16261,"lng":13.98815},{"id":22489,"name":"Kamenice","lat":49.90151,"lng":14.58242},{"id":22492,"name":"Kamenné Žehrovice","lat":50.12697,"lng":14.01809},{"id":22493,"name":"Kamenný Přívoz","lat":49.86299,"lng":14.50339},{"id":22510,"name":"Kladno","lat":50.14734,"lng":14.10285},{"id":22513,"name":"Klecany","lat":50.17599,"lng":14.41148},{"id":22517,"name":"Klobuky","lat":50.29401,"lng":13.98748},{"id":22522,"name":"Kněžmost","lat":50.48917,"lng":15.03829},{"id":22529,"name":"Kolín","lat":50.02806,"lng":15.1998},{"id":22531,"name":"Komárov","lat":49.8065,"lng":13.85636},{"id":22536,"name":"Kosmonosy","lat":50.4385,"lng":14.93},{"id":22537,"name":"Kosova Hora","lat":49.65414,"lng":14.47173},{"id":22541,"name":"Kostelec nad Černými Lesy","lat":49.99403,"lng":14.85922},{"id":22539,"name":"Kostelec nad Labem","lat":50.22653,"lng":14.58552},{"id":22544,"name":"Kouřim","lat":50.00306,"lng":14.97703},{"id":22555,"name":"Kralupy nad Vltavou","lat":50.24107,"lng":14.31149},{"id":22566,"name":"Králův Dvůr","lat":49.94981,"lng":14.03445},{"id":22567,"name":"Krásná Hora nad Vltavou","lat":49.60461,"lng":14.27742},{"id":22587,"name":"Křinec","lat":50.26449,"lng":15.13782},{"id":22576,"name":"Kutná Hora","lat":49.94839,"lng":15.26816},{"id":22661,"name":"Lány","lat":50.12471,"lng":13.95041},{"id":22612,"name":"Libčice nad Vltavou","lat":50.19778,"lng":14.36385},{"id":22665,"name":"Líbeznice","lat":50.19198,"lng":14.49357},{"id":22606,"name":"Libice nad Cidlinou","lat":50.12677,"lng":15.1782},{"id":22607,"name":"Libiš","lat":50.27417,"lng":14.5024},{"id":22610,"name":"Libušín","lat":50.16819,"lng":14.05458},{"id":22628,"name":"Lochovice","lat":49.85318,"lng":13.98126},{"id":22629,"name":"Loděnice","lat":49.99486,"lng":14.15785},{"id":22638,"name":"Loučeň","lat":50.28537,"lng":15.02049},{"id":22654,"name":"Luštěnice","lat":50.32296,"lng":14.93667},{"id":22656,"name":"Lužec nad Vltavou","lat":50.32138,"lng":14.40022},{"id":22658,"name":"Lužná","lat":50.12377,"lng":13.77004},{"id":22660,"name":"Lysá nad Labem","lat":50.20143,"lng":14.83281},{"id":22736,"name":"Mělník","lat":50.3505,"lng":14.47411},{"id":22747,"name":"Měšice","lat":50.19799,"lng":14.51992},{"id":22738,"name":"Městec Králové","lat":50.20718,"lng":15.29758},{"id":22693,"name":"Milín","lat":49.63192,"lng":14.046},{"id":22691,"name":"Milovice","lat":50.22596,"lng":14.88863},{"id":22701,"name":"Mladá Boleslav","lat":50.41135,"lng":14.90318},{"id":22704,"name":"Mnichovice","lat":49.93601,"lng":14.70907},{"id":22705,"name":"Mnichovo Hradiště","lat":50.5272,"lng":14.97134},{"id":22707,"name":"Mníšek pod Brdy","lat":49.8665,"lng":14.26176},{"id":22748,"name":"Mšeno","lat":50.43809,"lng":14.6325},{"id":22732,"name":"Mukařov","lat":49.99115,"lng":14.74155},{"id":22751,"name":"Načeradec","lat":49.61018,"lng":14.90633},{"id":22756,"name":"Nehvizdy","lat":50.13056,"lng":14.72993},{"id":22758,"name":"Nelahozeves","lat":50.26148,"lng":14.29881},{"id":22760,"name":"Neratovice","lat":50.25926,"lng":14.51759},{"id":22763,"name":"Netvořice","lat":49.81569,"lng":14.51827},{"id":22764,"name":"Neveklov","lat":49.75373,"lng":14.53291},{"id":22768,"name":"Nižbor","lat":49.99995,"lng":14.00237},{"id":22782,"name":"Nové Strašecí","lat":50.15272,"lng":13.90043},{"id":22789,"name":"Nový Knín","lat":49.788,"lng":14.29355},{"id":22791,"name":"Nymburk","lat":50.18605,"lng":15.04167},{"id":22801,"name":"Obecnice","lat":49.71615,"lng":13.94731},{"id":22803,"name":"Odolena Voda","lat":50.23341,"lng":14.41078},{"id":22806,"name":"Okres Benešov","lat":49.66667,"lng":14.75},{"id":22807,"name":"Okres Beroun","lat":49.83333,"lng":14.08333},{"id":22828,"name":"Okres Kladno","lat":50.16667,"lng":14.16667},{"id":22830,"name":"Okres Kolín","lat":50.0,"lng":15.0},{"id":22832,"name":"Okres Kutná Hora","lat":49.83333,"lng":15.25},{"id":22838,"name":"Okres Mělník","lat":50.33333,"lng":14.5},{"id":22836,"name":"Okres Mladá Boleslav","lat":50.41667,"lng":14.91667},{"id":22840,"name":"Okres Nymburk","lat":50.16667,"lng":15.16667},{"id":22851,"name":"Okres Praha-východ","lat":50.11768,"lng":14.70836},{"id":22852,"name":"Okres Praha-západ","lat":49.83333,"lng":14.33333},{"id":22856,"name":"Okres Příbram","lat":49.66667,"lng":14.16667},{"id":22857,"name":"Okres Rakovník","lat":50.1,"lng":13.7},{"id":22889,"name":"Ondřejov","lat":49.90461,"lng":14.7842},{"id":22922,"name":"Pavlíkov","lat":50.05599,"lng":13.73636},{"id":22923,"name":"Pchery","lat":50.19378,"lng":14.11782},{"id":22932,"name":"Pečky","lat":50.09043,"lng":15.03017},{"id":22929,"name":"Petrovice","lat":49.55426,"lng":14.33737},{"id":22939,"name":"Plaňany","lat":50.0501,"lng":15.02944},{"id":22947,"name":"Poděbrady","lat":50.14242,"lng":15.11881},{"id":22966,"name":"Poříčany","lat":50.10806,"lng":14.91818},{"id":22967,"name":"Poříčí nad Sázavou","lat":49.83895,"lng":14.67446},{"id":22958,"name":"Postupice","lat":49.72798,"lng":14.77722},{"id":23002,"name":"Přerov nad Labem","lat":50.16027,"lng":14.82502},{"id":23008,"name":"Příbram","lat":49.68988,"lng":14.01043},{"id":22986,"name":"Průhonice","lat":49.99962,"lng":14.55017},{"id":22987,"name":"Psáry","lat":49.93622,"lng":14.51276},{"id":22991,"name":"Pyšely","lat":49.87678,"lng":14.67713},{"id":23019,"name":"Rakovník","lat":50.1037,"lng":13.7334},{"id":23402,"name":"Řevnice","lat":49.91395,"lng":14.23589},{"id":23403,"name":"Řevničov","lat":50.18489,"lng":13.80823},{"id":23405,"name":"Řež","lat":50.17734,"lng":14.35733},{"id":23406,"name":"Říčany","lat":49.99168,"lng":14.65427},{"id":23044,"name":"Rožďalovice","lat":50.30476,"lng":15.16962},{"id":23042,"name":"Rožmitál pod Třemšínem","lat":49.60196,"lng":13.8643},{"id":23041,"name":"Roztoky","lat":50.15841,"lng":14.3976},{"id":23047,"name":"Rudná","lat":50.03502,"lng":14.23435},{"id":23059,"name":"Sadská","lat":50.13596,"lng":14.98633},{"id":23154,"name":"Sázava","lat":49.87164,"lng":14.89674},{"id":23066,"name":"Sedlčany","lat":49.66057,"lng":14.42664},{"id":23062,"name":"Sedlec","lat":49.96391,"lng":15.28846},{"id":23413,"name":"Šestajovice","lat":50.10845,"lng":14.68013},{"id":23077,"name":"Slaný","lat":50.23046,"lng":14.08693},{"id":23085,"name":"Smečno","lat":50.18844,"lng":14.04037},{"id":23100,"name":"Stará Huť","lat":49.78225,"lng":14.19735},{"id":23112,"name":"Starý Kolín","lat":50.00977,"lng":15.29388},{"id":23426,"name":"Štěchovice","lat":49.85109,"lng":14.40543},{"id":23117,"name":"Stochov","lat":50.14631,"lng":13.96345},{"id":23121,"name":"Strančice","lat":49.94811,"lng":14.67745},{"id":23140,"name":"Suchdol","lat":49.95247,"lng":15.16651},{"id":23165,"name":"Tišice","lat":50.2698,"lng":14.55411},{"id":23199,"name":"Třebotov","lat":49.97244,"lng":14.29127},{"id":23174,"name":"Trhový Štěpánov","lat":49.71147,"lng":15.01356},{"id":23183,"name":"Tuchlovice","lat":50.13803,"lng":13.99115},{"id":23184,"name":"Tuchoměřice","lat":50.13543,"lng":14.28218},{"id":23192,"name":"Týnec nad Labem","lat":50.04202,"lng":15.35836},{"id":23193,"name":"Týnec nad Sázavou","lat":49.83348,"lng":14.58983},{"id":23209,"name":"Uhlířské Janovice","lat":49.88019,"lng":15.06481},{"id":23210,"name":"Unhošť","lat":50.08535,"lng":14.13007},{"id":23360,"name":"Úvaly","lat":50.07394,"lng":14.7308},{"id":23229,"name":"Velim","lat":50.05965,"lng":15.10711},{"id":23232,"name":"Velká Dobrá","lat":50.10964,"lng":14.0698},{"id":23247,"name":"Velké Popovice","lat":49.92252,"lng":14.63934},{"id":23249,"name":"Velké Přílepy","lat":50.1605,"lng":14.31447},{"id":23252,"name":"Velký Osek","lat":50.09867,"lng":15.18629},{"id":23256,"name":"Veltruby","lat":50.07059,"lng":15.18454},{"id":23257,"name":"Veltrusy","lat":50.27046,"lng":14.32857},{"id":23258,"name":"Velvary","lat":50.28152,"lng":14.23616},{"id":23263,"name":"Vestec","lat":49.9805,"lng":14.50487},{"id":23272,"name":"Vinařice","lat":50.17585,"lng":14.09106},{"id":23281,"name":"Vlašim","lat":49.70632,"lng":14.89881},{"id":23290,"name":"Votice","lat":49.64013,"lng":14.63809},{"id":23293,"name":"Vrané nad Vltavou","lat":49.93585,"lng":14.37706},{"id":23301,"name":"Vrdy","lat":49.92153,"lng":15.47243},{"id":23318,"name":"Všenory","lat":49.92883,"lng":14.30392},{"id":23321,"name":"Všetaty","lat":50.28187,"lng":14.59297},{"id":23324,"name":"Zaječov","lat":49.77435,"lng":13.84072},{"id":23351,"name":"Zásmuky","lat":49.9547,"lng":15.03058},{"id":23331,"name":"Zbraslavice","lat":49.81179,"lng":15.18319},{"id":23458,"name":"Žďár","lat":50.54366,"lng":15.08034},{"id":23334,"name":"Zdiby","lat":50.16799,"lng":14.45118},{"id":23335,"name":"Zdice","lat":49.91207,"lng":13.97747},{"id":23441,"name":"Žebrák","lat":49.87574,"lng":13.89735},{"id":23338,"name":"Zeleneč","lat":50.13362,"lng":14.6607},{"id":23453,"name":"Žiželice","lat":50.13192,"lng":15.3932},{"id":23454,"name":"Žleby","lat":49.88958,"lng":15.48853},{"id":23342,"name":"Zlonice","lat":50.2875,"lng":14.09214},{"id":23345,"name":"Zruč nad Sázavou","lat":49.7401,"lng":15.10606},{"id":23347,"name":"Zvole","lat":49.93466,"lng":14.41769}]