[{"id":22114,"name":"Batelov","lat":49.31425,"lng":15.39465},{"id":22138,"name":"Bohdalov","lat":49.47921,"lng":15.87582},{"id":22170,"name":"Brtnice","lat":49.30695,"lng":15.67642},{"id":22175,"name":"Budišov","lat":49.27138,"lng":16.00383},{"id":22187,"name":"Bystřice nad Pernštejnem","lat":49.52295,"lng":16.26147},{"id":23371,"name":"Černovice","lat":49.37265,"lng":14.96089},{"id":22228,"name":"Chotěboř","lat":49.72072,"lng":15.67018},{"id":22259,"name":"Dobronín","lat":49.47833,"lng":15.64992},{"id":22279,"name":"Dolní Cerekev","lat":49.34449,"lng":15.45655},{"id":22335,"name":"Golčův Jeníkov","lat":49.81626,"lng":15.47686},{"id":22338,"name":"Habry","lat":49.75603,"lng":15.48486},{"id":22344,"name":"Havlíčkův Brod","lat":49.6069,"lng":15.57937},{"id":22349,"name":"Herálec","lat":49.68891,"lng":15.99431},{"id":22379,"name":"Horní Cerekev","lat":49.32026,"lng":15.32769},{"id":22423,"name":"Hrotovice","lat":49.1077,"lng":16.06067},{"id":22435,"name":"Humpolec","lat":49.54152,"lng":15.35932},{"id":22458,"name":"Jaroměřice nad Rokytnou","lat":49.09408,"lng":15.89331},{"id":22464,"name":"Jemnice","lat":49.01898,"lng":15.56994},{"id":22471,"name":"Jihlava","lat":49.3961,"lng":15.59124},{"id":22473,"name":"Jimramov","lat":49.63719,"lng":16.22632},{"id":22488,"name":"Kamenice","lat":49.36659,"lng":15.78023},{"id":22490,"name":"Kamenice nad Lipou","lat":49.30303,"lng":15.07519},{"id":22521,"name":"Kněžice","lat":49.27078,"lng":15.67216},{"id":22588,"name":"Křižanov","lat":49.38858,"lng":16.1096},{"id":22589,"name":"Křížová","lat":49.68841,"lng":15.85207},{"id":22593,"name":"Ledeč nad Sázavou","lat":49.69517,"lng":15.27772},{"id":22667,"name":"Lípa","lat":49.55418,"lng":15.54465},{"id":22647,"name":"Luka nad Jihlavou","lat":49.37403,"lng":15.70194},{"id":22648,"name":"Lukavec","lat":49.56541,"lng":14.99041},{"id":22746,"name":"Měřín","lat":49.39321,"lng":15.88381},{"id":22711,"name":"Mohelno","lat":49.11412,"lng":16.19022},{"id":22719,"name":"Moravské Budějovice","lat":49.05209,"lng":15.80864},{"id":22795,"name":"Náměšť nad Oslavou","lat":49.20726,"lng":16.15849},{"id":22773,"name":"Nová Cerekev","lat":49.41723,"lng":15.11675},{"id":22778,"name":"Nové Město na Moravě","lat":49.56144,"lng":16.07418},{"id":22783,"name":"Nové Syrovice","lat":49.01763,"lng":15.77345},{"id":22784,"name":"Nové Veselí","lat":49.51976,"lng":15.90853},{"id":22818,"name":"Okres Havlíčkův Brod","lat":49.66667,"lng":15.58333},{"id":22823,"name":"Okres Jihlava","lat":49.33333,"lng":15.58333},{"id":22846,"name":"Okres Pelhřimov","lat":49.41667,"lng":15.16667},{"id":22868,"name":"Okres Třebíč","lat":49.13333,"lng":15.93333},{"id":22880,"name":"Okres Žďár nad Sázavou","lat":49.5,"lng":16.03333},{"id":22882,"name":"Okříšky","lat":49.24539,"lng":15.76959},{"id":22881,"name":"Okrouhlice","lat":49.62991,"lng":15.49083},{"id":22917,"name":"Pacov","lat":49.47076,"lng":15.00168},{"id":22925,"name":"Pelhřimov","lat":49.43134,"lng":15.22336},{"id":22965,"name":"Počátky","lat":49.2602,"lng":15.24022},{"id":22953,"name":"Polná","lat":49.487,"lng":15.71881},{"id":23004,"name":"Přibyslav","lat":49.57684,"lng":15.73855},{"id":23037,"name":"Rouchovany","lat":49.07036,"lng":16.1076},{"id":23115,"name":"Stařeč","lat":49.19783,"lng":15.82791},{"id":23421,"name":"Štoky","lat":49.50249,"lng":15.58863},{"id":23153,"name":"Světlá nad Sázavou","lat":49.66801,"lng":15.40393},{"id":23152,"name":"Svratka","lat":49.71066,"lng":16.03214},{"id":23159,"name":"Telč","lat":49.18418,"lng":15.45275},{"id":23201,"name":"Třebíč","lat":49.21492,"lng":15.88166},{"id":23204,"name":"Třešť","lat":49.29092,"lng":15.48211},{"id":23231,"name":"Velká Bíteš","lat":49.28838,"lng":16.22742},{"id":23243,"name":"Velké Meziříčí","lat":49.35522,"lng":16.01224},{"id":23251,"name":"Velký Beranov","lat":49.40504,"lng":15.667},{"id":23270,"name":"Vilémov","lat":49.81566,"lng":15.53584},{"id":23280,"name":"Vladislav","lat":49.21017,"lng":15.9883},{"id":23459,"name":"Žďár nad Sázavou","lat":49.56263,"lng":15.93924},{"id":23460,"name":"Žďár nad Sázavou Druhy","lat":49.58726,"lng":15.93215},{"id":23442,"name":"Želetava","lat":49.14187,"lng":15.673},{"id":23447,"name":"Želiv","lat":49.52984,"lng":15.22181},{"id":23451,"name":"Žirovnice","lat":49.25318,"lng":15.18824}]