[{"id":22115,"name":"Bavorov","lat":49.12184,"lng":14.07893},{"id":22118,"name":"Bechyně","lat":49.29523,"lng":14.4681},{"id":22123,"name":"Benešov nad Černou","lat":48.7294,"lng":14.62737},{"id":22125,"name":"Bernartice","lat":49.36889,"lng":14.38101},{"id":22130,"name":"Blatná","lat":49.42489,"lng":13.88176},{"id":22147,"name":"Borek","lat":49.02339,"lng":14.50088},{"id":22150,"name":"Borová Lada","lat":48.98983,"lng":13.65986},{"id":22149,"name":"Borovany","lat":48.8986,"lng":14.64227},{"id":22164,"name":"Brloh","lat":48.92987,"lng":14.21857},{"id":23388,"name":"České Budějovice","lat":48.97447,"lng":14.47434},{"id":23390,"name":"České Velenice","lat":48.76851,"lng":14.96368},{"id":23393,"name":"Český Krumlov","lat":48.81091,"lng":14.31521},{"id":23394,"name":"Český Rudolec","lat":49.06835,"lng":15.32437},{"id":22219,"name":"Chlum u Třeboně","lat":48.96235,"lng":14.92799},{"id":22227,"name":"Chotoviny","lat":49.47803,"lng":14.67695},{"id":22240,"name":"Chvalšiny","lat":48.85401,"lng":14.21114},{"id":22243,"name":"Chýnov","lat":49.40677,"lng":14.81122},{"id":22242,"name":"Chyšky","lat":49.52346,"lng":14.42757},{"id":23396,"name":"Čimelice","lat":49.46557,"lng":14.06922},{"id":23397,"name":"Čkyně","lat":49.11503,"lng":13.82906},{"id":22252,"name":"Dačice","lat":49.08154,"lng":15.43727},{"id":22277,"name":"Dolní Bukovsko","lat":49.17086,"lng":14.58127},{"id":22282,"name":"Dolní Dvořiště","lat":48.65642,"lng":14.45221},{"id":22324,"name":"Dřiteň","lat":49.1428,"lng":14.34596},{"id":22313,"name":"Dubné","lat":48.97619,"lng":14.36038},{"id":22328,"name":"Frymburk","lat":48.66094,"lng":14.16564},{"id":22355,"name":"Hluboká nad Vltavou","lat":49.05225,"lng":14.43427},{"id":22385,"name":"Horní Planá","lat":48.76736,"lng":14.03257},{"id":22390,"name":"Horní Stropnice","lat":48.76124,"lng":14.73502},{"id":22418,"name":"Hrdějovice","lat":49.01893,"lng":14.47857},{"id":22436,"name":"Husinec","lat":49.05496,"lng":13.98697},{"id":22460,"name":"Jarošov nad Nežárkou","lat":49.18989,"lng":15.06734},{"id":22476,"name":"Jindřichův Hradec","lat":49.14404,"lng":15.00301},{"id":22479,"name":"Jistebnice","lat":49.48553,"lng":14.5276},{"id":22582,"name":"Kájov","lat":48.81082,"lng":14.25859},{"id":22494,"name":"Kamenný Újezd","lat":48.89753,"lng":14.44638},{"id":22495,"name":"Kaplice","lat":48.73881,"lng":14.49449},{"id":22496,"name":"Kardašova Řečice","lat":49.18478,"lng":14.85315},{"id":22503,"name":"Katovice","lat":49.27348,"lng":13.83035},{"id":22545,"name":"Kovářov","lat":49.5176,"lng":14.27809},{"id":22583,"name":"Křemže","lat":48.90497,"lng":14.30568},{"id":22575,"name":"Kunžak","lat":49.12119,"lng":15.19028},{"id":22592,"name":"Ledenice","lat":48.93329,"lng":14.61886},{"id":22603,"name":"Lhenice","lat":48.99479,"lng":14.1498},{"id":22627,"name":"Lišov","lat":49.01597,"lng":14.60838},{"id":22626,"name":"Litvínovice","lat":48.96207,"lng":14.45146},{"id":22634,"name":"Lomnice nad Lužnicí","lat":49.08468,"lng":14.71727},{"id":22640,"name":"Loučovice","lat":48.62019,"lng":14.25747},{"id":22670,"name":"Malonty","lat":48.68611,"lng":14.57678},{"id":22674,"name":"Malšice","lat":49.36391,"lng":14.57868},{"id":22689,"name":"Milevsko","lat":49.45089,"lng":14.36},{"id":22696,"name":"Mirotice","lat":49.42908,"lng":14.03697},{"id":22697,"name":"Mirovice","lat":49.51555,"lng":14.03582},{"id":22702,"name":"Mladá Vožice","lat":49.53313,"lng":14.80857},{"id":22762,"name":"Netolice","lat":49.0493,"lng":14.197},{"id":22772,"name":"Nová Bystřice","lat":49.01926,"lng":15.10316},{"id":22776,"name":"Nová Včelnice","lat":49.23935,"lng":15.0726},{"id":22777,"name":"Nové Hrady","lat":48.78963,"lng":14.77839},{"id":22877,"name":"Okres České Budějovice","lat":49.0,"lng":14.5},{"id":22878,"name":"Okres Český Krumlov","lat":48.75,"lng":14.33333},{"id":22824,"name":"Okres Jindřichův Hradec","lat":49.08333,"lng":15.16667},{"id":22854,"name":"Okres Písek","lat":49.4,"lng":14.2},{"id":22850,"name":"Okres Prachatice","lat":49.0,"lng":13.86667},{"id":22862,"name":"Okres Strakonice","lat":49.26667,"lng":13.9},{"id":22867,"name":"Okres Tábor","lat":49.41667,"lng":14.66667},{"id":22893,"name":"Opařany","lat":49.39678,"lng":14.48137},{"id":22993,"name":"Písek","lat":49.3088,"lng":14.1475},{"id":22936,"name":"Planá nad Lužnicí","lat":49.35444,"lng":14.70147},{"id":22968,"name":"Prachatice","lat":49.01292,"lng":13.99752},{"id":22982,"name":"Protivín","lat":49.19949,"lng":14.21717},{"id":23013,"name":"Radomyšl","lat":49.31634,"lng":13.93024},{"id":23049,"name":"Rudolfov","lat":48.99339,"lng":14.54179},{"id":23063,"name":"Sedlice","lat":48.77401,"lng":14.39115},{"id":23069,"name":"Sepekov","lat":49.42865,"lng":14.41815},{"id":23414,"name":"Ševětín","lat":49.10005,"lng":14.5722},{"id":23071,"name":"Sezimovo Ústí","lat":49.38519,"lng":14.6848},{"id":23083,"name":"Slavonice","lat":48.99753,"lng":15.35154},{"id":23092,"name":"Soběslav","lat":49.25993,"lng":14.71861},{"id":23098,"name":"Srubec","lat":48.94806,"lng":14.54131},{"id":23099,"name":"Stachy","lat":49.10179,"lng":13.66659},{"id":23120,"name":"Strakonice","lat":49.26141,"lng":13.90237},{"id":23123,"name":"Strmilov","lat":49.15846,"lng":15.19934},{"id":23124,"name":"Strunkovice nad Blanicí","lat":49.08402,"lng":14.05522},{"id":23133,"name":"Studená","lat":49.18516,"lng":15.28688},{"id":23141,"name":"Suchdol nad Lužnicí","lat":48.89,"lng":14.8772},{"id":23189,"name":"Tábor","lat":49.41441,"lng":14.6578},{"id":23200,"name":"Třeboň","lat":49.00364,"lng":14.77065},{"id":23173,"name":"Trhové Sviny","lat":48.84231,"lng":14.63924},{"id":23190,"name":"Týn nad Vltavou","lat":49.2234,"lng":14.42057},{"id":23214,"name":"Vacov","lat":49.13686,"lng":13.72911},{"id":23313,"name":"Včelná","lat":48.92373,"lng":14.45383},{"id":23228,"name":"Velešín","lat":48.82949,"lng":14.46252},{"id":23261,"name":"Veselí nad Lužnicí","lat":49.1843,"lng":14.69734},{"id":23315,"name":"Větřní","lat":48.77425,"lng":14.28616},{"id":23271,"name":"Vimperk","lat":49.05857,"lng":13.78286},{"id":23279,"name":"Vlachovo Březí","lat":49.08135,"lng":13.95842},{"id":23286,"name":"Vodňany","lat":49.14789,"lng":14.17513},{"id":23288,"name":"Volary","lat":48.90881,"lng":13.88657},{"id":23289,"name":"Volyně","lat":49.16578,"lng":13.88624},{"id":23309,"name":"Vyšší Brod","lat":48.61598,"lng":14.31183},{"id":23337,"name":"Zdíkov","lat":49.08456,"lng":13.69738},{"id":23341,"name":"Zliv","lat":49.06608,"lng":14.36613}]