[{"id":153462,"name":"Bukit Timah","lat":1.3294,"lng":103.8021},{"id":153466,"name":"Downtown Core","lat":1.278,"lng":103.852},{"id":153463,"name":"Geylang","lat":1.3182,"lng":103.8871},{"id":153467,"name":"Kallang","lat":1.3106,"lng":103.866},{"id":153459,"name":"Marine Parade","lat":1.303,"lng":103.9072},{"id":153461,"name":"Novena","lat":1.3201,"lng":103.8439},{"id":153464,"name":"Orchard Road","lat":1.3036,"lng":103.8318},{"id":153468,"name":"Outram","lat":1.2819,"lng":103.839},{"id":153465,"name":"Rochor","lat":1.3049,"lng":103.852},{"id":104057,"name":"Singapore","lat":1.28967,"lng":103.85007},{"id":153460,"name":"Tanjong Pagar","lat":1.2764,"lng":103.8434},{"id":153469,"name":"Toa Payoh","lat":1.3354,"lng":103.8497}]