[{"id":109357,"name":"Batiovo","lat":48.36166,"lng":22.3997},{"id":109373,"name":"Berehivs’ka Mis’krada","lat":48.21255,"lng":22.65536},{"id":109375,"name":"Berehove","lat":48.20555,"lng":22.64418},{"id":109376,"name":"Berehove Raion","lat":48.16667,"lng":22.66667},{"id":109383,"name":"Bereznyky","lat":48.51407,"lng":23.21982},{"id":109385,"name":"Berezovo","lat":48.30943,"lng":23.474},{"id":109398,"name":"Bilky","lat":48.31503,"lng":23.13248},{"id":109414,"name":"Bobovo","lat":48.07166,"lng":22.89585},{"id":109418,"name":"Bohdan","lat":48.04122,"lng":24.35222},{"id":109464,"name":"Bushtyno","lat":48.05121,"lng":23.48579},{"id":109508,"name":"Chop","lat":48.43198,"lng":22.20555},{"id":109525,"name":"Chynadiyovo","lat":48.48179,"lng":22.8217},{"id":109573,"name":"Dovhe","lat":48.36527,"lng":23.27904},{"id":109576,"name":"Drahovo","lat":48.23573,"lng":23.54914},{"id":109585,"name":"Dubove","lat":48.17205,"lng":23.88954},{"id":109640,"name":"Horinchovo","lat":48.27076,"lng":23.43475},{"id":109674,"name":"Irshava","lat":48.31667,"lng":23.03846},{"id":109675,"name":"Irshava Raion","lat":48.33333,"lng":23.08333},{"id":109686,"name":"Iza","lat":48.21525,"lng":23.32867},{"id":109706,"name":"Kalyny","lat":48.14078,"lng":23.8738},{"id":109711,"name":"Kamianytsia","lat":48.69343,"lng":22.3957},{"id":109742,"name":"Khust","lat":48.1793,"lng":23.29909},{"id":109743,"name":"Khust Raion","lat":48.25,"lng":23.41667},{"id":109744,"name":"Khusts’ka Mis’krada","lat":48.19058,"lng":23.30322},{"id":109772,"name":"Kolochava","lat":48.42851,"lng":23.6959},{"id":109791,"name":"Kopashnovo","lat":48.2197,"lng":23.48457},{"id":109799,"name":"Korolevo","lat":48.15247,"lng":23.13659},{"id":109810,"name":"Koson’","lat":48.25505,"lng":22.45597},{"id":109873,"name":"Kryva","lat":48.17234,"lng":23.23647},{"id":109891,"name":"Kushnytsya","lat":48.43988,"lng":23.25816},{"id":109896,"name":"Kvasy","lat":48.14973,"lng":24.27995},{"id":109905,"name":"Lazeshchyna","lat":48.26852,"lng":24.4201},{"id":109906,"name":"Lazi","lat":48.06667,"lng":24.23333},{"id":109930,"name":"Lopukhiv","lat":48.36527,"lng":23.96382},{"id":109954,"name":"Lypcha","lat":48.26107,"lng":23.38336},{"id":109961,"name":"Lysychovo","lat":48.49677,"lng":23.28992},{"id":110039,"name":"Mizhhirya","lat":48.52458,"lng":23.50563},{"id":110040,"name":"Mizhhirya Raion","lat":48.58333,"lng":23.5},{"id":110058,"name":"Mukacheve","lat":48.43919,"lng":22.71779},{"id":110059,"name":"Mukachevo","lat":48.41667,"lng":22.66667},{"id":110065,"name":"Muzhiyevo","lat":48.17959,"lng":22.69943},{"id":110074,"name":"Mynay","lat":48.5888,"lng":22.27502},{"id":110090,"name":"Nelipyno","lat":48.56101,"lng":23.03146},{"id":110092,"name":"Neresnytsya","lat":48.11814,"lng":23.76588},{"id":110094,"name":"Nevyts’ke","lat":48.67472,"lng":22.38813},{"id":110111,"name":"Nove Davydkovo","lat":48.44133,"lng":22.62164},{"id":110168,"name":"Nyzhnye Selyshche","lat":48.19911,"lng":23.44757},{"id":110192,"name":"Oleshnyk","lat":48.16406,"lng":22.96167},{"id":110197,"name":"Onokivtsi","lat":48.65763,"lng":22.34183},{"id":110236,"name":"Perechyn","lat":48.73616,"lng":22.482},{"id":110237,"name":"Perechyn Raion","lat":48.75,"lng":22.66667},{"id":110271,"name":"Pidvynohradiv","lat":48.13947,"lng":22.97194},{"id":110304,"name":"Poroshkovo","lat":48.66832,"lng":22.75328},{"id":110334,"name":"Pylypets","lat":48.65899,"lng":23.28346},{"id":110340,"name":"Rakhiv","lat":48.0526,"lng":24.20089},{"id":110341,"name":"Rakhiv Raion","lat":48.08333,"lng":24.33333},{"id":110343,"name":"Rakoshyno","lat":48.46713,"lng":22.59687},{"id":110362,"name":"Rokosovo","lat":48.21018,"lng":23.17624},{"id":110422,"name":"Serednye","lat":48.54043,"lng":22.50696},{"id":110423,"name":"Serednye Vodyane","lat":47.98159,"lng":23.91041},{"id":110513,"name":"Solotvyno","lat":47.94604,"lng":23.87035},{"id":110554,"name":"Storozhnytsya","lat":48.60403,"lng":22.23269},{"id":110555,"name":"Strabychovo","lat":48.39247,"lng":22.54308},{"id":110569,"name":"Svaliava","lat":48.55,"lng":23.0},{"id":110570,"name":"Svalyava","lat":48.54853,"lng":22.99578},{"id":110584,"name":"Synevyr","lat":48.48745,"lng":23.62575},{"id":110585,"name":"Synevyrska Poliana","lat":48.58484,"lng":23.6891},{"id":110607,"name":"Tiachiv","lat":48.08333,"lng":23.58333},{"id":110640,"name":"Tyachiv","lat":48.01179,"lng":23.57061},{"id":110667,"name":"Uzhgorod","lat":48.61667,"lng":22.3},{"id":110668,"name":"Uzhhorod","lat":48.58333,"lng":22.33333},{"id":110674,"name":"Vary","lat":48.12207,"lng":22.71281},{"id":110689,"name":"Velyki Berehy","lat":48.23187,"lng":22.74591},{"id":110694,"name":"Velykyi Bereznyi","lat":48.88831,"lng":22.46052},{"id":110695,"name":"Velykyi Bereznyi Raion","lat":48.91667,"lng":22.58333},{"id":110737,"name":"Volovets","lat":48.7109,"lng":23.1851},{"id":110738,"name":"Volovets Raion","lat":48.75,"lng":23.08333},{"id":110756,"name":"Vylok","lat":48.10915,"lng":22.83865},{"id":110757,"name":"Vynohradiv","lat":48.14135,"lng":23.02666},{"id":110758,"name":"Vynohradiv Raion","lat":48.16667,"lng":23.0},{"id":110764,"name":"Vyshkovo","lat":48.04911,"lng":23.42113},{"id":110788,"name":"Yasinya","lat":48.27937,"lng":24.36042}]