[{"id":109353,"name":"Baryshivka","lat":50.36098,"lng":31.32173},{"id":109354,"name":"Baryshivs’kyy Rayon","lat":50.36919,"lng":31.34896},{"id":109393,"name":"Bila Tserkva","lat":49.80939,"lng":30.11209},{"id":109394,"name":"Bila Tserkva Raion","lat":49.75,"lng":30.08333},{"id":109422,"name":"Bohuslav","lat":49.54939,"lng":30.8744},{"id":109426,"name":"Borispol’skiy Rayon","lat":50.3345,"lng":31.0247},{"id":109427,"name":"Borodianka","lat":50.64484,"lng":29.9201},{"id":109429,"name":"Borodyans’kyy Rayon","lat":50.65889,"lng":29.88556},{"id":109431,"name":"Borova","lat":50.17625,"lng":30.10429},{"id":109436,"name":"Boryspil’","lat":50.35269,"lng":30.95501},{"id":109440,"name":"Boyarka","lat":50.31911,"lng":30.29728},{"id":109449,"name":"Brovary","lat":50.51809,"lng":30.80671},{"id":109450,"name":"Brovary Raion","lat":50.58333,"lng":31.0},{"id":109456,"name":"Bucha","lat":50.54345,"lng":30.21201},{"id":109468,"name":"Chabany","lat":50.34071,"lng":30.42356},{"id":109494,"name":"Chernyakhivka","lat":50.21882,"lng":31.93082},{"id":109591,"name":"Dymer","lat":50.78647,"lng":30.3026},{"id":109597,"name":"Fastiv","lat":50.0767,"lng":29.9177},{"id":109598,"name":"Fastiv Raion","lat":50.08333,"lng":30.0},{"id":109631,"name":"Hlevakha","lat":50.27423,"lng":30.32706},{"id":109635,"name":"Hnidyn","lat":50.32899,"lng":30.71059},{"id":109639,"name":"Horenka","lat":50.55731,"lng":30.33217},{"id":109655,"name":"Hostomel","lat":50.56841,"lng":30.2651},{"id":109672,"name":"Irpin","lat":50.52175,"lng":30.25055},{"id":109673,"name":"Irpins’ka Mis’krada","lat":50.51585,"lng":30.24099},{"id":109680,"name":"Ivankiv","lat":50.93865,"lng":29.89426},{"id":109681,"name":"Ivankiv Raion","lat":51.0,"lng":29.91667},{"id":109695,"name":"Kaharlyk","lat":49.86233,"lng":30.82815},{"id":109696,"name":"Kaharlyk Raion","lat":49.91667,"lng":30.75},{"id":109705,"name":"Kalynove","lat":49.38179,"lng":30.45137},{"id":109716,"name":"Karapyshi","lat":49.64237,"lng":30.79002},{"id":109720,"name":"Katyuzhanka","lat":50.80595,"lng":30.13763},{"id":109739,"name":"Khotiv","lat":50.33069,"lng":30.46836},{"id":109749,"name":"Kirove","lat":50.3689,"lng":31.12066},{"id":109758,"name":"Klavdiyevo-Tarasove","lat":50.58416,"lng":30.01134},{"id":109764,"name":"Knyazhichi","lat":50.46275,"lng":30.78369},{"id":109768,"name":"Kodra","lat":50.59488,"lng":29.55873},{"id":109797,"name":"Korniyivka","lat":50.41661,"lng":31.46261},{"id":109825,"name":"Kozhanka","lat":49.97231,"lng":29.76424},{"id":109855,"name":"Krasyatychi","lat":51.07636,"lng":29.64899},{"id":109865,"name":"Kriukivschina","lat":50.37153,"lng":30.36861},{"id":109874,"name":"Kryva Hora","lat":51.38495,"lng":30.19978},{"id":109900,"name":"Kyyevo-Svyatoshyns’kyy Rayon","lat":50.3853,"lng":30.23129},{"id":109925,"name":"Liutizh","lat":50.6835,"lng":30.39324},{"id":109972,"name":"Makariv","lat":50.46408,"lng":29.81128},{"id":109973,"name":"Makariv Raion","lat":50.5,"lng":29.75},{"id":110035,"name":"Mirovka","lat":49.93126,"lng":30.62309},{"id":110057,"name":"Motovylivka","lat":50.15821,"lng":30.07421},{"id":110076,"name":"Myronivka","lat":49.66007,"lng":30.98225},{"id":110116,"name":"Novi Petrivtsi","lat":50.62754,"lng":30.4431},{"id":110173,"name":"Obukhiv","lat":50.10689,"lng":30.61848},{"id":110174,"name":"Obukhiv Raion","lat":50.16667,"lng":30.66667},{"id":110175,"name":"Obukhivs’ka Mis’krada","lat":50.11425,"lng":30.63293},{"id":110239,"name":"Pereiaslav-Khmelnytskyi","lat":50.06739,"lng":31.44969},{"id":110240,"name":"Pereiaslav-Khmelnytskyi Raion","lat":50.08333,"lng":31.5},{"id":110274,"name":"Piskivka","lat":50.69378,"lng":29.61934},{"id":110287,"name":"Pohreby","lat":50.55453,"lng":30.64455},{"id":110327,"name":"Pukhivka","lat":50.6097,"lng":30.7177},{"id":110363,"name":"Rokytne","lat":49.68665,"lng":30.47384},{"id":110365,"name":"Rokytne Raion","lat":49.75,"lng":30.5},{"id":110373,"name":"Roskoshnyy","lat":49.37087,"lng":30.18471},{"id":110398,"name":"Rzhyshchiv","lat":49.96886,"lng":31.04628},{"id":110417,"name":"Semypolky","lat":50.72627,"lng":30.93441},{"id":110474,"name":"Skvyra","lat":49.73177,"lng":29.66569},{"id":110475,"name":"Skvyrs’kyy Rayon","lat":49.74177,"lng":29.70043},{"id":110480,"name":"Slavutych","lat":51.5225,"lng":30.71806},{"id":110499,"name":"Sofiyivska Borschagivka","lat":50.41005,"lng":30.36724},{"id":110543,"name":"Stavyshche","lat":49.39124,"lng":30.19022},{"id":110545,"name":"Stayki","lat":50.07818,"lng":30.9038},{"id":110590,"name":"Tarashcha","lat":49.55832,"lng":30.49259},{"id":110606,"name":"Tetiiv","lat":49.3767,"lng":29.66474},{"id":110620,"name":"Trebukhiv","lat":50.48432,"lng":30.90304},{"id":110624,"name":"Trypillia","lat":50.11802,"lng":30.78141},{"id":110632,"name":"Tsybli","lat":49.99484,"lng":31.56281},{"id":110651,"name":"Ukrainka","lat":50.14317,"lng":30.74612},{"id":110669,"name":"Uzyn","lat":49.82619,"lng":30.41487},{"id":110678,"name":"Vasylkiv","lat":50.18693,"lng":30.31346},{"id":110679,"name":"Vasylkiv Raion","lat":50.16667,"lng":30.33333},{"id":110684,"name":"Velyka Dymerka","lat":50.59333,"lng":30.90313},{"id":110733,"name":"Volodarka","lat":49.52484,"lng":29.91222},{"id":110742,"name":"Voronkov","lat":50.22235,"lng":30.89967},{"id":110745,"name":"Vorzel’","lat":50.5444,"lng":30.15305},{"id":110762,"name":"Vyshgorodskiy Rayon","lat":50.58333,"lng":30.5},{"id":110763,"name":"Vyshhorod","lat":50.58476,"lng":30.4898},{"id":110765,"name":"Vyshneve","lat":50.38913,"lng":30.3705},{"id":110773,"name":"Yahotyn","lat":50.27975,"lng":31.76246},{"id":110774,"name":"Yahotyns’kyy Rayon","lat":50.25722,"lng":31.89456},{"id":110872,"name":"Z·hurivs’kyy Rayon","lat":50.47192,"lng":31.79423},{"id":110839,"name":"Zgurovka","lat":50.50276,"lng":31.78492}]