[{"id":109311,"name":"Alchevs’k","lat":48.46893,"lng":38.81669},{"id":109312,"name":"Alchevs’ka Mis’krada","lat":48.48029,"lng":38.7969},{"id":109323,"name":"Antratsyt","lat":48.11503,"lng":39.09128},{"id":109324,"name":"Antratsytivs’kyy Rayon","lat":48.1245,"lng":39.05683},{"id":109329,"name":"Artemivs’k","lat":48.44061,"lng":38.732},{"id":109359,"name":"Bayrachky","lat":48.392,"lng":38.60174},{"id":109395,"name":"Bile","lat":48.49523,"lng":39.05051},{"id":109400,"name":"Bilohorivka","lat":48.92503,"lng":38.24822},{"id":109401,"name":"Bilokurakyne","lat":49.5341,"lng":38.73067},{"id":109403,"name":"Bilovods'k","lat":49.20846,"lng":39.58975},{"id":109408,"name":"Biryukove","lat":47.95631,"lng":39.73843},{"id":109453,"name":"Bryanka","lat":48.511,"lng":38.67222},{"id":109460,"name":"Buran","lat":48.30003,"lng":39.61526},{"id":109502,"name":"Chervonopartyzans’k","lat":48.07613,"lng":39.79618},{"id":109515,"name":"Chornukhyne","lat":48.32339,"lng":38.52272},{"id":109574,"name":"Dovzhanskyy Rayon","lat":48.0,"lng":39.66667},{"id":109630,"name":"Hirs’ke","lat":48.73468,"lng":38.49541},{"id":109693,"name":"Kadiyivka","lat":48.56818,"lng":38.64352},{"id":109754,"name":"Kirovs’k","lat":48.63751,"lng":38.6428},{"id":109755,"name":"Kirovs’ka Mis’krada","lat":48.63485,"lng":38.64753},{"id":109760,"name":"Klenovyy","lat":48.11934,"lng":39.4588},{"id":109853,"name":"Krasnyy Kut","lat":48.20138,"lng":38.79765},{"id":109854,"name":"Krasnyy Luch","lat":48.13954,"lng":38.93715},{"id":109860,"name":"Kreminna","lat":49.0495,"lng":38.21792},{"id":109864,"name":"Kripens’kyy","lat":48.07709,"lng":39.058},{"id":109911,"name":"Lenina","lat":48.42944,"lng":39.14556},{"id":109931,"name":"Lozno-Oleksandrivka","lat":49.8391,"lng":38.74098},{"id":109939,"name":"Luhans’ka Mis’krada","lat":48.58083,"lng":39.35478},{"id":109938,"name":"Luhansk","lat":48.56705,"lng":39.31706},{"id":109945,"name":"Lutuhyne","lat":48.40507,"lng":39.22675},{"id":109946,"name":"Lutuhyns’kyy Rayon","lat":48.38509,"lng":39.21209},{"id":109960,"name":"Lysychans’k","lat":48.90485,"lng":38.44207},{"id":109974,"name":"Makariv Yar","lat":48.57768,"lng":39.71944},{"id":110001,"name":"Markivka","lat":49.5229,"lng":39.57055},{"id":110030,"name":"Millerovo","lat":48.16829,"lng":39.16537},{"id":110031,"name":"Milove","lat":49.37528,"lng":40.13222},{"id":110038,"name":"Miusyns’k","lat":48.0775,"lng":38.90364},{"id":110049,"name":"Molodohvardiys’k","lat":48.34511,"lng":39.65244},{"id":110143,"name":"Novopskov","lat":49.5464,"lng":39.08987},{"id":110166,"name":"Nyzhnya Duvanka","lat":49.58464,"lng":38.17429},{"id":110231,"name":"Pavlivka","lat":49.60864,"lng":38.70917},{"id":110244,"name":"Pereval’s’k","lat":48.43779,"lng":38.84384},{"id":110250,"name":"Pervomays’k","lat":48.62988,"lng":38.54806},{"id":110300,"name":"Popasna","lat":48.63328,"lng":38.37804},{"id":110324,"name":"Pryvillya","lat":49.01501,"lng":38.30457},{"id":110374,"name":"Roven’ky","lat":48.08331,"lng":39.37764},{"id":110384,"name":"Rozkishne","lat":48.48959,"lng":39.27881},{"id":110387,"name":"Rubizhans’ka Mis’krada","lat":49.0146,"lng":38.38909},{"id":110388,"name":"Rubizhne","lat":49.01229,"lng":38.37967},{"id":110433,"name":"Shchastya","lat":48.73963,"lng":39.2323},{"id":110460,"name":"Simeykyne","lat":48.32643,"lng":39.53366},{"id":110485,"name":"Slov`yanoserbsk","lat":48.69779,"lng":38.98133},{"id":110514,"name":"Sorokyne","lat":48.29235,"lng":39.73921},{"id":110515,"name":"Sorokyns'kyi Rayon","lat":48.33333,"lng":39.75},{"id":110526,"name":"Stanytsya Luhans’ka","lat":48.65433,"lng":39.47943},{"id":110532,"name":"Starobil’s’k","lat":49.27832,"lng":38.91069},{"id":110572,"name":"Svatove","lat":49.41029,"lng":38.15035},{"id":110573,"name":"Sverdlovs’k","lat":48.08964,"lng":39.65243},{"id":110574,"name":"Sverdlovs’ka Mis’krada","lat":48.0685,"lng":39.58057},{"id":110582,"name":"Syevyerodonets’k","lat":48.94832,"lng":38.49166},{"id":110597,"name":"Teple","lat":48.31245,"lng":39.56284},{"id":110618,"name":"Toshkivka","lat":48.77914,"lng":38.57903},{"id":110625,"name":"Tr’okhizbenka","lat":48.75751,"lng":38.96333},{"id":110657,"name":"Uralo-Kavkaz","lat":48.3211,"lng":39.80302},{"id":110661,"name":"Uspenka","lat":48.39077,"lng":39.16284},{"id":110812,"name":"Zalesnoye","lat":48.03104,"lng":38.80934},{"id":110866,"name":"Zoryns’k","lat":48.41194,"lng":38.62361},{"id":110871,"name":"Zymohiria","lat":48.58528,"lng":38.9375}]