[{"id":109362,"name":"Belaya","lat":49.029,"lng":25.77059},{"id":109434,"name":"Borshchiv","lat":48.80332,"lng":26.04347},{"id":109457,"name":"Buchach","lat":49.06254,"lng":25.38798},{"id":109517,"name":"Chortkiv","lat":49.01709,"lng":25.79804},{"id":109579,"name":"Druzhba","lat":49.04251,"lng":25.45055},{"id":109657,"name":"Hrymayliv","lat":49.33208,"lng":26.01112},{"id":109662,"name":"Husiatyn","lat":49.0729,"lng":26.1848},{"id":109738,"name":"Khorostkiv","lat":49.21114,"lng":25.92165},{"id":109793,"name":"Kopychyntsi","lat":49.10441,"lng":25.91026},{"id":109826,"name":"Kozova","lat":49.43544,"lng":25.15086},{"id":109858,"name":"Kremenets","lat":50.09693,"lng":25.72459},{"id":109904,"name":"Lanivtsi","lat":49.86328,"lng":26.09082},{"id":110029,"name":"Mikulintsy","lat":49.396,"lng":25.60518},{"id":110163,"name":"Nyrkiv","lat":48.81492,"lng":25.59989},{"id":110216,"name":"Ozerna","lat":49.62891,"lng":25.32895},{"id":110256,"name":"Petrikov","lat":49.53122,"lng":25.57901},{"id":110265,"name":"Pidhaytsi","lat":49.26853,"lng":25.13341},{"id":110270,"name":"Pidvolochysk","lat":49.53472,"lng":26.14585},{"id":110282,"name":"Pochaiv","lat":50.00509,"lng":25.51183},{"id":110467,"name":"Skala-Podil’s’ka","lat":48.85149,"lng":26.19909},{"id":110468,"name":"Skalat","lat":49.42732,"lng":25.97869},{"id":110601,"name":"Terebovlya","lat":49.30187,"lng":25.70997},{"id":110602,"name":"Ternopil","lat":49.55342,"lng":25.58918},{"id":110619,"name":"Tovste","lat":48.84663,"lng":25.72621},{"id":110682,"name":"Velikiye Borki","lat":49.52363,"lng":25.75753},{"id":110772,"name":"Yahil’nytsya","lat":48.94248,"lng":25.74375},{"id":110814,"name":"Zalishchyky","lat":48.64331,"lng":25.73794},{"id":110818,"name":"Zaliztsi","lat":49.79188,"lng":25.37297},{"id":110831,"name":"Zbarazh","lat":49.66357,"lng":25.77616},{"id":110832,"name":"Zboriv","lat":49.66484,"lng":25.14097},{"id":110863,"name":"Zolotyy Potik","lat":48.9095,"lng":25.33926},{"id":110873,"name":"Бережани","lat":49.45,"lng":24.93333}]