[{"id":109397,"name":"Bili Oslavy","lat":48.48722,"lng":24.70078},{"id":109405,"name":"Bilshivtsi","lat":49.18333,"lng":24.75},{"id":109420,"name":"Bohorodchans’kyy Rayon","lat":48.72278,"lng":24.38042},{"id":109421,"name":"Bohorodchany","lat":48.807,"lng":24.53834},{"id":109423,"name":"Bolekhiv","lat":49.06607,"lng":23.86435},{"id":109424,"name":"Bolekhivs’ka Mis’krada","lat":49.06255,"lng":23.84339},{"id":109433,"name":"Borshchevskiy Rayon","lat":48.75,"lng":26.0},{"id":109447,"name":"Broshniv-Osada","lat":48.99621,"lng":24.19748},{"id":109461,"name":"Burshtyn","lat":49.25867,"lng":24.62777},{"id":109462,"name":"Burshtyns’ka Mis’krada","lat":49.25217,"lng":24.6332},{"id":109466,"name":"Bystrytsya","lat":48.45931,"lng":24.24545},{"id":109467,"name":"Bytkiv","lat":48.62968,"lng":24.47398},{"id":109478,"name":"Chernelytsya","lat":48.81207,"lng":25.42477},{"id":109488,"name":"Cherniyiv","lat":48.85658,"lng":24.71388},{"id":109496,"name":"Chernyatyn","lat":48.66034,"lng":25.44832},{"id":109512,"name":"Chornoliztsi","lat":48.83034,"lng":24.89576},{"id":109533,"name":"Delyatyn","lat":48.52354,"lng":24.62466},{"id":109565,"name":"Dolyna","lat":48.9733,"lng":24.00944},{"id":109567,"name":"Dolyns’kyy Rayon","lat":48.89148,"lng":23.84343},{"id":109625,"name":"Halych","lat":49.12179,"lng":24.72578},{"id":109626,"name":"Halyts’kyy Rayon","lat":49.16169,"lng":24.71797},{"id":109643,"name":"Horodenka","lat":48.67274,"lng":25.50163},{"id":109644,"name":"Horodenkivs’kyy Rayon","lat":48.70617,"lng":25.42008},{"id":109665,"name":"Hvizd","lat":48.68517,"lng":24.55055},{"id":109683,"name":"Ivano-Frankivs’ka Mis’krada","lat":48.91177,"lng":24.72831},{"id":109682,"name":"Ivano-Frankivsk","lat":48.9215,"lng":24.70972},{"id":109703,"name":"Kalus’kyy Rayon","lat":49.06088,"lng":24.38766},{"id":109702,"name":"Kalush","lat":49.01187,"lng":24.37308},{"id":109745,"name":"Khymchyn","lat":48.38639,"lng":25.14803},{"id":109776,"name":"Kolomyia","lat":48.53115,"lng":25.03649},{"id":109777,"name":"Kolomyys’kyy Rayon","lat":48.58586,"lng":24.993},{"id":109807,"name":"Kosiv","lat":48.31071,"lng":25.09575},{"id":109808,"name":"Kosivs’kyy Rayon","lat":48.32569,"lng":24.98641},{"id":109809,"name":"Kosmach","lat":48.75089,"lng":24.36731},{"id":109829,"name":"Krasna","lat":48.57571,"lng":24.70027},{"id":109894,"name":"Kuty","lat":48.25868,"lng":25.17946},{"id":109903,"name":"Lanchyn","lat":48.55781,"lng":24.75622},{"id":109996,"name":"Manyava","lat":48.65541,"lng":24.37537},{"id":110002,"name":"Markova","lat":48.67576,"lng":24.41382},{"id":110078,"name":"Nadvirna","lat":48.6348,"lng":24.56936},{"id":110079,"name":"Nadvirnyans’kyy Rayon","lat":48.55387,"lng":24.50381},{"id":110086,"name":"Nebyliv","lat":48.81526,"lng":24.21657},{"id":110158,"name":"Novytsya","lat":48.96345,"lng":24.33542},{"id":110170,"name":"Obertyn","lat":48.70032,"lng":25.17012},{"id":110212,"name":"Otyniya","lat":48.73767,"lng":24.86111},{"id":110229,"name":"Pasichna","lat":48.57152,"lng":24.43003},{"id":110234,"name":"Pechenizhyn","lat":48.51551,"lng":24.89423},{"id":110255,"name":"Petranka","lat":48.90246,"lng":24.30347},{"id":110279,"name":"Pniv","lat":48.61783,"lng":24.52872},{"id":110303,"name":"Porohy","lat":48.68755,"lng":24.26322},{"id":110335,"name":"Radcha","lat":48.85023,"lng":24.65502},{"id":110350,"name":"Rechka","lat":48.28034,"lng":24.9333},{"id":110360,"name":"Rohatyn","lat":49.409,"lng":24.60927},{"id":110361,"name":"Rohatyns’kyy Rayon","lat":49.38025,"lng":24.57111},{"id":110378,"name":"Rozhniativ","lat":48.93576,"lng":24.16379},{"id":110379,"name":"Rozhniv","lat":48.36597,"lng":25.2258},{"id":110380,"name":"Rozhnyativs’kyy Rayon","lat":48.7589,"lng":24.07588},{"id":110400,"name":"Sadzhavka","lat":48.56603,"lng":24.7882},{"id":110441,"name":"Sheshory","lat":48.33197,"lng":24.98329},{"id":110491,"name":"Sniatyn","lat":48.44692,"lng":25.56937},{"id":110495,"name":"Snyatyns’kyy Rayon","lat":48.47674,"lng":25.41153},{"id":110512,"name":"Solotvyn","lat":48.70212,"lng":24.42212},{"id":110520,"name":"Spas","lat":48.88992,"lng":24.06293},{"id":110529,"name":"Stari Bohorodchany","lat":48.83361,"lng":24.5243},{"id":110530,"name":"Stari Kuty","lat":48.27093,"lng":25.17293},{"id":110551,"name":"Stetseva","lat":48.52767,"lng":25.57572},{"id":110571,"name":"Svarychiv","lat":48.9622,"lng":24.19658},{"id":110593,"name":"Tatariv","lat":48.34558,"lng":24.57836},{"id":110608,"name":"Tlumach","lat":48.86403,"lng":25.00325},{"id":110609,"name":"Tlumats’kyy Rayon","lat":48.82924,"lng":25.09055},{"id":110644,"name":"Tysmenychany","lat":48.77168,"lng":24.66626},{"id":110646,"name":"Tysmenyts’kyy Rayon","lat":48.92246,"lng":24.74486},{"id":110645,"name":"Tysmenytsya","lat":48.90219,"lng":24.84482},{"id":110650,"name":"Uhryniv","lat":48.9552,"lng":24.69292},{"id":110697,"name":"Velykyy Klyuchiv","lat":48.47092,"lng":24.94677},{"id":110707,"name":"Verkhniy Yasenov","lat":48.16156,"lng":24.94532},{"id":110712,"name":"Verkhovyna","lat":48.15571,"lng":24.79112},{"id":110741,"name":"Vorokhta","lat":48.28459,"lng":24.56536},{"id":110770,"name":"Yabluniv","lat":48.40418,"lng":24.93874},{"id":110771,"name":"Yablunytsya","lat":48.31742,"lng":24.48448},{"id":110779,"name":"Yamnytsya","lat":48.98972,"lng":24.7075},{"id":110783,"name":"Yaremchans’ks Mis’krada","lat":48.33234,"lng":24.57426},{"id":110784,"name":"Yaremche","lat":48.45157,"lng":24.55436},{"id":110806,"name":"Zabolotiv","lat":48.47054,"lng":25.28571},{"id":110809,"name":"Zahvizdya","lat":48.91836,"lng":24.65275},{"id":110823,"name":"Zarichchya","lat":48.52144,"lng":24.64857}]