[{"id":9274,"name":"Berkovitsa","lat":43.23581,"lng":23.12738},{"id":9283,"name":"Boychinovtsi","lat":43.47222,"lng":23.33583},{"id":9290,"name":"Brusartsi","lat":43.66075,"lng":23.06732},{"id":9301,"name":"Chiprovtsi","lat":43.38417,"lng":22.88083},{"id":9387,"name":"Lom","lat":43.82106,"lng":23.23677},{"id":9398,"name":"Medkovets","lat":43.62403,"lng":23.16876},{"id":9404,"name":"Montana","lat":43.4125,"lng":23.225},{"id":9437,"name":"Obshtina Boychinovtsi","lat":43.53333,"lng":23.43333},{"id":9450,"name":"Obshtina Chiprovtsi","lat":43.41667,"lng":22.9},{"id":9478,"name":"Obshtina Georgi Damyanovo","lat":43.35,"lng":23.0},{"id":9522,"name":"Obshtina Lom","lat":43.81667,"lng":23.23333},{"id":9536,"name":"Obshtina Montana","lat":43.46667,"lng":23.2},{"id":9622,"name":"Obshtina Valchedram","lat":43.71667,"lng":23.51667},{"id":9625,"name":"Obshtina Varshets","lat":43.21667,"lng":23.33333},{"id":9632,"name":"Obshtina Yakimovo","lat":43.63333,"lng":23.33333},{"id":9733,"name":"Valchedram","lat":43.69281,"lng":23.44518},{"id":9736,"name":"Varshets","lat":43.19356,"lng":23.2868},{"id":9744,"name":"Yakimovo","lat":43.63472,"lng":23.3535}]