[{"id":9271,"name":"Belogradchik","lat":43.62722,"lng":22.68361},{"id":9284,"name":"Boynitsa","lat":43.9565,"lng":22.53255},{"id":9287,"name":"Bregovo","lat":44.15167,"lng":22.6425},{"id":9303,"name":"Chuprene","lat":43.51806,"lng":22.66611},{"id":9309,"name":"Dimovo","lat":43.74167,"lng":22.72694},{"id":9317,"name":"Drenovets","lat":43.69134,"lng":22.97365},{"id":9320,"name":"Dunavtsi","lat":43.92111,"lng":22.82111},{"id":9336,"name":"Gramada","lat":43.83738,"lng":22.65279},{"id":9380,"name":"Kula","lat":43.88833,"lng":22.52139},{"id":9396,"name":"Makresh","lat":43.76794,"lng":22.66406},{"id":9411,"name":"Novo Selo","lat":44.16214,"lng":22.78376},{"id":9426,"name":"Obshtina Belogradchik","lat":43.65,"lng":22.6},{"id":9438,"name":"Obshtina Boynitsa","lat":44.0,"lng":22.55},{"id":9456,"name":"Obshtina Dimovo","lat":43.75,"lng":22.81667},{"id":9483,"name":"Obshtina Gramada","lat":43.83333,"lng":22.65},{"id":9517,"name":"Obshtina Kula","lat":43.9,"lng":22.56667},{"id":9577,"name":"Obshtina Ruzhintsi","lat":43.65,"lng":22.9},{"id":9630,"name":"Obshtina Vidin","lat":44.0,"lng":22.83333},{"id":9676,"name":"Ruzhintsi","lat":43.62179,"lng":22.83286},{"id":9741,"name":"Vidin","lat":43.99159,"lng":22.88236}]