[{"id":9348,"name":"Isperih","lat":43.7168724,"lng":26.8301419},{"id":9379,"name":"Kubrat","lat":43.79658,"lng":26.50063},{"id":9389,"name":"Loznitsa","lat":43.36667,"lng":26.6},{"id":9399,"name":"Medovene","lat":43.76667,"lng":26.51667},{"id":9491,"name":"Obshtina Isperih","lat":43.71667,"lng":26.83333},{"id":9515,"name":"Obshtina Kubrat","lat":43.86667,"lng":26.48333},{"id":9524,"name":"Obshtina Loznitsa","lat":43.41667,"lng":26.58333},{"id":9570,"name":"Obshtina Razgrad","lat":43.53333,"lng":26.51667},{"id":9581,"name":"Obshtina Samuil","lat":43.6,"lng":26.8},{"id":9616,"name":"Obshtina Tsar Kaloyan","lat":43.6,"lng":26.21667},{"id":9635,"name":"Obshtina Zavet","lat":43.76667,"lng":26.68333},{"id":9669,"name":"Razgrad","lat":43.5258211,"lng":26.5230603},{"id":9680,"name":"Samuil","lat":43.51667,"lng":26.75},{"id":9727,"name":"Tsar Kaloyan","lat":43.61667,"lng":26.25},{"id":9747,"name":"Zavet","lat":43.76036,"lng":26.68063}]