[{"id":9265,"name":"Bansko","lat":41.8383,"lng":23.48851},{"id":9270,"name":"Belitsa","lat":41.95694,"lng":23.5725},{"id":9275,"name":"Blagoevgrad","lat":42.01667,"lng":23.1},{"id":9329,"name":"Garmen","lat":41.6,"lng":23.81667},{"id":9335,"name":"Gotse Delchev","lat":41.56667,"lng":23.73333},{"id":9341,"name":"Hadzhidimovo","lat":41.52222,"lng":23.86861},{"id":9368,"name":"Kolarovo","lat":41.36385,"lng":23.10669},{"id":9374,"name":"Kresna","lat":41.73333,"lng":23.15},{"id":9422,"name":"Obshtina Bansko","lat":41.8,"lng":23.6},{"id":9425,"name":"Obshtina Belitsa","lat":42.01667,"lng":23.58333},{"id":9429,"name":"Obshtina Blagoevgrad","lat":42.01667,"lng":23.16667},{"id":9476,"name":"Obshtina Garmen","lat":41.7,"lng":23.85},{"id":9482,"name":"Obshtina Gotse Delchev","lat":41.63333,"lng":23.68333},{"id":9511,"name":"Obshtina Kresna","lat":41.76667,"lng":23.23333},{"id":9555,"name":"Obshtina Petrich","lat":41.45,"lng":23.16667},{"id":9571,"name":"Obshtina Razlog","lat":41.95,"lng":23.46667},{"id":9582,"name":"Obshtina Sandanski","lat":41.56667,"lng":23.45},{"id":9584,"name":"Obshtina Satovcha","lat":41.59848,"lng":24.00781},{"id":9589,"name":"Obshtina Simitli","lat":41.88333,"lng":23.16667},{"id":9603,"name":"Obshtina Strumyani","lat":41.63333,"lng":23.2},{"id":9633,"name":"Obshtina Yakoruda","lat":42.08333,"lng":23.7},{"id":9653,"name":"Petrich","lat":41.39846,"lng":23.20702},{"id":9670,"name":"Razlog","lat":41.8863,"lng":23.46714},{"id":9681,"name":"Sandanski","lat":41.56667,"lng":23.28333},{"id":9686,"name":"Satovcha","lat":41.61667,"lng":23.98333},{"id":9694,"name":"Simitli","lat":41.88333,"lng":23.11667},{"id":9705,"name":"Stara Kresna","lat":41.8,"lng":23.18333},{"id":9711,"name":"Strumyani","lat":41.6384659,"lng":23.2021914},{"id":9745,"name":"Yakoruda","lat":42.02528,"lng":23.68417}]