[{"id":8215,"name":"Balatun","lat":44.86332,"lng":19.33931},{"id":8216,"name":"Banja Luka","lat":44.77842,"lng":17.19386},{"id":8221,"name":"Bijeljina","lat":44.76583,"lng":19.15083},{"id":8223,"name":"Bileća","lat":42.87645,"lng":18.42967},{"id":8225,"name":"Blatnica","lat":44.48677,"lng":17.82278},{"id":8231,"name":"Brod","lat":45.13747,"lng":17.98722},{"id":8232,"name":"Bronzani Majdan","lat":44.79237,"lng":16.94039},{"id":8430,"name":"Čajniče","lat":43.55712,"lng":19.07186},{"id":8434,"name":"Čečava","lat":44.67961,"lng":17.7578},{"id":8432,"name":"Čelinac","lat":44.72453,"lng":17.32431},{"id":8240,"name":"Derventa","lat":44.97839,"lng":17.90779},{"id":8242,"name":"Doboj","lat":44.75944,"lng":18.065},{"id":8244,"name":"Dobrljin","lat":45.15106,"lng":16.47869},{"id":8256,"name":"Dvorovi","lat":44.80753,"lng":19.25999},{"id":8258,"name":"Foča","lat":43.50646,"lng":18.77854},{"id":8259,"name":"Gacko","lat":43.16722,"lng":18.53528},{"id":8272,"name":"Gradiška","lat":45.14484,"lng":17.25453},{"id":8278,"name":"Hiseti","lat":44.76111,"lng":17.17944},{"id":8282,"name":"Istočni Mostar","lat":43.42056,"lng":18.00833},{"id":8286,"name":"Janja","lat":44.66554,"lng":19.24691},{"id":8290,"name":"Kalenderovci Donji","lat":44.94673,"lng":17.83785},{"id":8297,"name":"Kneževo","lat":44.49071,"lng":17.38161},{"id":8298,"name":"Knežica","lat":45.10548,"lng":16.67668},{"id":8301,"name":"Koran","lat":43.81038,"lng":18.56999},{"id":8302,"name":"Kostajnica","lat":45.21956,"lng":16.53929},{"id":8303,"name":"Kotor Varoš","lat":44.61831,"lng":17.37204},{"id":8305,"name":"Kozarska Dubica","lat":45.17667,"lng":16.80944},{"id":8307,"name":"Krupa na Vrbasu","lat":44.61875,"lng":17.14351},{"id":8308,"name":"Laktaši","lat":44.90857,"lng":17.30135},{"id":8309,"name":"Lamovita","lat":44.92018,"lng":16.89933},{"id":8312,"name":"Ljubinje","lat":42.9512,"lng":18.08702},{"id":8315,"name":"Lopare","lat":44.63498,"lng":18.8434},{"id":8319,"name":"Maglajani","lat":44.94975,"lng":17.35014},{"id":8323,"name":"Marićka","lat":44.86801,"lng":16.8551},{"id":8324,"name":"Maslovare","lat":44.56594,"lng":17.53216},{"id":8325,"name":"Mejdan - Obilićevo","lat":44.76324,"lng":17.19012},{"id":8326,"name":"Milići","lat":44.17016,"lng":19.09195},{"id":8328,"name":"Modriča","lat":44.95444,"lng":18.30361},{"id":8331,"name":"Mrkonjić Grad","lat":44.41729,"lng":17.08288},{"id":8333,"name":"Nevesinje","lat":43.25861,"lng":18.11333},{"id":8334,"name":"Novi Grad","lat":45.04643,"lng":16.37782},{"id":8337,"name":"Obudovac","lat":44.95215,"lng":18.59869},{"id":8341,"name":"Omarska","lat":44.8917,"lng":16.89814},{"id":8342,"name":"Opština Oštra Luka","lat":44.73278,"lng":16.82861},{"id":8343,"name":"Opština Višegrad","lat":43.72167,"lng":19.31361},{"id":8350,"name":"Oštra Luka","lat":44.99724,"lng":18.58464},{"id":8352,"name":"Pale","lat":43.81664,"lng":18.56949},{"id":8354,"name":"Pelagićevo","lat":44.90105,"lng":18.59185},{"id":8355,"name":"Petkovci","lat":44.46849,"lng":19.07466},{"id":8358,"name":"Piskavica","lat":44.86717,"lng":16.97464},{"id":8360,"name":"Podbrdo","lat":44.44189,"lng":17.01495},{"id":8365,"name":"Popovi","lat":44.76547,"lng":19.28667},{"id":8367,"name":"Pribinić","lat":44.6101,"lng":17.68981},{"id":8368,"name":"Priboj","lat":44.60233,"lng":18.93165},{"id":8369,"name":"Prijedor","lat":44.97991,"lng":16.71401},{"id":8374,"name":"Rogatica","lat":43.79894,"lng":19.00363},{"id":8375,"name":"Rudo","lat":43.61781,"lng":19.36719},{"id":8436,"name":"Šamac","lat":45.05987,"lng":18.46756},{"id":8437,"name":"Šekovići","lat":44.29896,"lng":18.85532},{"id":8439,"name":"Šipovo","lat":44.28237,"lng":17.08597},{"id":8383,"name":"Sokolac","lat":43.93817,"lng":18.80079},{"id":8385,"name":"Srbac","lat":45.0973,"lng":17.52331},{"id":8386,"name":"Srebrenica","lat":44.10748,"lng":19.29669},{"id":8388,"name":"Stanari","lat":44.74475,"lng":17.82714},{"id":8389,"name":"Starcevica","lat":44.75708,"lng":17.21178},{"id":8393,"name":"Svodna","lat":45.0377,"lng":16.54019},{"id":8395,"name":"Teslić","lat":44.60639,"lng":17.85972},{"id":8402,"name":"Trebinje","lat":42.71197,"lng":18.34362},{"id":8403,"name":"Trn","lat":44.85829,"lng":17.23583},{"id":8407,"name":"Ugljevik","lat":44.66361,"lng":19.02028},{"id":8413,"name":"Velika Obarska","lat":44.80461,"lng":19.16183},{"id":8418,"name":"Višegrad","lat":43.7826,"lng":19.29256},{"id":8419,"name":"Vlasenica","lat":44.18183,"lng":18.94096},{"id":8446,"name":"Živinice","lat":44.54765,"lng":17.37357},{"id":8428,"name":"Zvornik","lat":44.38605,"lng":19.10247}]