[{"id":9259,"name":"Asenovgrad","lat":42.01667,"lng":24.86667},{"id":9289,"name":"Brezovo","lat":42.35,"lng":25.08333},{"id":9345,"name":"Hisarya","lat":42.5,"lng":24.7},{"id":9351,"name":"Kalofer","lat":42.61667,"lng":24.98333},{"id":9352,"name":"Kaloyanovo","lat":42.35,"lng":24.73333},{"id":9355,"name":"Karlovo","lat":42.63333,"lng":24.8},{"id":9365,"name":"Klisura","lat":42.7,"lng":24.45},{"id":9375,"name":"Krichim","lat":42.05,"lng":24.46667},{"id":9383,"name":"Laki","lat":41.85,"lng":24.81667},{"id":9417,"name":"Obshtina Asenovgrad","lat":41.95,"lng":24.96667},{"id":9489,"name":"Obshtina Hisarya","lat":42.5,"lng":24.6},{"id":9494,"name":"Obshtina Kaloyanovo","lat":42.38333,"lng":24.81667},{"id":9497,"name":"Obshtina Karlovo","lat":42.68333,"lng":24.66667},{"id":9512,"name":"Obshtina Krichim","lat":42.00439,"lng":24.47235},{"id":9516,"name":"Obshtina Kuklen","lat":42.03725,"lng":24.77949},{"id":9519,"name":"Obshtina Laki","lat":41.81667,"lng":24.85},{"id":9530,"name":"Obshtina Maritsa","lat":42.23333,"lng":24.8},{"id":9548,"name":"Obshtina Parvomay","lat":42.03333,"lng":25.2},{"id":9553,"name":"Obshtina Perushtitsa","lat":42.06667,"lng":24.55},{"id":9558,"name":"Obshtina Plovdiv","lat":42.15,"lng":24.75},{"id":9569,"name":"Obshtina Rakovski","lat":42.26667,"lng":24.98333},{"id":9573,"name":"Obshtina Rodopi","lat":42.03333,"lng":24.68333},{"id":9578,"name":"Obshtina Sadovo","lat":42.13333,"lng":25.0},{"id":9579,"name":"Obshtina Saedinenie","lat":42.31667,"lng":24.58333},{"id":9595,"name":"Obshtina Sopot","lat":42.65214,"lng":24.7431},{"id":9597,"name":"Obshtina Stamboliyski","lat":42.11667,"lng":24.51667},{"id":9645,"name":"Parvomay","lat":42.1,"lng":25.21667},{"id":9651,"name":"Perushtitsa","lat":42.05,"lng":24.55},{"id":9656,"name":"Plovdiv","lat":42.1418541,"lng":24.7499297},{"id":9667,"name":"Rakovski","lat":42.27408,"lng":24.94083},{"id":9677,"name":"Sadovo","lat":42.13178,"lng":24.93999},{"id":9678,"name":"Saedinenie","lat":42.26667,"lng":24.55},{"id":9704,"name":"Stamboliyski","lat":42.13333,"lng":24.53333},{"id":9723,"name":"Topolovo","lat":41.9,"lng":25.0}]