[{"id":9276,"name":"Boboshevo","lat":42.15296,"lng":23.00146},{"id":9277,"name":"Bobov Dol","lat":42.36256,"lng":23.00324},{"id":9321,"name":"Dupnitsa","lat":42.26667,"lng":23.11667},{"id":9367,"name":"Kocherinovo","lat":42.08439,"lng":23.0571},{"id":9381,"name":"Kyustendil","lat":42.28389,"lng":22.69111},{"id":9407,"name":"Nevestino","lat":42.25551,"lng":22.85175},{"id":9430,"name":"Obshtina Boboshevo","lat":42.18333,"lng":23.02731},{"id":9431,"name":"Obshtina Bobov Dol","lat":42.31667,"lng":22.98333},{"id":9467,"name":"Obshtina Dupnitsa","lat":42.28333,"lng":23.15},{"id":9504,"name":"Obshtina Kocherinovo","lat":42.09909,"lng":23.02942},{"id":9518,"name":"Obshtina Kyustendil","lat":42.28333,"lng":22.68333},{"id":9539,"name":"Obshtina Nevestino","lat":42.16667,"lng":22.83333},{"id":9572,"name":"Obshtina Rila","lat":42.15,"lng":23.31667},{"id":9583,"name":"Obshtina Sapareva Banya","lat":42.28333,"lng":23.31667},{"id":9614,"name":"Obshtina Treklyano","lat":42.55,"lng":22.6},{"id":9671,"name":"Rila","lat":42.13333,"lng":23.13333},{"id":9682,"name":"Sapareva Banya","lat":42.28333,"lng":23.26667}]