[{"id":9256,"name":"Apriltsi","lat":42.84142,"lng":24.91759},{"id":9385,"name":"Letnitsa","lat":43.31167,"lng":25.07333},{"id":9388,"name":"Lovech","lat":43.13333,"lng":24.71667},{"id":9390,"name":"Lukovit","lat":43.2,"lng":24.16667},{"id":9523,"name":"Obshtina Lovech","lat":43.16667,"lng":24.8},{"id":9612,"name":"Obshtina Teteven","lat":42.91667,"lng":24.26667},{"id":9621,"name":"Obshtina Ugarchin","lat":43.1,"lng":24.41667},{"id":9721,"name":"Teteven","lat":42.9178262,"lng":24.2651138},{"id":9725,"name":"Troyan","lat":42.89427,"lng":24.71589},{"id":9732,"name":"Ugarchin","lat":43.0960171,"lng":24.4209919},{"id":9743,"name":"Yablanitsa","lat":43.03139,"lng":24.11278}]