[{"id":9281,"name":"Borovo","lat":43.50086,"lng":25.80992},{"id":9322,"name":"Dve Mogili","lat":43.59258,"lng":25.87486},{"id":9349,"name":"Ivanovo","lat":43.68568,"lng":25.95565},{"id":9435,"name":"Obshtina Borovo","lat":43.6,"lng":25.8},{"id":9443,"name":"Obshtina Byala","lat":43.41667,"lng":25.83333},{"id":9468,"name":"Obshtina Dve Mogili","lat":43.51667,"lng":25.96667},{"id":9492,"name":"Obshtina Ivanovo","lat":43.7,"lng":25.98333},{"id":9576,"name":"Obshtina Ruse","lat":43.85,"lng":26.08333},{"id":9593,"name":"Obshtina Slivo Pole","lat":43.96667,"lng":26.3},{"id":9617,"name":"Obshtina Tsenovo","lat":43.58333,"lng":25.61667},{"id":9628,"name":"Obshtina Vetovo","lat":43.71667,"lng":26.33333},{"id":9675,"name":"Ruse","lat":43.84872,"lng":25.9534},{"id":9687,"name":"Senovo","lat":43.65,"lng":26.36667},{"id":9699,"name":"Slivo Pole","lat":43.94248,"lng":26.20464},{"id":9729,"name":"Tsenovo","lat":43.53588,"lng":25.65764},{"id":9739,"name":"Vetovo","lat":43.7,"lng":26.26667}]