[{"id":9252,"name":"Aksakovo","lat":43.25615,"lng":27.82105},{"id":9260,"name":"Asparuhovo","lat":43.18067,"lng":27.88823},{"id":9263,"name":"Balgarevo","lat":43.40296,"lng":28.41189},{"id":9272,"name":"Beloslav","lat":43.1896,"lng":27.70429},{"id":9293,"name":"Byala","lat":42.87426,"lng":27.88865},{"id":9304,"name":"Dalgopol","lat":43.0526157,"lng":27.3460079},{"id":9307,"name":"Devnya","lat":43.22222,"lng":27.56944},{"id":9313,"name":"Dolni Chiflik","lat":42.99296,"lng":27.71596},{"id":9364,"name":"Kiten","lat":43.08333,"lng":27.31667},{"id":9412,"name":"Obshtina Aksakovo","lat":43.31667,"lng":27.85},{"id":9418,"name":"Obshtina Avren","lat":43.1,"lng":27.71667},{"id":9427,"name":"Obshtina Beloslav","lat":43.2,"lng":27.73333},{"id":9444,"name":"Obshtina Byala","lat":42.88333,"lng":27.81667},{"id":9452,"name":"Obshtina Dalgopol","lat":43.05,"lng":27.35},{"id":9454,"name":"Obshtina Devnya","lat":43.22056,"lng":27.60052},{"id":9461,"name":"Obshtina Dolni Chiflik","lat":42.96667,"lng":27.68333},{"id":9565,"name":"Obshtina Provadia","lat":43.18333,"lng":27.4},{"id":9606,"name":"Obshtina Suvorovo","lat":43.33333,"lng":27.65},{"id":9623,"name":"Obshtina Valchidol","lat":43.45,"lng":27.5},{"id":9624,"name":"Obshtina Varna","lat":43.21667,"lng":27.91667},{"id":9629,"name":"Obshtina Vetrino","lat":43.31667,"lng":27.43333},{"id":9663,"name":"Provadia","lat":43.18333,"lng":27.43333},{"id":9714,"name":"Suvorovo","lat":43.33058,"lng":27.59908},{"id":9734,"name":"Valchidol","lat":43.4,"lng":27.55},{"id":9735,"name":"Varna","lat":43.2073873,"lng":27.9166653},{"id":9740,"name":"Vetrino","lat":43.3410065,"lng":27.3861108},{"id":9751,"name":"Zlatni Pyasatsi","lat":43.285,"lng":28.0418}]