[{"id":89925,"name":"Alexandria","lat":43.98333,"lng":25.33333},{"id":90473,"name":"Băbăiţa","lat":44.16667,"lng":25.38333},{"id":90478,"name":"Băcălești","lat":44.05997,"lng":24.81636},{"id":90023,"name":"Baciu","lat":44.33152,"lng":25.44429},{"id":90485,"name":"Băduleasa","lat":43.92286,"lng":24.98274},{"id":90037,"name":"Balaci","lat":44.35,"lng":24.91667},{"id":90529,"name":"Băneasa","lat":43.93975,"lng":24.94997},{"id":90466,"name":"Bâscoveni","lat":44.24444,"lng":25.35998},{"id":90078,"name":"Beciu","lat":44.00429,"lng":24.66571},{"id":90082,"name":"Beiu","lat":43.87352,"lng":25.45548},{"id":90121,"name":"Beuca","lat":44.252,"lng":24.96637},{"id":90157,"name":"Blejeşti","lat":44.3,"lng":25.46667},{"id":90189,"name":"Bogdana","lat":43.93333,"lng":25.08333},{"id":90246,"name":"Botoroaga","lat":44.14833,"lng":25.54472},{"id":90263,"name":"Bragadiru","lat":43.76667,"lng":25.51667},{"id":90318,"name":"Brânceni","lat":43.88333,"lng":25.4},{"id":90319,"name":"Brâncoveanca","lat":43.94075,"lng":24.69336},{"id":90398,"name":"Bujoreni","lat":44.11667,"lng":25.63333},{"id":90400,"name":"Bujoru","lat":43.71667,"lng":25.56667},{"id":90431,"name":"Buzescu","lat":44.01667,"lng":25.23333},{"id":93837,"name":"Călineşti","lat":44.08333,"lng":25.23333},{"id":93843,"name":"Călmăţuiu","lat":43.96667,"lng":24.86667},{"id":93844,"name":"Călmățuiu de Sus","lat":44.02632,"lng":24.8123},{"id":90564,"name":"Calomfirești","lat":43.91736,"lng":25.35801},{"id":90632,"name":"Cernetu","lat":43.90727,"lng":25.45688},{"id":90643,"name":"Cervenia","lat":43.83333,"lng":25.46667},{"id":90738,"name":"Ciuani","lat":44.23333,"lng":25.65},{"id":90754,"name":"Ciuperceni","lat":43.76667,"lng":24.95},{"id":91202,"name":"Comuna Băbăiţa","lat":44.13909,"lng":25.39156},{"id":90921,"name":"Comuna Balaci","lat":44.35188,"lng":24.90962},{"id":90946,"name":"Comuna Beciu","lat":44.01272,"lng":24.66163},{"id":90979,"name":"Comuna Beuca","lat":44.26595,"lng":24.97928},{"id":91002,"name":"Comuna Blejeşti","lat":44.30317,"lng":25.45269},{"id":91024,"name":"Comuna Bogdana","lat":43.9286,"lng":25.08358},{"id":91063,"name":"Comuna Botoroaga","lat":44.14997,"lng":25.55171},{"id":91074,"name":"Comuna Bragadiru","lat":43.76059,"lng":25.51984},{"id":91109,"name":"Comuna Brânceni","lat":43.87792,"lng":25.39711},{"id":91156,"name":"Comuna Bujoreni","lat":44.12054,"lng":25.65152},{"id":91157,"name":"Comuna Bujoru","lat":43.71092,"lng":25.56315},{"id":91179,"name":"Comuna Buzescu","lat":44.01081,"lng":25.22886},{"id":91573,"name":"Comuna Călineşti","lat":44.11002,"lng":25.21305},{"id":91560,"name":"Comuna Cãlmãţuiu","lat":43.96083,"lng":24.85612},{"id":91561,"name":"Comuna Cãlmãţuiu De Sus","lat":44.04404,"lng":24.81582},{"id":91300,"name":"Comuna Cervenia","lat":43.83585,"lng":25.4605},{"id":91351,"name":"Comuna Ciolăneşti","lat":44.31372,"lng":25.08333},{"id":91373,"name":"Comuna Ciuperceni","lat":43.75115,"lng":24.94397},{"id":91415,"name":"Comuna Conţeşti","lat":43.79183,"lng":25.4953},{"id":91450,"name":"Comuna Cosmeşti","lat":44.30661,"lng":25.38602},{"id":91513,"name":"Comuna Crângeni","lat":44.0137,"lng":24.80845},{"id":91514,"name":"Comuna Crângu","lat":43.8449,"lng":25.08121},{"id":91491,"name":"Comuna Crevenicu","lat":44.24508,"lng":25.57385},{"id":91624,"name":"Comuna Dideşti","lat":44.22331,"lng":24.88878},{"id":91642,"name":"Comuna Dobroteşti","lat":44.26466,"lng":24.88097},{"id":91669,"name":"Comuna Dracea","lat":43.87177,"lng":25.03182},{"id":91682,"name":"Comuna Drãcşenei","lat":44.20715,"lng":25.0037},{"id":91702,"name":"Comuna Drăgăneşti de Vede","lat":44.13081,"lng":25.0487},{"id":91703,"name":"Comuna Drăgăneşti-Vlaşca","lat":44.09517,"lng":25.54848},{"id":91793,"name":"Comuna Frăsinet","lat":44.18808,"lng":25.37818},{"id":91783,"name":"Comuna Frumoasa","lat":43.80298,"lng":25.46311},{"id":91803,"name":"Comuna Furculeşti","lat":43.86572,"lng":25.1398},{"id":91984,"name":"Comuna Gălăţeni","lat":44.22491,"lng":25.36466},{"id":91911,"name":"Comuna Gratia","lat":44.43382,"lng":25.44103},{"id":92093,"name":"Comuna Islaz","lat":43.75179,"lng":24.74381},{"id":92106,"name":"Comuna Izvoarele","lat":43.82717,"lng":25.39459},{"id":92172,"name":"Comuna Lisa","lat":43.7723,"lng":25.14919},{"id":92180,"name":"Comuna Liţa","lat":43.79545,"lng":24.82157},{"id":92200,"name":"Comuna Lunca","lat":43.85788,"lng":24.7861},{"id":92390,"name":"Comuna Măgura","lat":44.04054,"lng":25.3959},{"id":92396,"name":"Comuna Măldăeni","lat":44.12658,"lng":24.92327},{"id":92372,"name":"Comuna Mârzãneşti","lat":43.93154,"lng":25.4623},{"id":92248,"name":"Comuna Mavrodin","lat":44.03559,"lng":25.24088},{"id":92257,"name":"Comuna Mereni","lat":44.22879,"lng":25.64434},{"id":92426,"name":"Comuna Nanov","lat":43.99171,"lng":25.28894},{"id":92466,"name":"Comuna Năsturelu","lat":43.66634,"lng":25.43856},{"id":92427,"name":"Comuna Necşeşti","lat":44.26085,"lng":25.13225},{"id":92437,"name":"Comuna Nenciuleşti","lat":44.0386,"lng":25.18551},{"id":92497,"name":"Comuna Olteni","lat":44.18976,"lng":25.278},{"id":92506,"name":"Comuna Orbeasca","lat":44.11606,"lng":25.32708},{"id":92547,"name":"Comuna Peretu","lat":44.04372,"lng":25.09285},{"id":92573,"name":"Comuna Piatra","lat":43.81058,"lng":25.16777},{"id":92581,"name":"Comuna Pietroşani","lat":43.71364,"lng":25.63998},{"id":92597,"name":"Comuna Plopii Slăviţeşti","lat":43.96098,"lng":24.68525},{"id":92601,"name":"Comuna Plosca","lat":44.02338,"lng":25.1492},{"id":92618,"name":"Comuna Poeni","lat":44.43297,"lng":25.33868},{"id":92660,"name":"Comuna Poroschia","lat":43.92887,"lng":25.3576},{"id":92698,"name":"Comuna Purani","lat":44.36509,"lng":25.41322},{"id":92699,"name":"Comuna Putineiu","lat":43.91429,"lng":24.96969},{"id":92830,"name":"Comuna Rãdoieşti","lat":44.14377,"lng":25.15357},{"id":92848,"name":"Comuna Răsmireşti","lat":43.99981,"lng":25.57118},{"id":93084,"name":"Comuna Săceni","lat":44.2331,"lng":25.06073},{"id":92861,"name":"Comuna Saelele","lat":43.85274,"lng":24.73838},{"id":92864,"name":"Comuna Salcia","lat":43.94157,"lng":24.92663},{"id":92897,"name":"Comuna Scrioaştea","lat":44.16453,"lng":24.95299},{"id":92899,"name":"Comuna Scurtu Mare","lat":44.35259,"lng":25.25895},{"id":92908,"name":"Comuna Seaca","lat":43.74933,"lng":25.07423},{"id":92918,"name":"Comuna Segarcea Vale","lat":43.82417,"lng":24.81422},{"id":92922,"name":"Comuna Sfinţeşti","lat":44.18824,"lng":25.10389},{"id":92930,"name":"Comuna Siliştea","lat":44.37398,"lng":25.35104},{"id":92934,"name":"Comuna Siliștea Gumești","lat":44.38028,"lng":25.01389},{"id":92959,"name":"Comuna Slobozia-Mândra","lat":43.91576,"lng":24.69914},{"id":92966,"name":"Comuna Smârdioasa","lat":43.83939,"lng":25.4419},{"id":92989,"name":"Comuna Stejaru","lat":44.17715,"lng":24.88208},{"id":93000,"name":"Comuna Storobăneasa","lat":43.87974,"lng":25.45622},{"id":93029,"name":"Comuna Suhaia","lat":43.73953,"lng":25.25291},{"id":93121,"name":"Comuna Talpa","lat":44.2807,"lng":25.30919},{"id":93248,"name":"Comuna Tătărăştii de Jos","lat":44.3696,"lng":25.19385},{"id":93249,"name":"Comuna Tătărăştii de Sus","lat":44.40857,"lng":25.13146},{"id":93575,"name":"Comuna Ţigăneşti","lat":43.90141,"lng":25.37804},{"id":93188,"name":"Comuna Traian","lat":43.7672,"lng":25.00494},{"id":93195,"name":"Comuna Trivalea-Moşteni","lat":44.262,"lng":25.24082},{"id":93196,"name":"Comuna Troianul","lat":44.00415,"lng":25.024},{"id":93253,"name":"Comuna Uda-Clocociov","lat":43.88385,"lng":24.71908},{"id":93445,"name":"Comuna Vârtoape","lat":44.19981,"lng":25.19797},{"id":93340,"name":"Comuna Vedea","lat":44.09436,"lng":25.07495},{"id":93359,"name":"Comuna Viişoara","lat":43.77985,"lng":25.1752},{"id":93371,"name":"Comuna Vităneşti","lat":43.99272,"lng":25.45246},{"id":93482,"name":"Comuna Zâmbreasca","lat":44.3035,"lng":24.99847},{"id":93596,"name":"Conţeşti","lat":43.8,"lng":25.48333},{"id":93653,"name":"Cosmeşti","lat":44.3,"lng":25.38333},{"id":93747,"name":"Crângeni","lat":44.03333,"lng":24.78333},{"id":93748,"name":"Crângu","lat":43.84611,"lng":25.0735},{"id":93712,"name":"Crevenicu","lat":44.24083,"lng":25.58861},{"id":93759,"name":"Cucueți","lat":44.18432,"lng":24.94826},{"id":93921,"name":"Deparați","lat":44.28116,"lng":25.22151},{"id":93935,"name":"Didești","lat":44.21667,"lng":24.88333},{"id":93950,"name":"Dobreni","lat":44.41667,"lng":25.11667},{"id":93965,"name":"Dobroteşti","lat":44.28333,"lng":24.88333},{"id":94009,"name":"Dracea","lat":43.84914,"lng":25.05194},{"id":94034,"name":"Drăcşani","lat":44.21667,"lng":24.98333},{"id":94035,"name":"Drăcșenei","lat":44.22676,"lng":24.98542},{"id":94060,"name":"Drăgăneşti de Vede","lat":44.13333,"lng":25.05},{"id":94062,"name":"Drăgăneşti-Vlaşca","lat":44.10139,"lng":25.59806},{"id":94040,"name":"Drăghinești","lat":44.43093,"lng":25.42608},{"id":94072,"name":"Dudu","lat":43.97897,"lng":24.67786},{"id":94237,"name":"Fântânele","lat":43.7210353,"lng":25.2926524},{"id":94218,"name":"Frăsinet","lat":44.18038,"lng":25.38238},{"id":94207,"name":"Frumoasa","lat":43.8,"lng":25.46667},{"id":94233,"name":"Furculești","lat":43.87202,"lng":25.14285},{"id":94507,"name":"Gălăţeni","lat":44.21667,"lng":25.35},{"id":94512,"name":"Gărăgău","lat":44.23186,"lng":25.1892},{"id":94401,"name":"Gratia","lat":44.43333,"lng":25.45},{"id":94473,"name":"Guruieni","lat":44.05845,"lng":25.39656},{"id":94691,"name":"Islaz","lat":43.72006,"lng":24.76436},{"id":94711,"name":"Izvoarele","lat":43.81667,"lng":25.38333},{"id":94888,"name":"Lăceni","lat":44.08466,"lng":25.3327},{"id":94808,"name":"Lisa","lat":43.8,"lng":25.13333},{"id":94826,"name":"Liţa","lat":43.8,"lng":24.81667},{"id":94860,"name":"Lunca","lat":43.83333,"lng":24.76667},{"id":95239,"name":"Măgura","lat":44.03333,"lng":25.4},{"id":95251,"name":"Măldăeni","lat":44.11667,"lng":24.93333},{"id":95221,"name":"Mârzăneşti","lat":43.93333,"lng":25.46667},{"id":94937,"name":"Mavrodin","lat":44.03333,"lng":25.25},{"id":94953,"name":"Merenii de Jos","lat":44.23214,"lng":25.64346},{"id":94954,"name":"Merenii de Sus","lat":44.22839,"lng":25.62103},{"id":94960,"name":"Merișani","lat":44.2519,"lng":24.8755},{"id":95065,"name":"Moldoveni","lat":43.77772,"lng":24.72802},{"id":95096,"name":"Moșteni","lat":44.1978737,"lng":25.5085443},{"id":95108,"name":"Municipiul Alexandria","lat":43.96967,"lng":25.33272},{"id":95173,"name":"Municipiul Roșiorii de Vede","lat":44.11368,"lng":24.98722},{"id":95190,"name":"Municipiul Turnu Magurele","lat":43.74646,"lng":24.86893},{"id":95302,"name":"Nanov","lat":44.0,"lng":25.3},{"id":95375,"name":"Năsturelu","lat":43.66667,"lng":25.46667},{"id":95378,"name":"Năvodari","lat":43.74208,"lng":25.0941},{"id":95304,"name":"Necşeşti","lat":44.25,"lng":25.15},{"id":95327,"name":"Nenciulești","lat":44.03486,"lng":25.20061},{"id":95429,"name":"Olteanca","lat":43.83047,"lng":24.79597},{"id":95432,"name":"Olteni","lat":44.18333,"lng":25.28333},{"id":95618,"name":"Oraş Videle","lat":44.2766,"lng":25.57844},{"id":95623,"name":"Oraş Zimnicea","lat":43.6566,"lng":25.36603},{"id":95653,"name":"Orbeasca de Jos","lat":44.12177,"lng":25.32952},{"id":95654,"name":"Orbeasca de Sus","lat":44.15,"lng":25.31667},{"id":95727,"name":"Peretu","lat":44.05,"lng":25.08333},{"id":95734,"name":"Perii Broșteni","lat":44.20336,"lng":25.26377},{"id":95770,"name":"Piatra","lat":43.81667,"lng":25.16667},{"id":95789,"name":"Pietroşani","lat":43.71383,"lng":25.64409},{"id":95808,"name":"Pleașov","lat":43.84971,"lng":24.74886},{"id":95820,"name":"Plopii Slăviţeştí","lat":43.96667,"lng":24.68333},{"id":95827,"name":"Plosca","lat":44.03333,"lng":25.13333},{"id":95853,"name":"Poeni","lat":44.4,"lng":25.33333},{"id":95860,"name":"Poiana","lat":43.74192,"lng":24.95244},{"id":95917,"name":"Poporogi","lat":44.36667,"lng":25.18333},{"id":95921,"name":"Poroschia","lat":43.93333,"lng":25.36667},{"id":95965,"name":"Prundu","lat":43.82394,"lng":24.69196},{"id":95983,"name":"Purani","lat":43.97989,"lng":25.43656},{"id":95989,"name":"Putineiu","lat":43.9,"lng":24.96667},{"id":96198,"name":"Rădoiești-Deal","lat":44.15,"lng":25.13333},{"id":96207,"name":"Răsmireşti","lat":43.98333,"lng":25.55},{"id":96141,"name":"Roșiorii de Vede","lat":44.11667,"lng":24.98333},{"id":105995,"name":"Săceni","lat":44.23333,"lng":25.06667},{"id":96227,"name":"Saelele","lat":43.85577,"lng":24.72789},{"id":96230,"name":"Salcia","lat":43.95,"lng":24.91667},{"id":105983,"name":"Sârbeni","lat":44.4724151,"lng":25.3848917},{"id":96284,"name":"Scrioaştea","lat":44.15,"lng":24.95},{"id":96290,"name":"Scurtu Mare","lat":44.35,"lng":25.26667},{"id":96299,"name":"Seaca","lat":43.75,"lng":25.06667},{"id":96320,"name":"Segarcea Vale","lat":43.81667,"lng":24.8},{"id":96321,"name":"Segarcea-Deal","lat":43.82548,"lng":24.8402},{"id":96327,"name":"Sfinţeşti","lat":44.18333,"lng":25.1},{"id":96339,"name":"Siliştea","lat":44.38333,"lng":25.35},{"id":96344,"name":"Siliștea Gumești","lat":44.38333,"lng":25.0},{"id":96379,"name":"Slobozia-Mândra","lat":43.91667,"lng":24.7},{"id":96392,"name":"Smârdioasa","lat":43.85,"lng":25.43333},{"id":96394,"name":"Socetu","lat":44.19502,"lng":24.85421},{"id":96420,"name":"Spătărei","lat":43.88848,"lng":25.1365},{"id":96428,"name":"Stejaru","lat":44.18333,"lng":24.88333},{"id":96446,"name":"Storobăneasa","lat":43.88333,"lng":25.45},{"id":96495,"name":"Suhaia","lat":43.73333,"lng":25.25},{"id":106052,"name":"Talpa-Ogrăzile","lat":44.28726,"lng":25.29328},{"id":106053,"name":"Talpa-Trivalea","lat":44.28333,"lng":25.28333},{"id":96594,"name":"Târnava","lat":44.1444,"lng":25.56347},{"id":96623,"name":"Tătărăștii de Jos","lat":44.37501,"lng":25.17721},{"id":96624,"name":"Tătărăștii de Sus","lat":44.40768,"lng":25.12192},{"id":106070,"name":"Tecuci","lat":44.34179,"lng":24.85966},{"id":106079,"name":"Teleormanu","lat":43.96271,"lng":25.45876},{"id":97107,"name":"Ţigăneşti","lat":43.9,"lng":25.36667},{"id":106148,"name":"Traian","lat":43.76667,"lng":25.0},{"id":106160,"name":"Trivalea-Moşteni","lat":44.26667,"lng":25.23333},{"id":106161,"name":"Troianul","lat":44.0,"lng":25.0},{"id":106167,"name":"Tudor Vladimirescu","lat":43.94761,"lng":24.90616},{"id":96565,"name":"Turnu Măgurele","lat":43.7469,"lng":24.86846},{"id":96636,"name":"Uda-Clocociov","lat":43.88791,"lng":24.71437},{"id":96637,"name":"Uda-Paciurea","lat":43.87979,"lng":24.72379},{"id":96639,"name":"Udupu","lat":44.39657,"lng":25.14488},{"id":96716,"name":"Valea Cireșului","lat":44.16699,"lng":25.56437},{"id":96746,"name":"Valea Părului","lat":43.91727,"lng":25.46589},{"id":96945,"name":"Vârtoapele de Jos","lat":44.18333,"lng":25.2},{"id":96946,"name":"Vârtoapele de Sus","lat":44.19182,"lng":25.20025},{"id":96781,"name":"Vedea","lat":44.08333,"lng":25.06667},{"id":96807,"name":"Videle","lat":44.27806,"lng":25.52444},{"id":96822,"name":"Viişoara","lat":43.78333,"lng":25.16667},{"id":96841,"name":"Vităneşti","lat":44.0,"lng":25.41667},{"id":97007,"name":"Zâmbreasca","lat":44.31667,"lng":24.98333},{"id":96995,"name":"Zimnicea","lat":43.65638,"lng":25.36454},{"id":96996,"name":"Zimnicele","lat":43.66126,"lng":25.41291}]