[{"id":104704,"name":"Dakar","lat":14.6937,"lng":-17.44406},{"id":104705,"name":"Dakar Department","lat":14.71403,"lng":-17.45534},{"id":104716,"name":"Guédiawaye Department","lat":14.7761,"lng":-17.3956},{"id":104737,"name":"Mermoz Boabab","lat":14.70649,"lng":-17.47581},{"id":104744,"name":"N’diareme limamoulaye","lat":14.78148,"lng":-17.3841},{"id":104748,"name":"Pikine","lat":14.76457,"lng":-17.39071},{"id":104749,"name":"Pikine Department","lat":14.76515,"lng":-17.35198},{"id":104756,"name":"Rufisque Department","lat":14.74339,"lng":-17.19841}]