[{"id":89894,"name":"Aghireșu","lat":46.87209,"lng":23.23773},{"id":89895,"name":"Aghireșu-Fabrici","lat":46.8669,"lng":23.27129},{"id":89906,"name":"Aiton","lat":46.68333,"lng":23.73333},{"id":89941,"name":"Aluniş","lat":47.03333,"lng":23.75},{"id":89969,"name":"Apahida","lat":46.81667,"lng":23.75},{"id":90014,"name":"Aşchileu Dorna","lat":46.98333,"lng":23.48333},{"id":90022,"name":"Baciu","lat":46.8,"lng":23.51667},{"id":90496,"name":"Băişoara","lat":46.58333,"lng":23.46667},{"id":90091,"name":"Beliş","lat":46.65,"lng":23.03333},{"id":90174,"name":"Bobâlna","lat":47.14385,"lng":23.64461},{"id":90192,"name":"Bogdăneşti","lat":46.63333,"lng":23.13333},{"id":90219,"name":"Bonțida","lat":46.9155,"lng":23.81475},{"id":90239,"name":"Borşa","lat":46.93333,"lng":23.66667},{"id":90430,"name":"Buza","lat":46.9,"lng":24.15},{"id":93825,"name":"Căianu","lat":46.7846,"lng":23.9185},{"id":93826,"name":"Căianu Mic","lat":46.78333,"lng":23.91667},{"id":93851,"name":"Călăraşi","lat":46.48333,"lng":23.86667},{"id":93852,"name":"Călăţele","lat":46.76667,"lng":23.01667},{"id":93854,"name":"Cămăraşu","lat":46.78333,"lng":24.13333},{"id":93797,"name":"Câmpia Turzii","lat":46.55,"lng":23.88333},{"id":93861,"name":"Căpuşu Mare","lat":46.78333,"lng":23.3},{"id":93885,"name":"Căşeiu","lat":47.18333,"lng":23.86667},{"id":93822,"name":"Câţcău","lat":47.2,"lng":23.78333},{"id":93879,"name":"Cătina","lat":46.85,"lng":24.18333},{"id":90602,"name":"Ceanu Mare","lat":46.66667,"lng":23.95},{"id":90669,"name":"Chinteni","lat":46.86667,"lng":23.53333},{"id":90685,"name":"Chiuiești","lat":47.29686,"lng":23.87553},{"id":90740,"name":"Ciucea","lat":46.95,"lng":22.81667},{"id":90758,"name":"Ciurila","lat":46.65,"lng":23.55},{"id":90771,"name":"Cluj-Napoca","lat":46.76667,"lng":23.6},{"id":90790,"name":"Cojocna","lat":46.75,"lng":23.83333},{"id":90830,"name":"Comuna Aghireşu","lat":46.87785,"lng":23.2532},{"id":90836,"name":"Comuna Aiton","lat":46.68275,"lng":23.71608},{"id":90860,"name":"Comuna Aluniş","lat":47.05595,"lng":23.74365},{"id":90876,"name":"Comuna Apahida","lat":46.78296,"lng":23.74433},{"id":90910,"name":"Comuna Aşchileu","lat":46.98498,"lng":23.48468},{"id":90914,"name":"Comuna Baciu","lat":46.8201,"lng":23.49036},{"id":91208,"name":"Comuna Băişoara","lat":46.58331,"lng":23.39349},{"id":90955,"name":"Comuna Beliş","lat":46.65246,"lng":22.95213},{"id":91013,"name":"Comuna Bobâlna","lat":47.13319,"lng":23.65163},{"id":91044,"name":"Comuna Bonţida","lat":46.90036,"lng":23.82228},{"id":91057,"name":"Comuna Borşa","lat":46.92402,"lng":23.6494},{"id":91178,"name":"Comuna Buza","lat":46.90492,"lng":24.18041},{"id":91567,"name":"Comuna Căianu","lat":46.8067,"lng":23.90883},{"id":91578,"name":"Comuna Călăraşi","lat":46.49376,"lng":23.85359},{"id":91579,"name":"Comuna Călăţele","lat":46.76282,"lng":23.03046},{"id":91580,"name":"Comuna Cămăraşu","lat":46.78695,"lng":24.11369},{"id":91564,"name":"Comuna Cãpuşu Mare","lat":46.78746,"lng":23.23462},{"id":91598,"name":"Comuna Căşeiu","lat":47.2381,"lng":23.86404},{"id":91558,"name":"Comuna Câţcău","lat":47.23058,"lng":23.79331},{"id":91594,"name":"Comuna Cătina","lat":46.85179,"lng":24.16497},{"id":91273,"name":"Comuna Ceanu Mare","lat":46.65324,"lng":23.94586},{"id":91316,"name":"Comuna Chinteni","lat":46.88822,"lng":23.55319},{"id":91327,"name":"Comuna Chiuieşti","lat":47.32292,"lng":23.92016},{"id":91362,"name":"Comuna Ciucea","lat":46.95981,"lng":22.84363},{"id":91376,"name":"Comuna Ciurila","lat":46.63372,"lng":23.53979},{"id":91395,"name":"Comuna Cojocna","lat":46.72137,"lng":23.83949},{"id":91438,"name":"Comuna Corneşti","lat":47.02811,"lng":23.685},{"id":91537,"name":"Comuna Cuzdrioara","lat":47.18274,"lng":23.93248},{"id":91731,"name":"Comuna Dăbâca","lat":46.96989,"lng":23.69456},{"id":91756,"name":"Comuna Feleacu","lat":46.70345,"lng":23.64021},{"id":91769,"name":"Comuna Fizeşu Gherlii","lat":46.99442,"lng":23.94727},{"id":91770,"name":"Comuna Floreşti","lat":46.73375,"lng":23.47861},{"id":91780,"name":"Comuna Frata","lat":46.69878,"lng":24.05385},{"id":91967,"name":"Comuna Gârbãu","lat":46.84059,"lng":23.37049},{"id":91835,"name":"Comuna Geaca","lat":46.88141,"lng":24.06256},{"id":91868,"name":"Comuna Gilău","lat":46.72607,"lng":23.34909},{"id":92055,"name":"Comuna Iara","lat":46.54268,"lng":23.52749},{"id":92059,"name":"Comuna Iclod","lat":46.99174,"lng":23.81618},{"id":92112,"name":"Comuna Izvoru Crişului","lat":46.84542,"lng":23.10025},{"id":92120,"name":"Comuna Jichişu De Jos","lat":47.12028,"lng":23.76788},{"id":92132,"name":"Comuna Jucu","lat":46.84958,"lng":23.80953},{"id":92197,"name":"Comuna Luna","lat":46.47522,"lng":23.94928},{"id":92375,"name":"Comuna Mãguri-Rãcãtãu","lat":46.63948,"lng":23.19485},{"id":92371,"name":"Comuna Mânăstireni","lat":46.79131,"lng":23.09871},{"id":92410,"name":"Comuna Mărgău","lat":46.75677,"lng":22.94429},{"id":92411,"name":"Comuna Mărişel","lat":46.68422,"lng":23.11466},{"id":92263,"name":"Comuna Mica","lat":47.14436,"lng":23.97593},{"id":92273,"name":"Comuna Mihai Viteazu","lat":46.53477,"lng":23.71595},{"id":92293,"name":"Comuna Mintiu Gherlii","lat":47.07323,"lng":23.92731},{"id":92314,"name":"Comuna Mociu","lat":46.79232,"lng":24.02853},{"id":92325,"name":"Comuna Moldoveneşti","lat":46.4735,"lng":23.68905},{"id":92431,"name":"Comuna Negreni","lat":46.95224,"lng":22.75835},{"id":92710,"name":"Comuna Pãlatca","lat":46.87358,"lng":23.98288},{"id":92535,"name":"Comuna Panticeu","lat":47.04079,"lng":23.55639},{"id":92564,"name":"Comuna Petreştii De Jos","lat":46.58162,"lng":23.62191},{"id":92602,"name":"Comuna Ploscoş","lat":46.66066,"lng":23.84322},{"id":92640,"name":"Comuna Poieni","lat":46.88361,"lng":22.86041},{"id":92829,"name":"Comuna Râșca","lat":46.73082,"lng":23.15413},{"id":92756,"name":"Comuna Recea Cristur","lat":47.12155,"lng":23.54554},{"id":93074,"name":"Comuna Sãcuieu","lat":46.816,"lng":22.8601},{"id":93050,"name":"Comuna Sâncraiu","lat":46.8341,"lng":22.99135},{"id":93103,"name":"Comuna Sănduleşti","lat":46.58887,"lng":23.73049},{"id":93060,"name":"Comuna Sânmărtin","lat":47.00708,"lng":24.07336},{"id":93062,"name":"Comuna Sânpaul","lat":46.89597,"lng":23.41731},{"id":93119,"name":"Comuna Săvădisla","lat":46.6654,"lng":23.44808},{"id":92925,"name":"Comuna Sic","lat":46.93134,"lng":23.89615},{"id":93023,"name":"Comuna Suatu","lat":46.75372,"lng":23.9582},{"id":93567,"name":"Comuna Ţaga","lat":46.951,"lng":24.02605},{"id":93194,"name":"Comuna Tritenii De Jos","lat":46.58735,"lng":24.00139},{"id":93213,"name":"Comuna Tureni","lat":46.63917,"lng":23.67684},{"id":93289,"name":"Comuna Vad","lat":47.20634,"lng":23.71403},{"id":93307,"name":"Comuna Valea Ierii","lat":46.64086,"lng":23.31997},{"id":93358,"name":"Comuna Viişoara","lat":46.55377,"lng":23.93583},{"id":93416,"name":"Comuna Vultureni","lat":46.95597,"lng":23.56762},{"id":93605,"name":"Copăceni","lat":46.59675,"lng":23.73886},{"id":93634,"name":"Corneşti","lat":47.03333,"lng":23.68333},{"id":93788,"name":"Cuzdrioara","lat":47.16667,"lng":23.91667},{"id":94115,"name":"Dăbâca","lat":46.98333,"lng":23.66667},{"id":93910,"name":"Dej","lat":47.15,"lng":23.86667},{"id":93931,"name":"Dezmir","lat":46.76475,"lng":23.72451},{"id":94154,"name":"Feleacu","lat":46.71667,"lng":23.61667},{"id":94181,"name":"Fizeşu Gherlii","lat":47.01667,"lng":23.98333},{"id":94185,"name":"Floreşti","lat":46.74574,"lng":23.49375},{"id":94202,"name":"Frata","lat":46.7,"lng":24.05},{"id":94485,"name":"Gârbău","lat":46.83305,"lng":23.3524},{"id":94285,"name":"Geaca","lat":46.86667,"lng":24.1},{"id":94304,"name":"Gheorghieni","lat":46.71393,"lng":23.68853},{"id":94308,"name":"Gherla","lat":47.03333,"lng":23.91667},{"id":94344,"name":"Gilău","lat":46.73245,"lng":23.36174},{"id":94572,"name":"Huedin","lat":46.86667,"lng":23.05},{"id":94624,"name":"Iara","lat":46.55,"lng":23.51667},{"id":94634,"name":"Iclod","lat":46.98333,"lng":23.8},{"id":94718,"name":"Izvoru Crişului","lat":46.83333,"lng":23.1},{"id":94731,"name":"Jichişu de Jos","lat":47.11667,"lng":23.8},{"id":94851,"name":"Luna","lat":46.50659,"lng":23.91959},{"id":94852,"name":"Luna de Sus","lat":46.74313,"lng":23.43539},{"id":94874,"name":"Luncani","lat":46.47274,"lng":23.95095},{"id":95246,"name":"Măguri","lat":46.62849,"lng":23.10294},{"id":95247,"name":"Măguri-Răcătău","lat":46.645,"lng":23.197},{"id":95219,"name":"Mânăstireni","lat":46.76667,"lng":23.08333},{"id":95275,"name":"Mărgău","lat":46.75,"lng":22.96667},{"id":95276,"name":"Mărişel","lat":46.65,"lng":23.13333},{"id":94948,"name":"Mera","lat":46.81525,"lng":23.45405},{"id":94964,"name":"Mica","lat":47.13333,"lng":23.93333},{"id":94980,"name":"Mihai Viteazu","lat":46.53333,"lng":23.75},{"id":95009,"name":"Mintiu Gherlii","lat":47.05,"lng":23.95},{"id":95045,"name":"Mociu","lat":46.8,"lng":24.03333},{"id":95063,"name":"Moldoveneşti","lat":46.5,"lng":23.65},{"id":95130,"name":"Municipiul Câmpia Turzii","lat":46.54417,"lng":23.88472},{"id":95126,"name":"Municipiul Cluj-Napoca","lat":46.77791,"lng":23.60512},{"id":95135,"name":"Municipiul Dej","lat":47.12783,"lng":23.87504},{"id":95146,"name":"Municipiul Gherla","lat":47.01431,"lng":23.88134},{"id":95189,"name":"Municipiul Turda","lat":46.57456,"lng":23.78574},{"id":95314,"name":"Negreni","lat":46.95378,"lng":22.76347},{"id":95347,"name":"Nireș","lat":47.11499,"lng":23.98092},{"id":95394,"name":"Ocna Dejului","lat":47.11581,"lng":23.85934},{"id":95530,"name":"Oraş Huedin","lat":46.87204,"lng":23.03935},{"id":96010,"name":"Pădureni","lat":46.59316,"lng":24.027},{"id":96011,"name":"Pălatca","lat":46.85,"lng":23.98333},{"id":95709,"name":"Panticeu","lat":47.03333,"lng":23.56667},{"id":95748,"name":"Petreştii de Jos","lat":46.58333,"lng":23.65},{"id":95828,"name":"Ploscoș","lat":46.64303,"lng":23.84663},{"id":95891,"name":"Poieni","lat":46.9188,"lng":22.85826},{"id":96179,"name":"Râșca","lat":46.73967,"lng":23.10625},{"id":96205,"name":"Răscruci","lat":46.90569,"lng":23.7686},{"id":96072,"name":"Recea Cristur","lat":47.06667,"lng":23.53333},{"id":96150,"name":"Rugășești","lat":47.23147,"lng":23.87326},{"id":105998,"name":"Săcuieu","lat":46.82335,"lng":22.88824},{"id":96526,"name":"Sâncraiu","lat":46.83333,"lng":22.98333},{"id":106026,"name":"Sănduleşti","lat":46.58333,"lng":23.71667},{"id":96537,"name":"Sânmărghita","lat":47.15649,"lng":23.99461},{"id":96538,"name":"Sânmărtin","lat":46.9,"lng":23.56667},{"id":96539,"name":"Sânnicoară","lat":46.7899,"lng":23.7257},{"id":96542,"name":"Sânpaul","lat":46.88333,"lng":23.41667},{"id":106049,"name":"Săvădisla","lat":46.68333,"lng":23.45},{"id":96333,"name":"Sic","lat":46.93333,"lng":23.88333},{"id":96411,"name":"Soporu de Câmpie","lat":46.69618,"lng":24.00658},{"id":96485,"name":"Suatu","lat":46.76667,"lng":23.96667},{"id":96487,"name":"Suceagu","lat":46.78432,"lng":23.46511},{"id":97099,"name":"Ţaga","lat":46.95,"lng":24.05},{"id":106158,"name":"Tritenii de Jos","lat":46.58333,"lng":24.0},{"id":106159,"name":"Tritenii de Sus","lat":46.60544,"lng":23.99849},{"id":96558,"name":"Turda","lat":46.56667,"lng":23.78333},{"id":96561,"name":"Tureni","lat":46.62934,"lng":23.7024},{"id":96657,"name":"Unguraş","lat":47.1121163,"lng":24.0511555},{"id":96672,"name":"Urca","lat":46.54885,"lng":23.96187},{"id":96694,"name":"Vad","lat":47.2,"lng":23.75},{"id":96704,"name":"Vaida-Cămăraș","lat":46.82823,"lng":23.94724},{"id":96727,"name":"Valea Ierii","lat":46.65,"lng":23.35},{"id":96820,"name":"Viişoara","lat":46.55,"lng":23.91667},{"id":96907,"name":"Vultureni","lat":46.96667,"lng":23.56667}]