[{"id":90042,"name":"Baldovinești","lat":45.32182,"lng":27.91107},{"id":90547,"name":"Bărăganul","lat":44.8,"lng":27.51667},{"id":90115,"name":"Berteştii de Jos","lat":44.83333,"lng":27.75},{"id":90224,"name":"Bordei Verde","lat":45.08333,"lng":27.56667},{"id":90334,"name":"Brăila","lat":45.27152,"lng":27.97429},{"id":90594,"name":"Cazasu","lat":45.2703697,"lng":27.8863728},{"id":90681,"name":"Chiscani","lat":45.18333,"lng":27.93333},{"id":90709,"name":"Ciocile","lat":44.81667,"lng":27.23333},{"id":90733,"name":"Cireşu","lat":44.95,"lng":27.35},{"id":91243,"name":"Comuna Bărăganul","lat":44.81068,"lng":27.51515},{"id":90973,"name":"Comuna Berteştii de Jos","lat":44.83024,"lng":27.72008},{"id":91047,"name":"Comuna Bordei Verde","lat":45.03225,"lng":27.57088},{"id":91324,"name":"Comuna Chiscani","lat":45.2088,"lng":27.91776},{"id":91342,"name":"Comuna Ciocile","lat":44.82211,"lng":27.2518},{"id":91359,"name":"Comuna Cireşu","lat":44.95368,"lng":27.37901},{"id":91706,"name":"Comuna Dudeşti","lat":44.87624,"lng":27.44325},{"id":91781,"name":"Comuna Frecãţei","lat":44.85977,"lng":28.08422},{"id":91828,"name":"Comuna Galbenu","lat":45.19252,"lng":27.16669},{"id":91836,"name":"Comuna Gemenele","lat":45.28931,"lng":27.65637},{"id":91941,"name":"Comuna Grădiştea","lat":45.24832,"lng":27.38192},{"id":91924,"name":"Comuna Gropeni","lat":45.07328,"lng":27.88606},{"id":92126,"name":"Comuna Jirlău","lat":45.15314,"lng":27.209},{"id":92405,"name":"Comuna Măraşu","lat":45.00807,"lng":27.98062},{"id":92422,"name":"Comuna Măxineni","lat":45.41803,"lng":27.6647},{"id":92295,"name":"Comuna Mircea Vodă","lat":45.12889,"lng":27.38258},{"id":92339,"name":"Comuna Movila Miresii","lat":45.19574,"lng":27.60368},{"id":92737,"name":"Comuna Racoviţa","lat":45.30627,"lng":27.4672},{"id":92823,"name":"Comuna Râmnicelu","lat":45.29786,"lng":27.51338},{"id":92782,"name":"Comuna Romanu","lat":45.31818,"lng":27.74046},{"id":92804,"name":"Comuna Roşiori","lat":44.84097,"lng":27.34129},{"id":92866,"name":"Comuna Salcia Tudor","lat":45.4026,"lng":27.5038},{"id":92893,"name":"Comuna Scorţaru Nou","lat":45.34905,"lng":27.61478},{"id":92932,"name":"Comuna Siliştea","lat":45.35263,"lng":27.82592},{"id":93015,"name":"Comuna Stăncuţa","lat":44.88885,"lng":27.79614},{"id":93038,"name":"Comuna Surdila-Găiseanca","lat":45.09893,"lng":27.33491},{"id":93037,"name":"Comuna Surdila-Greci","lat":45.07288,"lng":27.2684},{"id":93565,"name":"Comuna Şuţeşti","lat":45.22101,"lng":27.47067},{"id":93148,"name":"Comuna Tichileşti","lat":45.14822,"lng":27.89059},{"id":93189,"name":"Comuna Traian","lat":45.15355,"lng":27.6917},{"id":93199,"name":"Comuna Tudor Vladimirescu","lat":45.22537,"lng":27.75299},{"id":93202,"name":"Comuna Tufeşti","lat":44.98719,"lng":27.80256},{"id":93264,"name":"Comuna Ulmu","lat":44.94821,"lng":27.29836},{"id":93277,"name":"Comuna Unirea","lat":45.10592,"lng":27.77613},{"id":93454,"name":"Comuna Vădeni","lat":45.33745,"lng":27.90589},{"id":93352,"name":"Comuna Victoria","lat":44.79568,"lng":27.67036},{"id":93374,"name":"Comuna Vişani","lat":45.18495,"lng":27.30611},{"id":93373,"name":"Comuna Viziru","lat":45.02027,"lng":27.73217},{"id":93491,"name":"Comuna Zăvoaia","lat":44.95276,"lng":27.45613},{"id":93621,"name":"Corbu Nou","lat":45.40996,"lng":27.59191},{"id":93785,"name":"Cuza Vodă","lat":44.92513,"lng":27.73273},{"id":93908,"name":"Dedulești","lat":45.14679,"lng":27.38907},{"id":94069,"name":"Dudeşti","lat":44.9,"lng":27.43333},{"id":94269,"name":"Făurei","lat":45.08333,"lng":27.26667},{"id":94205,"name":"Frecăţei","lat":44.9,"lng":28.11667},{"id":94275,"name":"Galbenu","lat":45.21667,"lng":27.16667},{"id":94289,"name":"Gemenele","lat":45.28333,"lng":27.61667},{"id":94440,"name":"Grădiştea","lat":45.26667,"lng":27.38333},{"id":94419,"name":"Gropeni","lat":45.07547,"lng":27.87969},{"id":94620,"name":"Ianca","lat":45.13333,"lng":27.45},{"id":97024,"name":"Însurăţei","lat":44.91667,"lng":27.6},{"id":94740,"name":"Jirlău","lat":45.16667,"lng":27.16667},{"id":94751,"name":"Jugureanu","lat":44.94313,"lng":27.27878},{"id":94756,"name":"Lacu Sărat","lat":45.21867,"lng":27.88764},{"id":94759,"name":"Lanurile","lat":45.04149,"lng":27.74916},{"id":95265,"name":"Măraşu","lat":44.85,"lng":27.96667},{"id":95293,"name":"Măxineni","lat":45.4,"lng":27.63333},{"id":94977,"name":"Mihai Bravu","lat":44.78469,"lng":27.72144},{"id":95013,"name":"Mircea Vodă","lat":45.11667,"lng":27.38333},{"id":95081,"name":"Movila Miresii","lat":45.21667,"lng":27.6},{"id":95118,"name":"Municipiul Brãila","lat":45.2719,"lng":27.975},{"id":95522,"name":"Oraş Fãurei","lat":45.08534,"lng":27.27155},{"id":95533,"name":"Oraş Ianca","lat":45.11446,"lng":27.50205},{"id":95627,"name":"Oraş Însurãţei","lat":44.91928,"lng":27.64433},{"id":95739,"name":"Perișoru","lat":45.11268,"lng":27.49817},{"id":95822,"name":"Plopu","lat":45.14847,"lng":27.51387},{"id":96041,"name":"Racoviţa","lat":45.3,"lng":27.45},{"id":96168,"name":"Râmnicelu","lat":45.28333,"lng":27.53333},{"id":96106,"name":"Romanu","lat":45.28333,"lng":27.73333},{"id":96132,"name":"Roşiori","lat":44.8,"lng":27.38333},{"id":96234,"name":"Salcia Tudor","lat":45.36667,"lng":27.51667},{"id":96279,"name":"Scorţaru Nou","lat":45.31667,"lng":27.6},{"id":96283,"name":"Scorțaru Vechi","lat":45.21886,"lng":27.75489},{"id":96340,"name":"Siliştea","lat":45.3,"lng":27.85},{"id":96417,"name":"Spiru Haret","lat":44.86715,"lng":27.74463},{"id":96476,"name":"Stăncuţa","lat":44.9,"lng":27.83333},{"id":96507,"name":"Surdila-Găiseanca","lat":45.06667,"lng":27.33333},{"id":96506,"name":"Surdila-Greci","lat":45.06667,"lng":27.26667},{"id":97097,"name":"Şuţeşti","lat":45.21667,"lng":27.43333},{"id":96615,"name":"Tătaru","lat":44.84482,"lng":27.43376},{"id":106093,"name":"Tichileşti","lat":45.11667,"lng":27.9},{"id":106145,"name":"Traian","lat":45.18333,"lng":27.73333},{"id":106164,"name":"Tudor Vladimirescu","lat":45.21667,"lng":27.8},{"id":106171,"name":"Tufeşti","lat":45.05,"lng":27.81667},{"id":96650,"name":"Ulmu","lat":44.95,"lng":27.31667},{"id":96669,"name":"Unirea","lat":45.11667,"lng":27.81667},{"id":96680,"name":"Urleasca","lat":45.13697,"lng":27.64736},{"id":96954,"name":"Vădeni","lat":45.36667,"lng":27.93333},{"id":96719,"name":"Valea Cânepii","lat":45.08333,"lng":27.81667},{"id":96806,"name":"Victoria","lat":44.81667,"lng":27.61667},{"id":96846,"name":"Vişani","lat":45.15,"lng":27.28333},{"id":96844,"name":"Viziru","lat":45.01667,"lng":27.7},{"id":97021,"name":"Zăvoaia","lat":44.95,"lng":27.48333}]