[{"id":89880,"name":"Adea","lat":46.55511,"lng":21.58433},{"id":89902,"name":"Agrișu Mare","lat":46.27243,"lng":21.75558},{"id":89935,"name":"Almaş","lat":46.28333,"lng":22.23333},{"id":89955,"name":"Andrei Șaguna","lat":46.2881,"lng":21.39175},{"id":89970,"name":"Apateu","lat":46.61667,"lng":21.78333},{"id":89977,"name":"Arad","lat":46.18333,"lng":21.31667},{"id":89980,"name":"Archiş","lat":46.48333,"lng":22.05},{"id":90454,"name":"Bârsa","lat":46.38333,"lng":22.06667},{"id":90460,"name":"Bârzava","lat":46.11667,"lng":21.98333},{"id":90069,"name":"Bata","lat":46.01667,"lng":22.03333},{"id":90090,"name":"Beliu","lat":46.48333,"lng":21.98333},{"id":90139,"name":"Birchiş","lat":45.96667,"lng":22.16667},{"id":90176,"name":"Bocsig","lat":46.41667,"lng":21.95},{"id":90279,"name":"Brazii","lat":46.23333,"lng":22.33333},{"id":90426,"name":"Buteni","lat":46.31667,"lng":22.11667},{"id":90568,"name":"Caporal Alexa","lat":46.33793,"lng":21.58316},{"id":93866,"name":"Cărand","lat":46.45,"lng":22.08333},{"id":90627,"name":"Cermei","lat":46.55,"lng":21.85},{"id":90657,"name":"Chereluș","lat":46.4686,"lng":21.70706},{"id":90658,"name":"Chesinț","lat":46.04973,"lng":21.57944},{"id":90664,"name":"Chier","lat":46.34199,"lng":21.82488},{"id":90683,"name":"Chisindia","lat":46.28333,"lng":22.1},{"id":90687,"name":"Chişineu-Criş","lat":46.52509,"lng":21.51844},{"id":90704,"name":"Cintei","lat":46.44434,"lng":21.56556},{"id":90855,"name":"Comuna Almaş","lat":46.2848,"lng":22.23173},{"id":90877,"name":"Comuna Apateu","lat":46.62598,"lng":21.8253},{"id":90884,"name":"Comuna Archiş","lat":46.48333,"lng":22.09663},{"id":91191,"name":"Comuna Bârsa","lat":46.3841,"lng":22.04459},{"id":91197,"name":"Comuna Bârzava","lat":46.0991,"lng":22.06096},{"id":90939,"name":"Comuna Bata","lat":45.99641,"lng":22.07805},{"id":90954,"name":"Comuna Beliu","lat":46.52965,"lng":21.99566},{"id":90992,"name":"Comuna Birchiş","lat":45.96987,"lng":22.16845},{"id":91015,"name":"Comuna Bocsig","lat":46.41893,"lng":21.98424},{"id":91087,"name":"Comuna Brazii","lat":46.22177,"lng":22.32613},{"id":91174,"name":"Comuna Buteni","lat":46.33119,"lng":22.11472},{"id":91586,"name":"Comuna Cărand","lat":46.45551,"lng":22.05755},{"id":91290,"name":"Comuna Cermei","lat":46.55433,"lng":21.87084},{"id":91326,"name":"Comuna Chisindia","lat":46.26509,"lng":22.08572},{"id":91412,"name":"Comuna Conop","lat":46.10401,"lng":21.88047},{"id":91467,"name":"Comuna Covăsinţ","lat":46.20571,"lng":21.60944},{"id":91485,"name":"Comuna Craiva","lat":46.59969,"lng":21.97908},{"id":91621,"name":"Comuna Dezna","lat":46.40997,"lng":22.22726},{"id":91625,"name":"Comuna Dieci","lat":46.32071,"lng":22.22373},{"id":91810,"name":"Comuna Fântânele","lat":46.12441,"lng":21.38111},{"id":91758,"name":"Comuna Felnac","lat":46.12223,"lng":21.16704},{"id":91787,"name":"Comuna Frumuşeni","lat":46.1018,"lng":21.45836},{"id":91861,"name":"Comuna Ghioroc","lat":46.15322,"lng":21.59651},{"id":91943,"name":"Comuna Grăniceri","lat":46.50539,"lng":21.33672},{"id":91957,"name":"Comuna Gurahonţ","lat":46.2922,"lng":22.33506},{"id":92039,"name":"Comuna Hălmăgel","lat":46.27662,"lng":22.6318},{"id":92038,"name":"Comuna Hălmagiu","lat":46.27536,"lng":22.58183},{"id":92046,"name":"Comuna Hăşmaş","lat":46.52217,"lng":22.07003},{"id":92067,"name":"Comuna Igneşti","lat":46.43388,"lng":22.18227},{"id":92092,"name":"Comuna Iratoşu","lat":46.29414,"lng":21.1875},{"id":92173,"name":"Comuna Livada","lat":46.21924,"lng":21.38746},{"id":92227,"name":"Comuna Macea","lat":46.40094,"lng":21.33187},{"id":92310,"name":"Comuna Mişca","lat":46.62016,"lng":21.65353},{"id":92329,"name":"Comuna Moneasa","lat":46.44443,"lng":22.25323},{"id":92493,"name":"Comuna Olari","lat":46.38673,"lng":21.54522},{"id":92728,"name":"Comuna Păuliş","lat":46.12506,"lng":21.60246},{"id":92546,"name":"Comuna Peregu Mare","lat":46.23377,"lng":20.90612},{"id":92566,"name":"Comuna Petriş","lat":46.0677,"lng":22.39523},{"id":92584,"name":"Comuna Pilu","lat":46.59727,"lng":21.34711},{"id":92593,"name":"Comuna Pleşcuţa","lat":46.28315,"lng":22.43178},{"id":93496,"name":"Comuna Şagu","lat":46.04254,"lng":21.34239},{"id":93118,"name":"Comuna Săvârşin","lat":46.02527,"lng":22.26514},{"id":92916,"name":"Comuna Secusigiu","lat":46.0926,"lng":21.00295},{"id":93503,"name":"Comuna Şeitin","lat":46.10858,"lng":20.84464},{"id":92920,"name":"Comuna Seleuş","lat":46.37886,"lng":21.74875},{"id":92921,"name":"Comuna Semlac","lat":46.1126,"lng":20.9321},{"id":93513,"name":"Comuna Şicula","lat":46.45723,"lng":21.75137},{"id":93519,"name":"Comuna Şilindia","lat":46.33611,"lng":21.93488},{"id":93520,"name":"Comuna Şimand","lat":46.424,"lng":21.45145},{"id":92941,"name":"Comuna Sintea Mare","lat":46.51684,"lng":21.608},{"id":93529,"name":"Comuna Şiria","lat":46.2847,"lng":21.65419},{"id":93533,"name":"Comuna Şiştarovăţ","lat":45.98649,"lng":21.75589},{"id":92968,"name":"Comuna Socodor","lat":46.5101,"lng":21.44128},{"id":93535,"name":"Comuna Şofronea","lat":46.26814,"lng":21.29059},{"id":93230,"name":"Comuna Târnova","lat":46.29054,"lng":21.80388},{"id":93128,"name":"Comuna Tauţ","lat":46.26383,"lng":21.96747},{"id":93288,"name":"Comuna Ususău","lat":46.06781,"lng":21.8149},{"id":93465,"name":"Comuna Vărădia de Mureş","lat":46.04619,"lng":22.15651},{"id":93441,"name":"Comuna Vârfurile","lat":46.33689,"lng":22.51984},{"id":93365,"name":"Comuna Vinga","lat":46.02249,"lng":21.15244},{"id":93383,"name":"Comuna Vladimirescu","lat":46.16509,"lng":21.40411},{"id":93484,"name":"Comuna Zăbrani","lat":46.0631,"lng":21.58529},{"id":93485,"name":"Comuna Zădăreni","lat":46.13077,"lng":21.20866},{"id":93488,"name":"Comuna Zărand","lat":46.43911,"lng":21.56909},{"id":93474,"name":"Comuna Zerind","lat":46.63087,"lng":21.50777},{"id":93477,"name":"Comuna Zimandu Nou","lat":46.27496,"lng":21.39162},{"id":93592,"name":"Conop","lat":46.10186,"lng":21.8797},{"id":93682,"name":"Covăsinţ","lat":46.2,"lng":21.6},{"id":93705,"name":"Craiva","lat":46.58333,"lng":21.96667},{"id":93776,"name":"Curtici","lat":46.35,"lng":21.3},{"id":93782,"name":"Cuvin","lat":46.17001,"lng":21.5936},{"id":93932,"name":"Dezna","lat":46.4,"lng":22.25},{"id":93936,"name":"Dieci","lat":46.31667,"lng":22.25},{"id":93996,"name":"Dorgoş","lat":46.05,"lng":21.83333},{"id":94003,"name":"Dorobanți","lat":46.3499646,"lng":21.2426611},{"id":94029,"name":"Drauț","lat":46.26048,"lng":21.80924},{"id":94238,"name":"Fântânele","lat":46.1237,"lng":21.3842},{"id":94156,"name":"Felnac","lat":46.11667,"lng":21.15},{"id":94214,"name":"Frumușeni","lat":46.10252,"lng":21.46167},{"id":94281,"name":"Galșa","lat":46.2881,"lng":21.65137},{"id":94333,"name":"Ghioroc","lat":46.15,"lng":21.58333},{"id":94444,"name":"Grăniceri","lat":46.51667,"lng":21.3},{"id":94468,"name":"Gurahonţ","lat":46.26667,"lng":22.35},{"id":94470,"name":"Gurba","lat":46.46756,"lng":21.78789},{"id":94600,"name":"Hălmăgel","lat":46.26667,"lng":22.61667},{"id":94599,"name":"Hălmagiu","lat":46.26667,"lng":22.58333},{"id":94610,"name":"Hășmaș","lat":46.5,"lng":22.08333},{"id":94561,"name":"Horia","lat":46.20847,"lng":21.46287},{"id":94650,"name":"Igneşti","lat":46.4,"lng":22.16667},{"id":94667,"name":"Ineu","lat":46.43372,"lng":21.84048},{"id":94686,"name":"Iratoşu","lat":46.31667,"lng":21.2},{"id":94804,"name":"Lipova","lat":46.09085,"lng":21.69628},{"id":94814,"name":"Livada","lat":46.22284,"lng":21.38403},{"id":94903,"name":"Macea","lat":46.38333,"lng":21.3},{"id":95230,"name":"Măderat","lat":46.29493,"lng":21.71137},{"id":94908,"name":"Mailat","lat":46.04189,"lng":21.10702},{"id":95264,"name":"Mănăștur","lat":46.00949,"lng":21.13362},{"id":95215,"name":"Mândruloc","lat":46.14863,"lng":21.4657},{"id":95226,"name":"Mâsca","lat":46.3,"lng":21.68333},{"id":95035,"name":"Mișca","lat":46.6028,"lng":21.59998},{"id":95068,"name":"Moneasa","lat":46.45,"lng":22.25},{"id":95109,"name":"Municipiul Arad","lat":46.17745,"lng":21.31348},{"id":95296,"name":"Nadab","lat":46.48195,"lng":21.51178},{"id":95297,"name":"Nadăș","lat":46.2249,"lng":21.95036},{"id":95367,"name":"Nădlac","lat":46.16667,"lng":20.75},{"id":95332,"name":"Neudorf","lat":46.0696,"lng":21.61899},{"id":95424,"name":"Olari","lat":46.38333,"lng":21.55},{"id":95492,"name":"Oraş Chişineu-Criş","lat":46.52178,"lng":21.51295},{"id":95502,"name":"Oraş Curtici","lat":46.34358,"lng":21.31051},{"id":95534,"name":"Oraş Ineu","lat":46.42709,"lng":21.84185},{"id":95538,"name":"Oraş Lipova","lat":46.09061,"lng":21.69465},{"id":95553,"name":"Oraş Nãdlac","lat":46.16664,"lng":20.74871},{"id":95575,"name":"Oraş Pâncota","lat":46.31205,"lng":21.70163},{"id":95597,"name":"Oraş Sântana","lat":46.34622,"lng":21.50402},{"id":95585,"name":"Oraş Sebiş","lat":46.38771,"lng":22.1548},{"id":95994,"name":"Pâncota","lat":46.33333,"lng":21.7},{"id":96032,"name":"Păuliş","lat":46.11667,"lng":21.58333},{"id":95722,"name":"Pecica","lat":46.16667,"lng":21.06667},{"id":95725,"name":"Peregu Mare","lat":46.23333,"lng":20.9},{"id":95726,"name":"Peregu Mic","lat":46.25021,"lng":20.94885},{"id":95753,"name":"Petriş","lat":46.05,"lng":22.38333},{"id":95793,"name":"Pilu","lat":46.56667,"lng":21.35},{"id":95811,"name":"Pleşcuţa","lat":46.3,"lng":22.43333},{"id":96051,"name":"Radna","lat":46.09444,"lng":21.68732},{"id":97028,"name":"Şagu","lat":46.05,"lng":21.28333},{"id":96521,"name":"Sâmbăteni","lat":46.1411,"lng":21.52689},{"id":96532,"name":"Sânmartin","lat":46.41653,"lng":21.34821},{"id":96544,"name":"Sânpetru German","lat":46.11327,"lng":21.04932},{"id":105976,"name":"Sântana","lat":46.35,"lng":21.5},{"id":96254,"name":"Satu Mare","lat":46.06628,"lng":20.95826},{"id":106048,"name":"Săvârşin","lat":46.01667,"lng":22.23333},{"id":96304,"name":"Sebiş","lat":46.36667,"lng":22.11667},{"id":96317,"name":"Secusigiu","lat":46.08333,"lng":20.98333},{"id":97034,"name":"Şeitin","lat":46.1,"lng":20.85},{"id":96324,"name":"Seleuş","lat":46.38333,"lng":21.71667},{"id":96325,"name":"Semlac","lat":46.11667,"lng":20.93333},{"id":97116,"name":"Șepreuș","lat":46.5712491,"lng":21.7341745},{"id":97121,"name":"Șiclău","lat":46.49124,"lng":21.36834},{"id":97043,"name":"Şicula","lat":46.43333,"lng":21.75},{"id":97048,"name":"Şilindia","lat":46.35,"lng":21.91667},{"id":97049,"name":"Şimand","lat":46.43333,"lng":21.45},{"id":96356,"name":"Sintea Mare","lat":46.51667,"lng":21.6},{"id":97058,"name":"Şiria","lat":46.26667,"lng":21.63333},{"id":97062,"name":"Şiştarovăţ","lat":46.01667,"lng":21.73333},{"id":96396,"name":"Socodor","lat":46.51667,"lng":21.43333},{"id":97064,"name":"Şofronea","lat":46.26667,"lng":21.3},{"id":96595,"name":"Târnova","lat":46.31667,"lng":21.8},{"id":106063,"name":"Tauţ","lat":46.28333,"lng":21.91667},{"id":97140,"name":"Țipar","lat":46.47563,"lng":21.63431},{"id":96564,"name":"Turnu","lat":46.25764,"lng":21.12657},{"id":96691,"name":"Ususău","lat":46.07063,"lng":21.81371},{"id":96932,"name":"Vânători","lat":46.62456,"lng":21.67332},{"id":96973,"name":"Vărădia de Mureş","lat":46.01667,"lng":22.15},{"id":96940,"name":"Vârfurile","lat":46.31667,"lng":22.51667},{"id":96832,"name":"Vinga","lat":46.01667,"lng":21.2},{"id":96857,"name":"Vladimirescu","lat":46.16628,"lng":21.40102},{"id":97009,"name":"Zăbrani","lat":46.06667,"lng":21.55},{"id":97010,"name":"Zădăreni","lat":46.13274,"lng":21.21821},{"id":97014,"name":"Zărand","lat":46.4,"lng":21.65},{"id":96989,"name":"Zerind","lat":46.61667,"lng":21.51667},{"id":96993,"name":"Zimandu Nou","lat":46.28333,"lng":21.4}]