[{"id":89887,"name":"Adâncata","lat":44.76667,"lng":26.43333},{"id":89915,"name":"Albeşti","lat":44.53333,"lng":27.13333},{"id":89929,"name":"Alexeni","lat":44.68333,"lng":26.7},{"id":89947,"name":"Amara","lat":44.61667,"lng":27.31667},{"id":89959,"name":"Andrăşeşti","lat":44.56667,"lng":27.13333},{"id":89996,"name":"Armăşeşti","lat":44.75,"lng":26.58333},{"id":90012,"name":"Axintele","lat":44.6,"lng":26.78333},{"id":90038,"name":"Balaciu","lat":44.63333,"lng":26.88333},{"id":90539,"name":"Bărbulești","lat":44.7262928,"lng":26.5992945},{"id":90542,"name":"Bărcăneşti","lat":44.63333,"lng":26.65},{"id":90235,"name":"Borănești","lat":44.66069,"lng":26.60505},{"id":90227,"name":"Borduşani","lat":44.48333,"lng":27.9},{"id":90313,"name":"Broșteni","lat":44.67192,"lng":26.74787},{"id":90363,"name":"Bucu","lat":44.60532,"lng":27.49337},{"id":90390,"name":"Buești","lat":44.5447311,"lng":27.1872935},{"id":90403,"name":"Buliga","lat":44.35731,"lng":27.79225},{"id":93884,"name":"Căzăneşti","lat":44.61667,"lng":27.01667},{"id":90607,"name":"Cegani","lat":44.46279,"lng":27.90175},{"id":90710,"name":"Ciocârlia","lat":44.8,"lng":26.66667},{"id":90707,"name":"Ciochina","lat":44.58333,"lng":27.06667},{"id":90747,"name":"Ciulniţa","lat":44.53333,"lng":27.35},{"id":90780,"name":"Cocora","lat":44.73333,"lng":27.05},{"id":90794,"name":"Colelia","lat":44.761193,"lng":27.0074634},{"id":90825,"name":"Comuna Adâncata","lat":44.76691,"lng":26.4301},{"id":90840,"name":"Comuna Albeşti","lat":44.53575,"lng":27.12464},{"id":90851,"name":"Comuna Alexeni","lat":44.67966,"lng":26.71064},{"id":90871,"name":"Comuna Andrăşeşti","lat":44.57648,"lng":27.12438},{"id":90895,"name":"Comuna Armăşeşti","lat":44.76397,"lng":26.57999},{"id":90909,"name":"Comuna Axintele","lat":44.58688,"lng":26.78809},{"id":90922,"name":"Comuna Balaciu","lat":44.60985,"lng":26.88277},{"id":91240,"name":"Comuna Bărcăneşti","lat":44.63517,"lng":26.66786},{"id":91054,"name":"Comuna Borăneşti","lat":44.66355,"lng":26.59486},{"id":91049,"name":"Comuna Borduşani","lat":44.47236,"lng":27.90315},{"id":91138,"name":"Comuna Bucu","lat":44.60663,"lng":27.49432},{"id":91343,"name":"Comuna Ciocârlia","lat":44.78828,"lng":26.67002},{"id":91341,"name":"Comuna Ciochina","lat":44.57524,"lng":27.02475},{"id":91368,"name":"Comuna Ciulniţa","lat":44.51976,"lng":27.28461},{"id":91388,"name":"Comuna Cocora","lat":44.73752,"lng":27.0476},{"id":91462,"name":"Comuna Cosâmbeşti","lat":44.56104,"lng":27.45846},{"id":91474,"name":"Comuna Coşereni","lat":44.6854,"lng":26.56101},{"id":91689,"name":"Comuna Drăgoeşti","lat":44.58767,"lng":26.52057},{"id":91680,"name":"Comuna Dridu","lat":44.70391,"lng":26.45311},{"id":91818,"name":"Comuna Făcăeni","lat":44.56878,"lng":27.88087},{"id":91966,"name":"Comuna Gârbovi","lat":44.78651,"lng":26.7696},{"id":91842,"name":"Comuna Gheorghe Doja","lat":44.61333,"lng":27.18388},{"id":91843,"name":"Comuna Gheorghe Lazăr","lat":44.63278,"lng":27.45815},{"id":91876,"name":"Comuna Giurgeni","lat":44.74435,"lng":27.85638},{"id":91917,"name":"Comuna Grindu","lat":44.77212,"lng":26.90952},{"id":91921,"name":"Comuna Griviţa","lat":44.72969,"lng":27.32227},{"id":91948,"name":"Comuna Gura Ialomiţei","lat":44.73165,"lng":27.74035},{"id":92084,"name":"Comuna Ion Roată","lat":44.66757,"lng":26.76803},{"id":92124,"name":"Comuna Jilavele","lat":44.77522,"lng":26.52478},{"id":92238,"name":"Comuna Manasia","lat":44.70648,"lng":26.67346},{"id":92276,"name":"Comuna Mihail Kogălniceanu","lat":44.66216,"lng":27.7343},{"id":92292,"name":"Comuna Miloşeşti","lat":44.7582,"lng":27.20338},{"id":92337,"name":"Comuna Movila","lat":44.53747,"lng":27.71771},{"id":92343,"name":"Comuna Moviliţa","lat":44.61784,"lng":26.48006},{"id":92357,"name":"Comuna Munteni Buzău","lat":44.63838,"lng":26.97288},{"id":92551,"name":"Comuna Perieţi","lat":44.57191,"lng":27.26027},{"id":92591,"name":"Comuna Platoneşti","lat":44.60713,"lng":27.68637},{"id":92845,"name":"Comuna Răduleşti","lat":44.77609,"lng":26.33987},{"id":92769,"name":"Comuna Reviga","lat":44.69251,"lng":27.10866},{"id":93095,"name":"Comuna Sălcioara","lat":44.53755,"lng":26.90312},{"id":93116,"name":"Comuna Săveni","lat":44.60868,"lng":27.62061},{"id":92902,"name":"Comuna Scânteia","lat":44.73262,"lng":27.44334},{"id":92923,"name":"Comuna Sfântu Gheorghe","lat":44.64735,"lng":26.84315},{"id":92942,"name":"Comuna Sinteşti","lat":44.5626,"lng":26.41162},{"id":92953,"name":"Comuna Slobozia","lat":44.57437,"lng":27.38755},{"id":92990,"name":"Comuna Stelnica","lat":44.42585,"lng":27.88823},{"id":93028,"name":"Comuna Sudiţi","lat":44.57135,"lng":27.58215},{"id":93300,"name":"Comuna Valea Ciorii","lat":44.71456,"lng":27.53979},{"id":93318,"name":"Comuna Valea Măcrişului","lat":44.73554,"lng":26.83515},{"id":93386,"name":"Comuna Vlădeni","lat":44.60652,"lng":27.8512},{"id":93590,"name":"Condeești","lat":44.62761,"lng":26.69147},{"id":93671,"name":"Cosâmbeşti","lat":44.55929,"lng":27.43441},{"id":93690,"name":"Coşereni","lat":44.68333,"lng":26.56667},{"id":94043,"name":"Drăgoești","lat":44.56786,"lng":26.5395},{"id":94042,"name":"Drăgoeşti-Snagov","lat":44.56667,"lng":26.53333},{"id":94031,"name":"Dridu","lat":44.7,"lng":26.45},{"id":94249,"name":"Făcăeni","lat":44.56667,"lng":27.9},{"id":94160,"name":"Feteşti","lat":44.38333,"lng":27.83333},{"id":94162,"name":"Fetești-Gară","lat":44.4196,"lng":27.82536},{"id":94165,"name":"Fierbinţi-Târg","lat":44.7,"lng":26.35},{"id":94167,"name":"Fierbinții de Jos","lat":44.69523,"lng":26.39629},{"id":94168,"name":"Fierbinții de Sus","lat":44.68186,"lng":26.402},{"id":94484,"name":"Gârbovi","lat":44.78333,"lng":26.76667},{"id":94301,"name":"Gheorghe Doja","lat":44.61622,"lng":27.1874},{"id":94302,"name":"Gheorghe Lazăr","lat":44.63333,"lng":27.45},{"id":94352,"name":"Giurgeni","lat":44.76667,"lng":27.88333},{"id":94412,"name":"Grindu","lat":44.76667,"lng":26.91667},{"id":94415,"name":"Griviţa","lat":44.73333,"lng":27.28333},{"id":94455,"name":"Gura Ialomiței","lat":44.71608,"lng":27.7531},{"id":94627,"name":"Iazu","lat":44.7312,"lng":27.42074},{"id":94676,"name":"Ion Roată","lat":44.66667,"lng":26.76667},{"id":94737,"name":"Jilavele","lat":44.76667,"lng":26.53333},{"id":94890,"name":"Lăcusteni","lat":44.60715,"lng":27.67569},{"id":94839,"name":"Luciu","lat":44.74722,"lng":27.7276},{"id":94907,"name":"Maia","lat":44.7360618,"lng":26.4015197},{"id":94917,"name":"Malu Roșu","lat":44.78088,"lng":26.57945},{"id":94921,"name":"Manasia","lat":44.7,"lng":26.66667},{"id":95267,"name":"Mărculești","lat":44.5669758,"lng":27.5156197},{"id":94983,"name":"Mihail Kogălniceanu","lat":44.68333,"lng":27.73333},{"id":95006,"name":"Miloşeşti","lat":44.73333,"lng":27.23333},{"id":95064,"name":"Moldoveni","lat":44.7141388,"lng":26.5187591},{"id":95079,"name":"Movila","lat":44.55,"lng":27.7},{"id":95086,"name":"Moviliţa","lat":44.65,"lng":26.48333},{"id":95140,"name":"Municipiul Feteşti","lat":44.38608,"lng":27.82483},{"id":95194,"name":"Municipiul Urziceni","lat":44.71842,"lng":26.64187},{"id":95201,"name":"Munteni Buzău","lat":44.63333,"lng":26.98333},{"id":95414,"name":"Ograda","lat":44.6111198,"lng":27.5575505},{"id":95448,"name":"Oraş Amara","lat":44.61793,"lng":27.33411},{"id":95506,"name":"Oraş Cãzãneşti","lat":44.62514,"lng":27.01697},{"id":95516,"name":"Oraş Fierbinţi-Târg","lat":44.68292,"lng":26.38324},{"id":95633,"name":"Oraş Ţãndãrei","lat":44.64491,"lng":27.65196},{"id":95717,"name":"Patru Frați","lat":44.73672,"lng":26.47059},{"id":95732,"name":"Perieţi","lat":44.55,"lng":27.21667},{"id":95806,"name":"Platonești","lat":44.60712,"lng":27.69706},{"id":96200,"name":"Rădulești","lat":44.76667,"lng":26.35},{"id":96063,"name":"Rași","lat":44.53534,"lng":26.92485},{"id":96090,"name":"Reviga","lat":44.71667,"lng":27.1},{"id":96140,"name":"Roșiori","lat":44.6128978,"lng":26.5345736},{"id":96123,"name":"Rovine","lat":44.6954,"lng":27.09364},{"id":106012,"name":"Sălcioara","lat":44.53333,"lng":26.88333},{"id":106037,"name":"Sărățeni","lat":44.6342189,"lng":26.9268613},{"id":106045,"name":"Săveni","lat":44.6,"lng":27.65},{"id":96293,"name":"Scânteia","lat":44.73404,"lng":27.46593},{"id":96329,"name":"Sfântu Gheorghe","lat":44.65,"lng":26.83333},{"id":96353,"name":"Sineşti","lat":44.56667,"lng":26.38333},{"id":96373,"name":"Slobozia","lat":44.5647,"lng":27.3633},{"id":96387,"name":"Smirna","lat":44.72405,"lng":27.35478},{"id":96429,"name":"Stelnica","lat":44.41667,"lng":27.88333},{"id":96493,"name":"Sudiţi","lat":44.58333,"lng":27.6},{"id":97112,"name":"Ţăndărei","lat":44.65,"lng":27.66667},{"id":106144,"name":"Traian","lat":44.7623163,"lng":27.3437017},{"id":96688,"name":"Urziceni","lat":44.71667,"lng":26.63333},{"id":96715,"name":"Valea Ciorii","lat":44.71667,"lng":27.56667},{"id":96742,"name":"Valea Măcrișului","lat":44.74379,"lng":26.83015},{"id":96860,"name":"Vlădeni","lat":44.61667,"lng":27.88333},{"id":96858,"name":"Vlașca","lat":44.39664,"lng":27.84865}]