[{"id":89904,"name":"Agăş","lat":46.48333,"lng":26.21667},{"id":89968,"name":"Apa Asău","lat":46.48747,"lng":26.37888},{"id":89982,"name":"Ardeoani","lat":46.53333,"lng":26.6},{"id":89993,"name":"Arini","lat":46.35,"lng":27.18333},{"id":90002,"name":"Asău","lat":46.43333,"lng":26.4},{"id":90025,"name":"Bacău","lat":46.56718,"lng":26.91384},{"id":90477,"name":"Băcioiu","lat":46.31431,"lng":27.15745},{"id":90040,"name":"Balcani","lat":46.63333,"lng":26.55},{"id":90059,"name":"Barați","lat":46.57569,"lng":26.87118},{"id":90457,"name":"Bârsăneşti","lat":46.33333,"lng":26.7},{"id":90108,"name":"Berești","lat":46.20329,"lng":27.14476},{"id":90104,"name":"Bereşti-Bistriţa","lat":46.71667,"lng":26.83333},{"id":90106,"name":"Bereşti-Tazlău","lat":46.46667,"lng":26.66667},{"id":90119,"name":"Berzunţi","lat":46.4,"lng":26.63333},{"id":90133,"name":"Bijghir","lat":46.60185,"lng":27.01859},{"id":90164,"name":"Blăgeşti","lat":46.68333,"lng":26.65},{"id":90193,"name":"Bogdăneşti","lat":46.21667,"lng":26.68333},{"id":90218,"name":"Bolătău","lat":46.63345,"lng":26.40149},{"id":90216,"name":"Bolovăniș","lat":46.61633,"lng":26.05263},{"id":90341,"name":"Brătești","lat":46.3254,"lng":26.64333},{"id":90342,"name":"Brătila","lat":46.32348,"lng":26.77442},{"id":90317,"name":"Brusturoasa","lat":46.51667,"lng":26.2},{"id":90355,"name":"Buciumi","lat":46.2023,"lng":26.78445},{"id":90369,"name":"Bucșești","lat":46.48381,"lng":26.5823},{"id":90373,"name":"Buda","lat":46.67111,"lng":26.71953},{"id":90396,"name":"Buhoci","lat":46.56667,"lng":27.01667},{"id":90397,"name":"Buhuşi","lat":46.71667,"lng":26.7},{"id":93829,"name":"Căiuți","lat":46.18057,"lng":26.92571},{"id":93828,"name":"Căiuţi-Sat","lat":46.18333,"lng":26.93333},{"id":90573,"name":"Caraclău","lat":46.30696,"lng":26.71641},{"id":93815,"name":"Cârligi","lat":46.76583,"lng":26.85053},{"id":90595,"name":"Caşin","lat":46.2,"lng":26.75},{"id":90624,"name":"Cerdac","lat":46.23794,"lng":26.51638},{"id":90637,"name":"Cernu","lat":46.46999,"lng":26.58477},{"id":90734,"name":"Cireșoaia","lat":46.24816,"lng":26.54929},{"id":90745,"name":"Ciugheș","lat":46.5222,"lng":26.1197},{"id":90765,"name":"Cleja","lat":46.41667,"lng":26.9},{"id":90797,"name":"Coloneşti","lat":46.56667,"lng":27.3},{"id":93587,"name":"Comăneşti","lat":46.42135,"lng":26.43645},{"id":90834,"name":"Comuna Agăş","lat":46.46458,"lng":26.22962},{"id":90886,"name":"Comuna Ardeoani","lat":46.52183,"lng":26.60165},{"id":90900,"name":"Comuna Asău","lat":46.46495,"lng":26.37497},{"id":90924,"name":"Comuna Balcani","lat":46.64108,"lng":26.54412},{"id":91194,"name":"Comuna Bârsăneşti","lat":46.3329,"lng":26.68192},{"id":90965,"name":"Comuna Bereşti-Bistriţa","lat":46.7087,"lng":26.85648},{"id":90967,"name":"Comuna Bereşti-Tazlău","lat":46.48302,"lng":26.67877},{"id":90977,"name":"Comuna Berzunţi","lat":46.4136,"lng":26.62237},{"id":91006,"name":"Comuna Blăgeşti","lat":46.68668,"lng":26.64835},{"id":91028,"name":"Comuna Bogdăneşti","lat":46.2179,"lng":26.6995},{"id":91108,"name":"Comuna Brusturoasa","lat":46.51898,"lng":26.19352},{"id":91132,"name":"Comuna Buciumi","lat":46.21353,"lng":26.78584},{"id":91154,"name":"Comuna Buhoci","lat":46.56581,"lng":27.00824},{"id":91569,"name":"Comuna Căiuţi","lat":46.17987,"lng":26.91633},{"id":91379,"name":"Comuna Cleja","lat":46.40183,"lng":26.92104},{"id":91400,"name":"Comuna Coloneşti","lat":46.60471,"lng":27.26584},{"id":91422,"name":"Comuna Corbasca","lat":46.29728,"lng":27.13675},{"id":91482,"name":"Comuna Coţofăneşti","lat":46.14808,"lng":26.98644},{"id":91734,"name":"Comuna Dămieneşti","lat":46.7431,"lng":27.00649},{"id":91608,"name":"Comuna Dealu Morii","lat":46.30877,"lng":27.29511},{"id":91651,"name":"Comuna Dofteana","lat":46.32282,"lng":26.53081},{"id":91753,"name":"Comuna Faraoani","lat":46.43375,"lng":26.89835},{"id":91762,"name":"Comuna Filipeni","lat":46.53357,"lng":27.19114},{"id":91763,"name":"Comuna Filipeşti","lat":46.76821,"lng":26.89338},{"id":91979,"name":"Comuna Găiceana","lat":46.3506,"lng":27.22154},{"id":91974,"name":"Comuna Gârleni","lat":46.66251,"lng":26.78819},{"id":91855,"name":"Comuna Ghimeş-Făget","lat":46.60483,"lng":26.05354},{"id":91886,"name":"Comuna Glăvăneşti","lat":46.26329,"lng":27.38778},{"id":91955,"name":"Comuna Gura Văii","lat":46.27305,"lng":26.82312},{"id":91994,"name":"Comuna Helegiu","lat":46.34967,"lng":26.7669},{"id":91996,"name":"Comuna Hemeiuşi","lat":46.61927,"lng":26.85729},{"id":92016,"name":"Comuna Horgeşti","lat":46.39837,"lng":27.05603},{"id":92029,"name":"Comuna Huruieşti","lat":46.25297,"lng":27.23828},{"id":92097,"name":"Comuna Iteşti","lat":46.67368,"lng":26.85555},{"id":92110,"name":"Comuna Izvoru Berheciului","lat":46.57693,"lng":27.22842},{"id":92158,"name":"Comuna Letea Veche","lat":46.54236,"lng":26.96869},{"id":92167,"name":"Comuna Lipova","lat":46.72016,"lng":27.23238},{"id":92175,"name":"Comuna Livezi","lat":46.39932,"lng":26.72438},{"id":92195,"name":"Comuna Luizi-Cãlugãra","lat":46.53604,"lng":26.84012},{"id":92387,"name":"Comuna Măgireşti","lat":46.50965,"lng":26.53727},{"id":92388,"name":"Comuna Măgura","lat":46.56065,"lng":26.839},{"id":92369,"name":"Comuna Mânăstirea Caşin","lat":46.19394,"lng":26.72923},{"id":92408,"name":"Comuna Mărgineni","lat":46.59779,"lng":26.80505},{"id":92336,"name":"Comuna Motoşeni","lat":46.32779,"lng":27.41721},{"id":92433,"name":"Comuna Negri","lat":46.705,"lng":26.97216},{"id":92442,"name":"Comuna Nicolae Bălcescu","lat":46.46687,"lng":26.88837},{"id":92482,"name":"Comuna Odobeşti","lat":46.66902,"lng":27.13224},{"id":92490,"name":"Comuna Oituz","lat":46.19045,"lng":26.56043},{"id":92500,"name":"Comuna Onceşti","lat":46.47537,"lng":27.25835},{"id":92507,"name":"Comuna Orbeni","lat":46.26934,"lng":27.01872},{"id":92530,"name":"Comuna Palanca","lat":46.50647,"lng":26.11239},{"id":92719,"name":"Comuna Pănceşti","lat":46.36459,"lng":27.11377},{"id":92536,"name":"Comuna Parava","lat":46.30993,"lng":26.96787},{"id":92705,"name":"Comuna Pârgăreşti","lat":46.24414,"lng":26.65017},{"id":92539,"name":"Comuna Parincea","lat":46.47841,"lng":27.12877},{"id":92706,"name":"Comuna Pârjol","lat":46.59014,"lng":26.60903},{"id":92596,"name":"Comuna Plopana","lat":46.66549,"lng":27.24403},{"id":92616,"name":"Comuna Podu Turcului","lat":46.19703,"lng":27.38796},{"id":92617,"name":"Comuna Poduri","lat":46.47888,"lng":26.56593},{"id":92840,"name":"Comuna Răcăciuni","lat":46.35011,"lng":26.96705},{"id":92835,"name":"Comuna Răchitoasa","lat":46.44772,"lng":27.36875},{"id":92733,"name":"Comuna Racova","lat":46.6979,"lng":26.78097},{"id":92805,"name":"Comuna Roşiori","lat":46.7262,"lng":27.10446},{"id":93102,"name":"Comuna Sănduleni","lat":46.45082,"lng":26.74185},{"id":93106,"name":"Comuna Sărata","lat":46.49582,"lng":26.86916},{"id":92878,"name":"Comuna Sascut","lat":46.19288,"lng":27.09163},{"id":93114,"name":"Comuna Săuceşti","lat":46.65781,"lng":26.93368},{"id":92894,"name":"Comuna Scorţeni","lat":46.58037,"lng":26.68543},{"id":92913,"name":"Comuna Secuieni","lat":46.65329,"lng":27.09674},{"id":92974,"name":"Comuna Solonţ","lat":46.56929,"lng":26.53863},{"id":93020,"name":"Comuna Stănişeşti","lat":46.4276,"lng":27.31055},{"id":93546,"name":"Comuna Ştefan Cel Mare","lat":46.20645,"lng":26.85488},{"id":93006,"name":"Comuna Strugari","lat":46.52715,"lng":26.73578},{"id":93122,"name":"Comuna Tamaşi","lat":46.48841,"lng":26.99549},{"id":93224,"name":"Comuna Târgu Trotuş","lat":46.26789,"lng":26.67587},{"id":93247,"name":"Comuna Tătărăşti","lat":46.22823,"lng":27.19631},{"id":93187,"name":"Comuna Traian","lat":46.64706,"lng":27.03533},{"id":93272,"name":"Comuna Ungureni","lat":46.54522,"lng":27.1068},{"id":93282,"name":"Comuna Urecheşti","lat":46.12425,"lng":27.0707},{"id":93322,"name":"Comuna Valea Seacă","lat":46.24851,"lng":27.04535},{"id":93417,"name":"Comuna Vultureni","lat":46.41385,"lng":27.23668},{"id":93473,"name":"Comuna Zemeş","lat":46.59171,"lng":26.43381},{"id":93611,"name":"Corbasca","lat":46.28333,"lng":27.16667},{"id":93695,"name":"Coţofăneşti","lat":46.15,"lng":26.98333},{"id":93678,"name":"Cotumba","lat":46.49743,"lng":26.19112},{"id":93760,"name":"Cucuieți","lat":46.32731,"lng":26.55504},{"id":94119,"name":"Dămieneşti","lat":46.73333,"lng":26.98333},{"id":94120,"name":"Dămoc","lat":46.46667,"lng":26.86667},{"id":94131,"name":"Dărmăneşti","lat":46.36667,"lng":26.48333},{"id":93905,"name":"Dealu Morii","lat":46.31667,"lng":27.23333},{"id":93916,"name":"Deleni","lat":46.3536,"lng":26.77628},{"id":93979,"name":"Dofteana","lat":46.31667,"lng":26.51667},{"id":94014,"name":"Dragomir","lat":46.41373,"lng":26.63163},{"id":94047,"name":"Drăgugești","lat":46.36796,"lng":26.77433},{"id":94079,"name":"Dumbrava","lat":46.30969,"lng":26.89087},{"id":94252,"name":"Făget","lat":46.58891,"lng":26.05349},{"id":94150,"name":"Faraoaní","lat":46.43333,"lng":26.9},{"id":94158,"name":"Ferestrău-Oituz","lat":46.20249,"lng":26.57629},{"id":94174,"name":"Filipeni","lat":46.53333,"lng":27.18333},{"id":94175,"name":"Filipeşti","lat":46.75,"lng":26.88333},{"id":94208,"name":"Frumoasa","lat":46.66298,"lng":26.54196},{"id":94213,"name":"Frumușelu","lat":46.27796,"lng":27.35203},{"id":94230,"name":"Fundu Răcăciuni","lat":46.35864,"lng":26.88987},{"id":94500,"name":"Găiceana","lat":46.33333,"lng":27.21667},{"id":94274,"name":"Galbeni","lat":46.45661,"lng":26.94664},{"id":94492,"name":"Gârleni","lat":46.66667,"lng":26.8},{"id":94493,"name":"Gârlenii de Sus","lat":46.65414,"lng":26.79491},{"id":94517,"name":"Găzărie","lat":46.48928,"lng":26.51877},{"id":94300,"name":"Gheorghe Doja","lat":46.37831,"lng":26.96248},{"id":94323,"name":"Ghimeș","lat":46.56821,"lng":26.08886},{"id":94322,"name":"Ghimeş-Făget","lat":46.58333,"lng":26.06667},{"id":94345,"name":"Gioseni","lat":46.4292452,"lng":26.9923896},{"id":94366,"name":"Glăvăneşti","lat":46.25,"lng":27.38333},{"id":94465,"name":"Gura Văii","lat":46.27234,"lng":26.82604},{"id":94596,"name":"Hăghiac","lat":46.312,"lng":26.51841},{"id":94527,"name":"Helegiu","lat":46.35,"lng":26.75},{"id":94529,"name":"Hemeiuș","lat":46.62643,"lng":26.8544},{"id":94551,"name":"Holt","lat":46.57856,"lng":26.97499},{"id":94559,"name":"Horgeşti","lat":46.43333,"lng":27.06667},{"id":94583,"name":"Huruiești","lat":46.26667,"lng":27.25},{"id":94694,"name":"Iteşti","lat":46.65309,"lng":26.87256},{"id":94716,"name":"Izvoru Berheciului","lat":46.58333,"lng":27.21667},{"id":94894,"name":"Lăpoș","lat":46.39363,"lng":26.46245},{"id":94761,"name":"Larga","lat":46.3506,"lng":26.53321},{"id":94784,"name":"Lespezi","lat":46.66493,"lng":26.76882},{"id":94788,"name":"Letea Veche","lat":46.55,"lng":26.95},{"id":94796,"name":"Lilieci","lat":46.62861,"lng":26.87176},{"id":94803,"name":"Lipova","lat":46.71667,"lng":27.23333},{"id":94820,"name":"Livezi","lat":46.40639,"lng":26.73613},{"id":94821,"name":"Livezi-Vale","lat":46.41667,"lng":26.73333},{"id":94841,"name":"Ludași","lat":46.61962,"lng":26.57926},{"id":94848,"name":"Luizi-Călugăra","lat":46.53333,"lng":26.83333},{"id":95238,"name":"Măgireşti","lat":46.51667,"lng":26.55},{"id":95241,"name":"Măgura","lat":46.56667,"lng":26.85},{"id":95218,"name":"Mânăstirea Caşin","lat":46.15,"lng":26.68333},{"id":95269,"name":"Mărgineni","lat":46.5876,"lng":26.85095},{"id":95271,"name":"Mărgineni-Munteni","lat":46.6,"lng":26.9},{"id":95058,"name":"Moineşti","lat":46.47523,"lng":26.48907},{"id":95077,"name":"Motoşeni","lat":46.33333,"lng":27.38333},{"id":95110,"name":"Municipiul Bacãu","lat":46.56854,"lng":26.91135},{"id":95157,"name":"Municipiul Moineşti","lat":46.47428,"lng":26.48804},{"id":95319,"name":"Negri","lat":46.7,"lng":26.96667},{"id":95338,"name":"Nicolae Bălcescu","lat":46.46667,"lng":26.91667},{"id":95408,"name":"Odobești","lat":46.67608,"lng":27.14983},{"id":95420,"name":"Oituz","lat":46.2,"lng":26.61667},{"id":95436,"name":"Onceşti","lat":46.46667,"lng":27.25},{"id":95439,"name":"Onesti","lat":46.2520269,"lng":26.770213},{"id":95476,"name":"Oraş Buhuşi","lat":46.71845,"lng":26.69952},{"id":95496,"name":"Oraş Comãneşti","lat":46.42348,"lng":26.42796},{"id":95513,"name":"Oraş Dãrmãneşti","lat":46.37559,"lng":26.47673},{"id":95591,"name":"Oraş Slãnic-Moldova","lat":46.2232,"lng":26.47774},{"id":95609,"name":"Oraş Târgu Ocna","lat":46.27988,"lng":26.61129},{"id":95667,"name":"Orășa","lat":46.42225,"lng":26.7437},{"id":95655,"name":"Orbeni","lat":46.28333,"lng":27.01667},{"id":95671,"name":"Osebiți","lat":46.53839,"lng":26.83946},{"id":95697,"name":"Palanca","lat":46.53333,"lng":26.11667},{"id":96016,"name":"Pănceşti","lat":46.33333,"lng":27.08333},{"id":95710,"name":"Parava","lat":46.3,"lng":27.0},{"id":95999,"name":"Pârgăreşti","lat":46.25,"lng":26.65},{"id":95714,"name":"Parincea","lat":46.48333,"lng":27.1},{"id":96000,"name":"Pârjol","lat":46.58333,"lng":26.6},{"id":95816,"name":"Plopana","lat":46.68333,"lng":27.21667},{"id":95824,"name":"Plopu","lat":46.39256,"lng":26.50268},{"id":95851,"name":"Podu Turcului","lat":46.2,"lng":27.38333},{"id":95852,"name":"Poduri","lat":46.46667,"lng":26.53333},{"id":95866,"name":"Poiana","lat":46.69819,"lng":27.01765},{"id":95971,"name":"Prăjești","lat":46.6546856,"lng":26.97631},{"id":95961,"name":"Prohozești","lat":46.48155,"lng":26.5517},{"id":95987,"name":"Pustiana","lat":46.5899,"lng":26.63083},{"id":96190,"name":"Răcăciuni","lat":46.33333,"lng":26.98333},{"id":96191,"name":"Răcăuți","lat":46.22476,"lng":26.78723},{"id":96186,"name":"Răchitoasa","lat":46.43333,"lng":27.36667},{"id":96040,"name":"Racova","lat":46.7,"lng":26.75},{"id":96133,"name":"Roşiori","lat":46.71667,"lng":27.08333},{"id":106025,"name":"Sănduleni","lat":46.45,"lng":26.73333},{"id":106030,"name":"Sărata","lat":46.50249,"lng":26.86857},{"id":96249,"name":"Sascut","lat":46.2,"lng":27.1},{"id":96250,"name":"Sascut-Sat","lat":46.18727,"lng":27.06851},{"id":96257,"name":"Satu Nou","lat":46.24447,"lng":26.65343},{"id":106043,"name":"Săucești","lat":46.61853,"lng":26.94141},{"id":96272,"name":"Schitu Frumoasa","lat":46.63541,"lng":26.48761},{"id":96281,"name":"Scorţeni","lat":46.55,"lng":26.65},{"id":96287,"name":"Scurta","lat":46.26133,"lng":27.01548},{"id":96316,"name":"Secuieni","lat":46.65,"lng":27.1},{"id":96383,"name":"Slănic-Moldova","lat":46.22308,"lng":26.47413},{"id":96372,"name":"Slobozia","lat":46.47495,"lng":27.31111},{"id":96407,"name":"Solonţ","lat":46.55,"lng":26.51667},{"id":96410,"name":"Somușca","lat":46.40147,"lng":26.91189},{"id":96481,"name":"Stănişeşti","lat":46.43333,"lng":27.3},{"id":97077,"name":"Ştefan Cel Mare","lat":46.20526,"lng":26.85488},{"id":97131,"name":"Ștefan Vodă","lat":46.31692,"lng":26.5125},{"id":96448,"name":"Straja","lat":46.43989,"lng":26.36258},{"id":96458,"name":"Strugari","lat":46.53333,"lng":26.71667},{"id":106055,"name":"Tamaşi","lat":46.48333,"lng":26.98333},{"id":96587,"name":"Târgu Ocna","lat":46.27899,"lng":26.61301},{"id":96589,"name":"Târgu Trotuş","lat":46.26667,"lng":26.66667},{"id":96622,"name":"Tătărăști","lat":46.21667,"lng":27.2},{"id":106149,"name":"Traian","lat":46.63333,"lng":27.03333},{"id":96563,"name":"Turluianu","lat":46.45298,"lng":26.64607},{"id":96570,"name":"Tuta","lat":46.25643,"lng":26.69103},{"id":96661,"name":"Ungureni","lat":46.52283,"lng":27.11186},{"id":96676,"name":"Urecheşti","lat":46.13333,"lng":27.08333},{"id":96920,"name":"Vâlcele","lat":46.29801,"lng":26.60005},{"id":96710,"name":"Valea Arinilor","lat":46.49793,"lng":26.50918},{"id":96766,"name":"Valea lui Ion","lat":46.7035,"lng":26.62499},{"id":96754,"name":"Valea Seacă","lat":46.24281,"lng":27.04594},{"id":96768,"name":"Valea Șoșii","lat":46.4618,"lng":26.54992},{"id":96790,"name":"Vermești","lat":46.42172,"lng":26.4766},{"id":96793,"name":"Verșești","lat":46.44904,"lng":26.70183},{"id":96824,"name":"Viișoara","lat":46.28325,"lng":26.66187},{"id":96908,"name":"Vultureni","lat":46.36667,"lng":27.28333},{"id":96987,"name":"Zemeş","lat":46.58333,"lng":26.41667}]