[{"id":90519,"name":"Bălăbănești","lat":46.09546,"lng":27.72206},{"id":90525,"name":"Bălăşeşti","lat":46.1,"lng":27.66667},{"id":90508,"name":"Băleni","lat":45.81667,"lng":27.83333},{"id":90043,"name":"Balintești","lat":46.02937,"lng":27.92201},{"id":90530,"name":"Băneasa","lat":45.93333,"lng":27.93333},{"id":90061,"name":"Barcea","lat":45.75,"lng":27.46667},{"id":90107,"name":"Berești","lat":46.0964805,"lng":27.8862307},{"id":90162,"name":"Blânzi","lat":45.93575,"lng":27.65063},{"id":90332,"name":"Brăhășești","lat":46.03333,"lng":27.36667},{"id":90331,"name":"Brăhăşeştii de Sus","lat":46.05,"lng":27.35},{"id":90270,"name":"Braniştea","lat":45.45,"lng":27.85},{"id":90346,"name":"Bucești","lat":45.6525,"lng":27.53008},{"id":90353,"name":"Buciumeni","lat":46.0,"lng":27.3},{"id":90591,"name":"Cavadineşti","lat":46.06667,"lng":28.01694},{"id":90645,"name":"Cerţeşti","lat":46.01667,"lng":27.61667},{"id":90675,"name":"Chiraftei","lat":45.7722,"lng":28.02716},{"id":90730,"name":"Ciorăști","lat":46.1138,"lng":27.45311},{"id":90763,"name":"Cișmele","lat":45.51634,"lng":27.92975},{"id":91221,"name":"Comuna Bălăbăneşti","lat":46.07623,"lng":27.75375},{"id":91226,"name":"Comuna Bălăşeşti","lat":46.09003,"lng":27.65844},{"id":91213,"name":"Comuna Băleni","lat":45.80942,"lng":27.8502},{"id":91230,"name":"Comuna Băneasa","lat":45.93008,"lng":27.97963},{"id":90937,"name":"Comuna Barcea","lat":45.74744,"lng":27.46265},{"id":90966,"name":"Comuna Bereşti-Meria","lat":46.10362,"lng":27.92288},{"id":91120,"name":"Comuna Brăhăşeşti","lat":46.0616,"lng":27.36196},{"id":91078,"name":"Comuna Braniştea","lat":45.44141,"lng":27.8324},{"id":91131,"name":"Comuna Buciumeni","lat":45.97702,"lng":27.31922},{"id":91268,"name":"Comuna Cavadineşti","lat":46.0804,"lng":28.01638},{"id":91302,"name":"Comuna Cerţeşti","lat":46.01758,"lng":27.62321},{"id":91440,"name":"Comuna Corni","lat":45.86922,"lng":27.77693},{"id":91445,"name":"Comuna Corod","lat":45.93693,"lng":27.6515},{"id":91449,"name":"Comuna Cosmeşti","lat":45.84926,"lng":27.31605},{"id":91453,"name":"Comuna Costache Negri","lat":45.70518,"lng":27.72342},{"id":91519,"name":"Comuna Cuca","lat":45.73246,"lng":27.89396},{"id":91521,"name":"Comuna Cudalbi","lat":45.77622,"lng":27.68604},{"id":91698,"name":"Comuna Drăgăneşti","lat":45.79281,"lng":27.46438},{"id":91695,"name":"Comuna Drăguşeni","lat":46.00203,"lng":27.73297},{"id":91814,"name":"Comuna Fârţăneşti","lat":45.79843,"lng":27.9695},{"id":91777,"name":"Comuna Folteşti","lat":45.72301,"lng":28.06995},{"id":91789,"name":"Comuna Frumuşiţa","lat":45.65593,"lng":28.06631},{"id":91800,"name":"Comuna Fundeni","lat":45.56736,"lng":27.55104},{"id":91853,"name":"Comuna Ghidigeni","lat":46.03356,"lng":27.4921},{"id":91893,"name":"Comuna Gohor","lat":46.01539,"lng":27.42653},{"id":91922,"name":"Comuna Griviţa","lat":45.7004,"lng":27.64104},{"id":92077,"name":"Comuna Independenţa","lat":45.47466,"lng":27.76025},{"id":92098,"name":"Comuna Iveşti","lat":45.66843,"lng":27.52467},{"id":92129,"name":"Comuna Jorăşti","lat":45.98544,"lng":27.87215},{"id":92164,"name":"Comuna Lieşti","lat":45.62018,"lng":27.54132},{"id":92418,"name":"Comuna Măstăcani","lat":45.767,"lng":28.04175},{"id":92245,"name":"Comuna Matca","lat":45.85686,"lng":27.5366},{"id":92340,"name":"Comuna Movileni","lat":45.76584,"lng":27.37587},{"id":92356,"name":"Comuna Munteni","lat":45.91503,"lng":27.44242},{"id":92462,"name":"Comuna Nămoloasa","lat":45.52383,"lng":27.56307},{"id":92434,"name":"Comuna Negrileşti","lat":45.94768,"lng":27.48018},{"id":92444,"name":"Comuna Nicoreşti","lat":45.93603,"lng":27.29735},{"id":92467,"name":"Comuna Oancea","lat":45.90648,"lng":28.11118},{"id":92543,"name":"Comuna Pechea","lat":45.64303,"lng":27.82756},{"id":92587,"name":"Comuna Piscu","lat":45.51681,"lng":27.71645},{"id":92622,"name":"Comuna Poiana","lat":45.99554,"lng":27.26693},{"id":92676,"name":"Comuna Priponeşti","lat":46.1015,"lng":27.43939},{"id":92843,"name":"Comuna Rădeşti","lat":46.08312,"lng":27.79606},{"id":92760,"name":"Comuna Rediu","lat":45.72065,"lng":27.84647},{"id":92903,"name":"Comuna Scânteieşti","lat":45.68833,"lng":28.00432},{"id":92885,"name":"Comuna Schela","lat":45.5181,"lng":27.85229},{"id":93506,"name":"Comuna Şendreni","lat":45.4132,"lng":27.92253},{"id":92956,"name":"Comuna Slobozia Conachi","lat":45.5643,"lng":27.77143},{"id":92964,"name":"Comuna Smârdan","lat":45.49694,"lng":27.93554},{"id":92963,"name":"Comuna Smulţi","lat":45.93246,"lng":27.75488},{"id":93025,"name":"Comuna Suceveni","lat":45.99495,"lng":28.05748},{"id":93568,"name":"Comuna Ţepu","lat":45.97734,"lng":27.37677},{"id":93198,"name":"Comuna Tudor Vladimirescu","lat":45.56466,"lng":27.65075},{"id":93206,"name":"Comuna Tuluceşti","lat":45.59242,"lng":28.05239},{"id":93266,"name":"Comuna Umbrăreşti","lat":45.71386,"lng":27.45893},{"id":93317,"name":"Comuna Valea Mãrului","lat":45.85934,"lng":27.69554},{"id":93434,"name":"Comuna Vânători","lat":45.52597,"lng":28.00892},{"id":93443,"name":"Comuna Vârlezi","lat":45.92244,"lng":27.82966},{"id":93390,"name":"Comuna Vlădeşti","lat":45.81991,"lng":28.08845},{"id":93637,"name":"Corni","lat":45.85,"lng":27.76667},{"id":93646,"name":"Corod","lat":45.9,"lng":27.61667},{"id":93652,"name":"Cosmeşti","lat":45.87017,"lng":27.31115},{"id":93654,"name":"Cosmeștii-Vale","lat":45.86931,"lng":27.28771},{"id":93657,"name":"Costache Negri","lat":45.7,"lng":27.71667},{"id":93754,"name":"Crăiești","lat":45.94314,"lng":27.81136},{"id":93756,"name":"Cuca","lat":45.73333,"lng":27.88333},{"id":93763,"name":"Cudalbi","lat":45.78333,"lng":27.7},{"id":93786,"name":"Cuza Vodă","lat":45.5951518,"lng":27.7885764},{"id":94058,"name":"Drăgăneşti","lat":45.78333,"lng":27.46667},{"id":94048,"name":"Drăguşeni","lat":45.96667,"lng":27.75},{"id":94242,"name":"Fântânele","lat":45.70152,"lng":28.00354},{"id":94246,"name":"Fârţăneşti","lat":45.81667,"lng":27.98333},{"id":94197,"name":"Folteşti","lat":45.75,"lng":28.05},{"id":94212,"name":"Frumuşiţa","lat":45.66667,"lng":28.06667},{"id":94227,"name":"Fundeni","lat":45.54123,"lng":27.54056},{"id":94232,"name":"Furcenii Noi","lat":45.81118,"lng":27.33954},{"id":94272,"name":"Galaţi","lat":45.43687,"lng":28.05028},{"id":94511,"name":"Gănești","lat":46.0897,"lng":27.99337},{"id":94318,"name":"Ghidigeni","lat":46.05,"lng":27.5},{"id":94374,"name":"Gohor","lat":46.06667,"lng":27.4},{"id":94417,"name":"Griviţa","lat":45.71667,"lng":27.65},{"id":94523,"name":"Hanu Conachi","lat":45.5865,"lng":27.59481},{"id":94665,"name":"Independenţa","lat":45.48333,"lng":27.75},{"id":94696,"name":"Iveşti","lat":45.68333,"lng":27.51667},{"id":94746,"name":"Jorăşti","lat":45.98333,"lng":27.86667},{"id":94795,"name":"Lieşti","lat":45.61667,"lng":27.51667},{"id":95213,"name":"Mândrești","lat":45.88333,"lng":27.7},{"id":95287,"name":"Măstăcani","lat":45.78333,"lng":28.03333},{"id":94934,"name":"Matca","lat":45.85,"lng":27.53333},{"id":95076,"name":"Moscu","lat":45.9026,"lng":27.9312},{"id":95084,"name":"Movileni","lat":45.76154,"lng":27.37184},{"id":95144,"name":"Municipiul Galaţi","lat":45.44078,"lng":28.04118},{"id":95186,"name":"Municipiul Tecuci","lat":45.85155,"lng":27.42826},{"id":95200,"name":"Munteni","lat":45.93333,"lng":27.43333},{"id":95370,"name":"Nămoloasa","lat":45.5361,"lng":27.55226},{"id":95371,"name":"Nămoloasa-Sat","lat":45.53333,"lng":27.58333},{"id":95323,"name":"Negrilești","lat":45.95729,"lng":27.48085},{"id":95341,"name":"Nicoreşti","lat":45.93223,"lng":27.30866},{"id":95379,"name":"Oancea","lat":45.91667,"lng":28.1},{"id":95404,"name":"Odaia Manolache","lat":45.54897,"lng":27.99057},{"id":95462,"name":"Oraş Bereşti","lat":46.09648,"lng":27.88623},{"id":95647,"name":"Oraș Târgu Bujor","lat":45.87398,"lng":27.92304},{"id":95721,"name":"Pechea","lat":45.63333,"lng":27.8},{"id":95797,"name":"Piscu","lat":45.5,"lng":27.73333},{"id":95847,"name":"Podoleni","lat":45.7483,"lng":27.44661},{"id":95867,"name":"Poiana","lat":45.99228,"lng":27.25609},{"id":95953,"name":"Priponeşti","lat":46.08333,"lng":27.43333},{"id":96196,"name":"Rădești","lat":46.07263,"lng":27.78936},{"id":96079,"name":"Rediu","lat":45.71667,"lng":27.83333},{"id":96294,"name":"Scânteiești","lat":45.68333,"lng":27.98333},{"id":96268,"name":"Schela","lat":45.5,"lng":27.81667},{"id":97037,"name":"Şendreni","lat":45.4,"lng":27.91667},{"id":97130,"name":"Șivița","lat":45.61285,"lng":28.05757},{"id":96375,"name":"Slobozia Conachi","lat":45.58333,"lng":27.78333},{"id":96390,"name":"Smârdan","lat":45.48333,"lng":27.93333},{"id":96388,"name":"Smulţi","lat":45.93333,"lng":27.75},{"id":96489,"name":"Suceveni","lat":46.01222,"lng":28.01806},{"id":96498,"name":"Suhurlui","lat":45.7285372,"lng":27.8262874},{"id":96604,"name":"Tălpigi","lat":46.00796,"lng":27.47247},{"id":96581,"name":"Târgu Bujor","lat":45.86667,"lng":27.9},{"id":106069,"name":"Tecuci","lat":45.84973,"lng":27.43441},{"id":97100,"name":"Ţepu","lat":45.96667,"lng":27.36667},{"id":106118,"name":"Toflea","lat":46.06372,"lng":27.33411},{"id":106165,"name":"Tudor Vladimirescu","lat":45.56667,"lng":27.65},{"id":96547,"name":"Tuluceşti","lat":45.56667,"lng":28.03333},{"id":96652,"name":"Umbrăreşti","lat":45.71667,"lng":27.46667},{"id":96654,"name":"Umbrărești-Deal","lat":45.7,"lng":27.46667},{"id":96659,"name":"Ungureni","lat":45.91307,"lng":27.47},{"id":96743,"name":"Valea Mărului","lat":45.83866,"lng":27.69138},{"id":96931,"name":"Vânători","lat":45.53333,"lng":28.01667},{"id":96942,"name":"Vârlezi","lat":45.9,"lng":27.85},{"id":96814,"name":"Viile","lat":45.80691,"lng":27.94748},{"id":96865,"name":"Vlădeşti","lat":45.85,"lng":28.08333}]