[{"id":89912,"name":"Albeni","lat":45.03333,"lng":23.6},{"id":89932,"name":"Alimpeşti","lat":45.08333,"lng":23.8},{"id":89954,"name":"Andreești","lat":44.78948,"lng":23.55099},{"id":89963,"name":"Aninoasa","lat":44.75,"lng":23.48333},{"id":89979,"name":"Arcani","lat":45.08333,"lng":23.13333},{"id":90034,"name":"Baia de Fier","lat":45.16667,"lng":23.76667},{"id":90506,"name":"Bălcești","lat":45.10516,"lng":23.6329},{"id":90510,"name":"Băleşti","lat":45.01667,"lng":23.21667},{"id":90441,"name":"Bâlta","lat":45.11791,"lng":23.1022},{"id":90443,"name":"Bâlteni","lat":44.86919,"lng":23.27311},{"id":90541,"name":"Bărbăteşti","lat":44.86667,"lng":23.5},{"id":90094,"name":"Bengești","lat":45.06667,"lng":23.6},{"id":90112,"name":"Berleşti","lat":44.91667,"lng":23.66667},{"id":90208,"name":"Bolboşi","lat":44.75,"lng":23.21667},{"id":90236,"name":"Borăscu","lat":44.7,"lng":23.28333},{"id":90336,"name":"Brăneşti","lat":44.65,"lng":23.46667},{"id":90407,"name":"Bumbeşti-Jiu","lat":45.16667,"lng":23.4},{"id":90424,"name":"Bustuchin","lat":44.96667,"lng":23.73333},{"id":93793,"name":"Câlnic","lat":44.95,"lng":23.08333},{"id":93859,"name":"Căpreni","lat":44.75,"lng":23.61667},{"id":93871,"name":"Cărpiniș","lat":45.18407,"lng":23.58052},{"id":93880,"name":"Cătunele","lat":44.86442,"lng":22.90707},{"id":90605,"name":"Ceauru","lat":45.01175,"lng":23.20211},{"id":90753,"name":"Ciuperceni","lat":44.93333,"lng":23.01667},{"id":90770,"name":"Cloșani","lat":45.06897,"lng":22.8025},{"id":90781,"name":"Cocoreni","lat":44.82772,"lng":23.31405},{"id":90838,"name":"Comuna Albeni","lat":45.01363,"lng":23.60208},{"id":90853,"name":"Comuna Alimpeşti","lat":45.10542,"lng":23.79651},{"id":90873,"name":"Comuna Aninoasa","lat":44.74836,"lng":23.47372},{"id":90883,"name":"Comuna Arcani","lat":45.07232,"lng":23.14108},{"id":90919,"name":"Comuna Baia de Fier","lat":45.17402,"lng":23.74152},{"id":91225,"name":"Comuna Bălăneşti","lat":45.09028,"lng":23.44674},{"id":91216,"name":"Comuna Băleşti","lat":45.01898,"lng":23.18145},{"id":91182,"name":"Comuna Bâlteni","lat":44.86667,"lng":23.26736},{"id":91238,"name":"Comuna Bărbăteşti","lat":44.85916,"lng":23.5076},{"id":90958,"name":"Comuna Bengeşti-Ciocadia","lat":45.09845,"lng":23.60621},{"id":91037,"name":"Comuna Bolboşi","lat":44.7374,"lng":23.22157},{"id":91055,"name":"Comuna Borăscu","lat":44.70105,"lng":23.26739},{"id":91121,"name":"Comuna Brăneşti","lat":44.66555,"lng":23.47213},{"id":91162,"name":"Comuna Bumbeşti-Piţic","lat":45.12413,"lng":23.70348},{"id":91172,"name":"Comuna Bustuchin","lat":44.96835,"lng":23.70347},{"id":91541,"name":"Comuna Câlnic","lat":44.94202,"lng":23.06292},{"id":91584,"name":"Comuna Căpreni","lat":44.74439,"lng":23.62033},{"id":91595,"name":"Comuna Cătunele","lat":44.83902,"lng":22.92465},{"id":91372,"name":"Comuna Ciuperceni","lat":44.928,"lng":22.99173},{"id":91486,"name":"Comuna Crasna","lat":45.17065,"lng":23.55625},{"id":91511,"name":"Comuna Crușeț","lat":44.63848,"lng":23.67247},{"id":91736,"name":"Comuna Dănciuleşti","lat":44.77004,"lng":23.76023},{"id":91739,"name":"Comuna Dăneşti","lat":44.96735,"lng":23.3439},{"id":91691,"name":"Comuna Drăgoteşti","lat":44.79957,"lng":23.16192},{"id":91684,"name":"Comuna Drãguţeşti","lat":44.9637,"lng":23.2348},{"id":91816,"name":"Comuna Fãrcãşeşti","lat":44.87069,"lng":23.19279},{"id":91884,"name":"Comuna Glogova","lat":44.91623,"lng":22.9081},{"id":91889,"name":"Comuna Godineşti","lat":44.97634,"lng":22.96093},{"id":92028,"name":"Comuna Hurezani","lat":44.80305,"lng":23.63617},{"id":92086,"name":"Comuna Ioneşti","lat":44.61636,"lng":23.42688},{"id":92134,"name":"Comuna Jupâneşti","lat":44.91241,"lng":23.52325},{"id":92147,"name":"Comuna Leleşti","lat":45.09875,"lng":23.19761},{"id":92162,"name":"Comuna Licurici","lat":44.87544,"lng":23.62641},{"id":92182,"name":"Comuna Logreşti-Moşteni","lat":44.88848,"lng":23.71256},{"id":92419,"name":"Comuna Mătăsari","lat":44.85764,"lng":23.06819},{"id":92364,"name":"Comuna Muşeteşti","lat":45.15231,"lng":23.45022},{"id":92429,"name":"Comuna Negomir","lat":44.78593,"lng":23.22744},{"id":92527,"name":"Comuna Padeş","lat":45.05089,"lng":22.80954},{"id":92571,"name":"Comuna Peştişani","lat":45.07061,"lng":23.04902},{"id":92600,"name":"Comuna Plopşoru","lat":44.73869,"lng":23.39053},{"id":92646,"name":"Comuna Polovragi","lat":45.17196,"lng":23.82134},{"id":92675,"name":"Comuna Prigoria","lat":45.05711,"lng":23.68453},{"id":92797,"name":"Comuna Roşia De Amaradia","lat":45.04419,"lng":23.75991},{"id":92810,"name":"Comuna Runcu","lat":45.12041,"lng":23.13974},{"id":93083,"name":"Comuna Săcelu","lat":45.10648,"lng":23.53717},{"id":92869,"name":"Comuna Samarineşti","lat":44.77152,"lng":23.04889},{"id":93115,"name":"Comuna Săuleşti","lat":44.81247,"lng":23.48767},{"id":92886,"name":"Comuna Schela","lat":45.15883,"lng":23.32395},{"id":92891,"name":"Comuna Scoarţa","lat":45.02872,"lng":23.47131},{"id":92951,"name":"Comuna Slivileşti","lat":44.79198,"lng":23.10761},{"id":93017,"name":"Comuna Stăneşti","lat":45.1305,"lng":23.25328},{"id":92987,"name":"Comuna Stejari","lat":44.77359,"lng":23.70567},{"id":92997,"name":"Comuna Stoina","lat":44.67998,"lng":23.64563},{"id":93579,"name":"Comuna Ţânţăreni","lat":44.61874,"lng":23.54285},{"id":93137,"name":"Comuna Teleşti","lat":44.98175,"lng":23.10843},{"id":93209,"name":"Comuna Turburea","lat":44.68249,"lng":23.53171},{"id":93210,"name":"Comuna Turcineşti","lat":45.12744,"lng":23.30333},{"id":93279,"name":"Comuna Urdari","lat":44.79934,"lng":23.296},{"id":93456,"name":"Comuna Văgiuleşti","lat":44.7298,"lng":23.10113},{"id":93382,"name":"Comuna Vladimir","lat":44.82235,"lng":23.5552},{"id":93664,"name":"Costești","lat":44.73264,"lng":23.44491},{"id":93681,"name":"Covrigi","lat":44.73825,"lng":23.14921},{"id":93706,"name":"Crasna","lat":45.16667,"lng":23.5},{"id":93744,"name":"Crușeț","lat":44.63333,"lng":23.66667},{"id":94124,"name":"Dănciuleşti","lat":44.73333,"lng":23.75},{"id":94127,"name":"Dăneşti","lat":44.96667,"lng":23.33333},{"id":93960,"name":"Dobrița","lat":45.13504,"lng":23.17406},{"id":94046,"name":"Drăgoteşti","lat":44.8,"lng":23.16667},{"id":94051,"name":"Drăguţeşti","lat":44.96667,"lng":23.23333},{"id":94265,"name":"Fărcăşeşti","lat":44.86667,"lng":23.2},{"id":94188,"name":"Florești","lat":44.61918,"lng":23.52838},{"id":94364,"name":"Glogova","lat":44.92806,"lng":22.90667},{"id":94369,"name":"Godineşti","lat":45.0,"lng":22.96667},{"id":94581,"name":"Hurezani","lat":44.8,"lng":23.65},{"id":94677,"name":"Ioneşti","lat":44.61667,"lng":23.43333},{"id":94753,"name":"Jupâneşti","lat":44.9,"lng":23.53333},{"id":94774,"name":"Leleşti","lat":45.1,"lng":23.2},{"id":94793,"name":"Licurici","lat":44.91667,"lng":23.61667},{"id":94829,"name":"Logreşti","lat":44.9,"lng":23.7},{"id":94830,"name":"Logrești Moșteni","lat":44.90663,"lng":23.7048},{"id":95290,"name":"Mătăsari","lat":44.85,"lng":23.08333},{"id":95078,"name":"Motru","lat":44.80333,"lng":22.97194},{"id":95159,"name":"Municipiul Motru","lat":44.81422,"lng":22.98229},{"id":95192,"name":"Municipiul Târgu Jiu","lat":45.05278,"lng":23.27708},{"id":95210,"name":"Muşeteşti","lat":45.15,"lng":23.46667},{"id":95311,"name":"Negomir","lat":44.83333,"lng":23.16667},{"id":95357,"name":"Novaci","lat":45.16462,"lng":23.66839},{"id":95477,"name":"Oraş Bumbeşti-Jiu","lat":45.14429,"lng":23.38185},{"id":95578,"name":"Oraş Rovinari","lat":44.93857,"lng":23.15598},{"id":95606,"name":"Oraş Târgu Cãrbuneşti","lat":44.9655,"lng":23.49567},{"id":95632,"name":"Oraş Ţicleni","lat":44.88344,"lng":23.38921},{"id":95603,"name":"Oraş Tismana","lat":45.04464,"lng":22.93803},{"id":95605,"name":"Oraş Turceni","lat":44.71779,"lng":23.35419},{"id":95693,"name":"Padeş","lat":45.01667,"lng":22.85},{"id":95763,"name":"Peșteana de Jos","lat":44.83333,"lng":23.26974},{"id":95762,"name":"Peșteana Jiu","lat":44.84695,"lng":23.30401},{"id":95760,"name":"Peştişani","lat":45.06667,"lng":23.03333},{"id":95796,"name":"Piscoiu","lat":44.85211,"lng":23.75387},{"id":95825,"name":"Plopşoru","lat":44.78333,"lng":23.35},{"id":95830,"name":"Ploștina","lat":44.82398,"lng":22.98791},{"id":95839,"name":"Pociovaliștea","lat":45.15315,"lng":23.64392},{"id":95841,"name":"Pocruia","lat":45.0447,"lng":22.92495},{"id":95861,"name":"Poiana","lat":44.65174,"lng":23.53148},{"id":95898,"name":"Pojogeni","lat":44.99119,"lng":23.48425},{"id":95901,"name":"Polovragi","lat":45.18333,"lng":23.8},{"id":95952,"name":"Prigoria","lat":45.06667,"lng":23.68333},{"id":96128,"name":"Roşia de Amaradia","lat":45.05,"lng":23.75},{"id":96122,"name":"Rovinari","lat":44.91667,"lng":23.18333},{"id":96154,"name":"Runcu","lat":45.11667,"lng":23.13333},{"id":105994,"name":"Săcelu","lat":45.1,"lng":23.53333},{"id":96238,"name":"Samarineşti","lat":44.75,"lng":23.05},{"id":96517,"name":"Sâmbotin","lat":45.13333,"lng":23.33333},{"id":106044,"name":"Săuleşti","lat":44.8,"lng":23.48333},{"id":96276,"name":"Scoarţa","lat":45.01667,"lng":23.45},{"id":96367,"name":"Slivileşti","lat":44.78333,"lng":23.13333},{"id":96402,"name":"Sohodol","lat":45.05531,"lng":22.88194},{"id":96478,"name":"Stăneşti","lat":45.11667,"lng":23.25},{"id":96425,"name":"Stejari","lat":44.76667,"lng":23.68333},{"id":96430,"name":"Sterpoaia","lat":44.79058,"lng":23.43601},{"id":96440,"name":"Stoina","lat":44.68333,"lng":23.63333},{"id":97111,"name":"Ţânţăreni","lat":44.6,"lng":23.48333},{"id":96582,"name":"Târgu Cărbuneşti","lat":44.95,"lng":23.51667},{"id":96584,"name":"Târgu Jiu","lat":45.05,"lng":23.28333},{"id":106080,"name":"Teleşti","lat":45.0,"lng":23.08333},{"id":97104,"name":"Ţicleni","lat":44.88333,"lng":23.4},{"id":106107,"name":"Tismana","lat":45.05,"lng":22.96667},{"id":96552,"name":"Turburea","lat":44.71667,"lng":23.51667},{"id":96553,"name":"Turceni","lat":44.68333,"lng":23.36667},{"id":96555,"name":"Turcineşti","lat":45.1,"lng":23.33333},{"id":96673,"name":"Urdari","lat":44.8,"lng":23.3},{"id":96957,"name":"Văgiuleşti","lat":44.71667,"lng":23.08333},{"id":96737,"name":"Valea Mare","lat":45.11263,"lng":23.08004},{"id":96812,"name":"Vierșani","lat":44.87875,"lng":23.5312},{"id":96869,"name":"Vlăduleni","lat":44.88857,"lng":23.23727},{"id":96884,"name":"Voiteștii din Vale","lat":45.08746,"lng":23.42145}]