[{"id":89913,"name":"Albeşti","lat":46.5,"lng":27.86667},{"id":89928,"name":"Alexandru Vlăhuţă","lat":46.41667,"lng":27.63333},{"id":90000,"name":"Arsura","lat":46.81333,"lng":28.02222},{"id":90474,"name":"Băcani","lat":46.33333,"lng":27.66667},{"id":90475,"name":"Băceşti","lat":46.85,"lng":27.23333},{"id":90479,"name":"Bădeana","lat":46.15,"lng":27.58333},{"id":90489,"name":"Băile Drânceni","lat":46.81361,"lng":28.10083},{"id":90514,"name":"Bălteni","lat":46.66667,"lng":27.61667},{"id":90053,"name":"Banca","lat":46.3,"lng":27.8},{"id":90450,"name":"Bârlad","lat":46.23175,"lng":27.66907},{"id":90461,"name":"Bârzești","lat":46.75,"lng":27.55},{"id":90103,"name":"Berezeni","lat":46.37611,"lng":28.14778},{"id":90163,"name":"Blăgeşti","lat":46.13722,"lng":28.01306},{"id":90188,"name":"Bogdana","lat":46.52668,"lng":27.63278},{"id":90194,"name":"Bogdănești","lat":46.44965,"lng":27.72679},{"id":90195,"name":"Bogdăniţa","lat":46.45,"lng":27.68333},{"id":90256,"name":"Boţeşti","lat":46.8,"lng":27.88333},{"id":90306,"name":"Brodoc","lat":46.6509,"lng":27.67669},{"id":90372,"name":"Buda","lat":46.76231,"lng":27.42113},{"id":90410,"name":"Buneşti","lat":46.83333,"lng":27.96667},{"id":93810,"name":"Cârja","lat":46.14878,"lng":28.11012},{"id":90676,"name":"Chircești","lat":46.84629,"lng":27.8492},{"id":90691,"name":"Chițoc","lat":46.59545,"lng":27.6745},{"id":90706,"name":"Ciocani","lat":46.26044,"lng":27.55994},{"id":90786,"name":"Codăeşti","lat":46.86667,"lng":27.75},{"id":90841,"name":"Comuna Albeşti","lat":46.4985,"lng":27.85167},{"id":90850,"name":"Comuna Alexandru Vlăhuţă","lat":46.44973,"lng":27.6242},{"id":90898,"name":"Comuna Arsura","lat":46.79618,"lng":28.03896},{"id":91203,"name":"Comuna Băcani","lat":46.33768,"lng":27.67905},{"id":91204,"name":"Comuna Băceşti","lat":46.83325,"lng":27.23668},{"id":91219,"name":"Comuna Bălteni","lat":46.67554,"lng":27.61019},{"id":90933,"name":"Comuna Banca","lat":46.34406,"lng":27.82091},{"id":90964,"name":"Comuna Berezeni","lat":46.39654,"lng":28.1157},{"id":91007,"name":"Comuna Blăgeşti","lat":46.1413,"lng":27.99695},{"id":91023,"name":"Comuna Bogdana","lat":46.55124,"lng":27.61516},{"id":91027,"name":"Comuna Bogdăneşti","lat":46.437,"lng":27.72015},{"id":91029,"name":"Comuna Bogdăniţa","lat":46.44752,"lng":27.67505},{"id":91070,"name":"Comuna Boţeşti","lat":46.7963,"lng":27.88467},{"id":91166,"name":"Comuna Bunești Averești","lat":46.7981,"lng":27.97722},{"id":91340,"name":"Comuna Ciocani","lat":46.25393,"lng":27.56957},{"id":91392,"name":"Comuna Codăeşti","lat":46.88029,"lng":27.7536},{"id":91447,"name":"Comuna Coroieşti","lat":46.28891,"lng":27.49249},{"id":91454,"name":"Comuna Costeşti","lat":46.47971,"lng":27.7636},{"id":91470,"name":"Comuna Cozmeşti","lat":46.73024,"lng":27.49753},{"id":91493,"name":"Comuna Creţeşti","lat":46.63508,"lng":27.96827},{"id":91738,"name":"Comuna Dăneşti","lat":46.83967,"lng":27.65905},{"id":91610,"name":"Comuna Deleni","lat":46.53486,"lng":27.75726},{"id":91612,"name":"Comuna Deleşti","lat":46.69163,"lng":27.55152},{"id":91626,"name":"Comuna Dimitrie Cantemir","lat":46.52932,"lng":28.05059},{"id":91650,"name":"Comuna Dodeşti","lat":46.35165,"lng":27.91789},{"id":91672,"name":"Comuna Dragomireşti","lat":46.61861,"lng":27.35794},{"id":91681,"name":"Comuna Drânceni","lat":46.79614,"lng":28.12092},{"id":91705,"name":"Comuna Duda Epureni","lat":46.72477,"lng":28.04647},{"id":91721,"name":"Comuna Dumeşti","lat":46.84347,"lng":27.30041},{"id":91748,"name":"Comuna Epureni","lat":46.24228,"lng":27.89582},{"id":91820,"name":"Comuna Fălciu","lat":46.2937,"lng":28.10324},{"id":91790,"name":"Comuna Fruntişeni","lat":46.19806,"lng":27.77368},{"id":91978,"name":"Comuna Găgeşti","lat":46.33311,"lng":27.98026},{"id":91968,"name":"Comuna Gârceni","lat":46.75136,"lng":27.27964},{"id":91846,"name":"Comuna Ghergheşti","lat":46.52167,"lng":27.52404},{"id":91920,"name":"Comuna Griviţa","lat":46.16827,"lng":27.68223},{"id":92004,"name":"Comuna Hoceni","lat":46.54027,"lng":27.98196},{"id":92052,"name":"Comuna Iana","lat":46.40438,"lng":27.55265},{"id":92057,"name":"Comuna Ibăneşti","lat":46.40507,"lng":27.62043},{"id":92100,"name":"Comuna Ivăneşti","lat":46.66216,"lng":27.44465},{"id":92099,"name":"Comuna Iveşti","lat":46.19492,"lng":27.5367},{"id":92140,"name":"Comuna Laza","lat":46.65239,"lng":27.59843},{"id":92169,"name":"Comuna Lipovăţ","lat":46.56352,"lng":27.6927},{"id":92201,"name":"Comuna Lunca Banului","lat":46.5664,"lng":28.1979},{"id":92400,"name":"Comuna Măluşteni","lat":46.17587,"lng":27.91546},{"id":92267,"name":"Comuna Micleşti","lat":46.82203,"lng":27.84215},{"id":92358,"name":"Comuna Muntenii de Jos","lat":46.60405,"lng":27.76949},{"id":92359,"name":"Comuna Muntenii de Sus","lat":46.69288,"lng":27.7632},{"id":92496,"name":"Comuna Olteneşti","lat":46.58438,"lng":27.9018},{"id":92524,"name":"Comuna Oşeşti","lat":46.76376,"lng":27.44832},{"id":92716,"name":"Comuna Pădureni","lat":46.59285,"lng":28.09127},{"id":92550,"name":"Comuna Perieni","lat":46.30407,"lng":27.61323},{"id":92609,"name":"Comuna Pochidia","lat":46.05233,"lng":27.5845},{"id":92619,"name":"Comuna Pogana","lat":46.33546,"lng":27.5536},{"id":92620,"name":"Comuna Pogoneşti","lat":46.14748,"lng":27.52665},{"id":92639,"name":"Comuna Poieneşti","lat":46.57978,"lng":27.54608},{"id":92694,"name":"Comuna Puieşti","lat":46.44541,"lng":27.46214},{"id":92696,"name":"Comuna Pungeşti","lat":46.70274,"lng":27.38157},{"id":92702,"name":"Comuna Puşcaşi","lat":46.6253,"lng":27.62563},{"id":92751,"name":"Comuna Rebricea","lat":46.87229,"lng":27.5725},{"id":92800,"name":"Comuna Roşieşti","lat":46.45107,"lng":27.89202},{"id":92973,"name":"Comuna Soleşti","lat":46.77174,"lng":27.80613},{"id":93019,"name":"Comuna Stănileşti","lat":46.6503,"lng":28.16151},{"id":93552,"name":"Comuna Ştefan cel Mare","lat":46.71562,"lng":27.62941},{"id":93560,"name":"Comuna Şuletea","lat":46.30607,"lng":27.90413},{"id":93236,"name":"Comuna Tăcuta","lat":46.9363,"lng":27.66505},{"id":93123,"name":"Comuna Tanacu","lat":46.68721,"lng":27.82443},{"id":93246,"name":"Comuna Tătărăni","lat":46.70894,"lng":27.95602},{"id":93163,"name":"Comuna Todireşti","lat":46.84897,"lng":27.38756},{"id":93219,"name":"Comuna Tutova","lat":46.11223,"lng":27.57244},{"id":93449,"name":"Comuna Vãleni","lat":46.73091,"lng":27.75925},{"id":93348,"name":"Comuna Vetrişoaia","lat":46.45742,"lng":28.21799},{"id":93361,"name":"Comuna Viişoara","lat":46.37992,"lng":27.8607},{"id":93364,"name":"Comuna Vinderei","lat":46.14349,"lng":27.80566},{"id":93400,"name":"Comuna Voineşti","lat":46.55578,"lng":27.43315},{"id":93420,"name":"Comuna Vultureşti","lat":46.80254,"lng":27.53258},{"id":93425,"name":"Comuna Vutcani","lat":46.44575,"lng":27.97366},{"id":93487,"name":"Comuna Zăpodeni","lat":46.76642,"lng":27.6416},{"id":93479,"name":"Comuna Zorleni","lat":46.25078,"lng":27.73866},{"id":93638,"name":"Corni-Albești","lat":46.51813,"lng":27.87171},{"id":93648,"name":"Coroieşti","lat":46.25,"lng":27.48333},{"id":93660,"name":"Costeşti","lat":46.5,"lng":27.75},{"id":93687,"name":"Cozmești","lat":46.73375,"lng":27.50164},{"id":93715,"name":"Crețești","lat":46.63333,"lng":27.95},{"id":94126,"name":"Dăneşti","lat":46.85,"lng":27.66667},{"id":93914,"name":"Deleni","lat":46.55,"lng":27.75},{"id":93917,"name":"Deleşti","lat":46.7,"lng":27.55},{"id":93977,"name":"Dodești","lat":46.35455,"lng":27.89311},{"id":94017,"name":"Dragomireşti","lat":46.63333,"lng":27.35},{"id":94033,"name":"Drânceni","lat":46.80146,"lng":28.13264},{"id":94067,"name":"Duda","lat":46.7525,"lng":28.03722},{"id":94095,"name":"Dumeşti","lat":46.85,"lng":27.28333},{"id":94141,"name":"Emil Racoviță","lat":46.87147,"lng":27.67937},{"id":94143,"name":"Epureni","lat":46.70769,"lng":28.03829},{"id":94257,"name":"Fălciu","lat":46.29611,"lng":28.14083},{"id":94247,"name":"Fâstâci","lat":46.73058,"lng":27.44901},{"id":94159,"name":"Ferești","lat":46.781792,"lng":27.7009251},{"id":94215,"name":"Fruntișeni","lat":46.20634,"lng":27.76904},{"id":94498,"name":"Găgeşti","lat":46.33333,"lng":27.96667},{"id":94486,"name":"Gârceni","lat":46.76667,"lng":27.28333},{"id":94306,"name":"Ghergheşti","lat":46.5,"lng":27.51667},{"id":94310,"name":"Ghermănești","lat":46.82998,"lng":28.08105},{"id":94416,"name":"Griviţa","lat":46.15,"lng":27.65},{"id":94447,"name":"Gugești","lat":46.76342,"lng":27.9005},{"id":94601,"name":"Hălărești","lat":46.39447,"lng":27.55614},{"id":94540,"name":"Hoceni","lat":46.53917,"lng":28.00667},{"id":94580,"name":"Hurdugi","lat":46.50778,"lng":28.05472},{"id":94587,"name":"Huşi","lat":46.67361,"lng":28.05944},{"id":94618,"name":"Iana","lat":46.38333,"lng":27.55},{"id":94633,"name":"Ibănești","lat":46.39482,"lng":27.62548},{"id":94698,"name":"Ivănești","lat":46.63481,"lng":27.46048},{"id":94697,"name":"Iveşti","lat":46.18333,"lng":27.53333},{"id":94764,"name":"Laza","lat":46.65,"lng":27.58333},{"id":94806,"name":"Lipovăţ","lat":46.56667,"lng":27.7},{"id":94861,"name":"Lunca Banului","lat":46.595,"lng":28.16833},{"id":95255,"name":"Măluşteni","lat":46.18333,"lng":27.91667},{"id":94969,"name":"Micleşti","lat":46.81667,"lng":27.83333},{"id":95040,"name":"Moara Domnească","lat":46.71448,"lng":27.7589},{"id":95041,"name":"Moara Grecilor","lat":46.67145,"lng":27.74569},{"id":95120,"name":"Municipiul Bârlad","lat":46.22579,"lng":27.6707},{"id":95149,"name":"Municipiul Huşi","lat":46.6732,"lng":28.05952},{"id":95195,"name":"Municipiul Vaslui","lat":46.64683,"lng":27.73872},{"id":95202,"name":"Muntenii de Jos","lat":46.61667,"lng":27.76667},{"id":95203,"name":"Muntenii de Sus","lat":46.68968,"lng":27.77763},{"id":95206,"name":"Murgeni","lat":46.20444,"lng":28.01972},{"id":95316,"name":"Negreşti","lat":46.83333,"lng":27.43333},{"id":95430,"name":"Olteneşti","lat":46.58333,"lng":27.9},{"id":95643,"name":"Oraș Murgeni","lat":46.2016,"lng":28.00424},{"id":95548,"name":"Oraş Negreşti","lat":46.83188,"lng":27.4781},{"id":95688,"name":"Oşeşti","lat":46.76667,"lng":27.46667},{"id":96007,"name":"Pădureni","lat":46.62192,"lng":28.08258},{"id":95731,"name":"Perieni","lat":46.3,"lng":27.61667},{"id":95838,"name":"Pochidia","lat":46.04318,"lng":27.58746},{"id":95854,"name":"Pogana","lat":46.31667,"lng":27.56667},{"id":95858,"name":"Pogănești","lat":46.69237,"lng":28.16779},{"id":95857,"name":"Pogonești","lat":46.15229,"lng":27.53225},{"id":95889,"name":"Poieneşti","lat":46.61667,"lng":27.53333},{"id":95907,"name":"Popeni","lat":46.24667,"lng":27.8052},{"id":95947,"name":"Pribești","lat":46.91001,"lng":27.79659},{"id":95979,"name":"Puieşti","lat":46.41667,"lng":27.5},{"id":95981,"name":"Pungeşti","lat":46.7,"lng":27.33333},{"id":95991,"name":"Pușcași","lat":46.62154,"lng":27.64503},{"id":96057,"name":"Rafaila","lat":46.800638,"lng":27.3623606},{"id":96173,"name":"Rânzești","lat":46.22101,"lng":28.09468},{"id":96180,"name":"Râșești","lat":46.77219,"lng":28.14273},{"id":96065,"name":"Rebricea","lat":46.86667,"lng":27.55},{"id":96077,"name":"Rediu","lat":46.63374,"lng":27.69439},{"id":96130,"name":"Roşieşti","lat":46.43333,"lng":27.88333},{"id":96258,"name":"Satu Nou","lat":46.69608,"lng":27.74876},{"id":96263,"name":"Sauca","lat":46.65268,"lng":27.60523},{"id":96405,"name":"Soleşti","lat":46.76667,"lng":27.78333},{"id":96480,"name":"Stănileşti","lat":46.61833,"lng":28.17139},{"id":97081,"name":"Ştefan cel Mare","lat":46.71668,"lng":27.62873},{"id":97092,"name":"Şuletea","lat":46.28333,"lng":27.9},{"id":96600,"name":"Tăcuta","lat":46.91667,"lng":27.68333},{"id":106057,"name":"Tanacu","lat":46.68333,"lng":27.81667},{"id":96621,"name":"Tătărăni","lat":46.69422,"lng":27.96443},{"id":106117,"name":"Todireşti","lat":46.85,"lng":27.36667},{"id":106152,"name":"Trestiana","lat":46.2,"lng":27.65},{"id":96572,"name":"Tutova","lat":46.11667,"lng":27.55},{"id":96725,"name":"Valea Grecului","lat":46.71985,"lng":28.10123},{"id":96962,"name":"Văleni","lat":46.59278,"lng":28.0625},{"id":96776,"name":"Vaslui","lat":46.63333,"lng":27.73333},{"id":96796,"name":"Vetrişoaia","lat":46.43,"lng":28.20833},{"id":96819,"name":"Viişoara","lat":46.38333,"lng":27.88333},{"id":96830,"name":"Vinderei","lat":46.15,"lng":27.8},{"id":96880,"name":"Voineşti","lat":46.56667,"lng":27.41667},{"id":96910,"name":"Vultureşti","lat":46.81667,"lng":27.53333},{"id":96917,"name":"Vutcani","lat":46.46667,"lng":27.96667},{"id":97013,"name":"Zăpodeni","lat":46.75,"lng":27.65},{"id":97004,"name":"Zorleni","lat":46.26667,"lng":27.71667}]