[{"id":89905,"name":"Aita Mare","lat":45.96667,"lng":25.55},{"id":89976,"name":"Araci","lat":45.81187,"lng":25.65482},{"id":89981,"name":"Arcuș","lat":45.9012139,"lng":25.7745954},{"id":90058,"name":"Baraolt","lat":46.07514,"lng":25.60029},{"id":90060,"name":"Barcani","lat":45.7,"lng":26.08333},{"id":90556,"name":"Băţanii Mari","lat":46.08333,"lng":25.68333},{"id":90087,"name":"Belin","lat":45.93333,"lng":25.56667},{"id":90088,"name":"Belin-Vale","lat":45.93237,"lng":25.60878},{"id":90155,"name":"Bixad","lat":46.1,"lng":25.86667},{"id":90183,"name":"Bodoc","lat":45.95,"lng":25.85},{"id":90233,"name":"Boroşneu Mare","lat":45.81667,"lng":26.0},{"id":90327,"name":"Brăduţ","lat":46.13333,"lng":25.61667},{"id":90276,"name":"Brateş","lat":45.83333,"lng":26.06667},{"id":90304,"name":"Breţcu","lat":46.05,"lng":26.3},{"id":93857,"name":"Căpeni","lat":46.04111,"lng":25.57858},{"id":90587,"name":"Catalina","lat":45.96667,"lng":26.15},{"id":90629,"name":"Cernat","lat":45.95,"lng":26.03333},{"id":90663,"name":"Chichiş","lat":45.78333,"lng":25.8},{"id":90809,"name":"Comandău","lat":45.76667,"lng":26.26667},{"id":90835,"name":"Comuna Aita Mare","lat":45.97126,"lng":25.58824},{"id":90936,"name":"Comuna Barcani","lat":45.70483,"lng":26.06393},{"id":91249,"name":"Comuna Băţani","lat":46.09167,"lng":25.7193},{"id":90952,"name":"Comuna Belin","lat":45.93361,"lng":25.59126},{"id":91001,"name":"Comuna Bixad","lat":46.10225,"lng":25.86344},{"id":91019,"name":"Comuna Bodoc","lat":45.9619,"lng":25.84149},{"id":91053,"name":"Comuna Boroşneu Mare","lat":45.8101,"lng":26.01568},{"id":91116,"name":"Comuna Brăduţ","lat":46.12574,"lng":25.60329},{"id":91084,"name":"Comuna Brateş","lat":45.83992,"lng":26.07887},{"id":91100,"name":"Comuna Breţcu","lat":46.04444,"lng":26.32887},{"id":91266,"name":"Comuna Catalina","lat":45.93736,"lng":26.1225},{"id":93581,"name":"Comună Cernat","lat":45.9665,"lng":26.01955},{"id":91312,"name":"Comuna Chichiş","lat":45.76781,"lng":25.81378},{"id":91406,"name":"Comuna Comandău","lat":45.76179,"lng":26.27776},{"id":91647,"name":"Comuna Dobârlău","lat":45.7341,"lng":25.88112},{"id":91750,"name":"Comuna Estelnic","lat":46.12537,"lng":26.20544},{"id":91841,"name":"Comuna Ghelinţa","lat":45.93491,"lng":26.22068},{"id":91851,"name":"Comuna Ghidfalău","lat":45.89956,"lng":25.86399},{"id":92036,"name":"Comuna Hăghig","lat":45.85362,"lng":25.59501},{"id":92071,"name":"Comuna Ilieni","lat":45.80054,"lng":25.76436},{"id":92149,"name":"Comuna Lemnia","lat":46.07078,"lng":26.27277},{"id":92233,"name":"Comuna Malnaş","lat":46.01995,"lng":25.82705},{"id":92256,"name":"Comuna Mereni","lat":46.08496,"lng":26.2346},{"id":92311,"name":"Comuna Moacşa","lat":45.87883,"lng":25.9527},{"id":92491,"name":"Comuna Ojdula","lat":45.97871,"lng":26.24773},{"id":92523,"name":"Comuna Ozun","lat":45.78331,"lng":25.8826},{"id":92621,"name":"Comuna Poian","lat":46.07731,"lng":26.17423},{"id":92757,"name":"Comuna Reci","lat":45.81913,"lng":25.95552},{"id":93070,"name":"Comuna Sânzieni","lat":46.06458,"lng":26.1179},{"id":92946,"name":"Comuna Sita Buzăului","lat":45.61959,"lng":26.10621},{"id":93214,"name":"Comuna Turia","lat":46.02927,"lng":26.03953},{"id":93426,"name":"Comuna Vâlcele","lat":45.81736,"lng":25.67925},{"id":93301,"name":"Comuna Valea Crişului","lat":45.92372,"lng":25.78483},{"id":93311,"name":"Comuna Valea Mare","lat":45.76389,"lng":26.01435},{"id":93442,"name":"Comuna Vârghiş","lat":46.12737,"lng":25.55901},{"id":93483,"name":"Comuna Zăbala","lat":45.89141,"lng":26.13251},{"id":93468,"name":"Comuna Zagon","lat":45.77961,"lng":26.12897},{"id":93680,"name":"Covasna","lat":45.85,"lng":26.18333},{"id":93891,"name":"Dalnic","lat":45.9224173,"lng":25.9874101},{"id":93973,"name":"Dobârlău","lat":45.73333,"lng":25.88333},{"id":93945,"name":"Doboșeni","lat":46.12431,"lng":25.59347},{"id":94145,"name":"Estelnic","lat":46.10445,"lng":26.21262},{"id":94170,"name":"Filia","lat":46.14409,"lng":25.6214},{"id":94190,"name":"Floroaia","lat":45.69497,"lng":26.01563},{"id":94299,"name":"Ghelinţa","lat":45.95,"lng":26.23333},{"id":94316,"name":"Ghidfalău","lat":45.9,"lng":25.85},{"id":94597,"name":"Hăghig","lat":45.83333,"lng":25.58333},{"id":94530,"name":"Herculian","lat":46.13402,"lng":25.70977},{"id":94657,"name":"Ilieni","lat":45.8,"lng":25.76667},{"id":97026,"name":"Întorsura Buzăului","lat":45.68333,"lng":26.03333},{"id":94776,"name":"Lemnia","lat":46.05,"lng":26.26667},{"id":94879,"name":"Lunga","lat":46.01822,"lng":26.21208},{"id":94913,"name":"Malnaş","lat":46.01667,"lng":25.83333},{"id":94951,"name":"Mereni","lat":46.07924,"lng":26.23597},{"id":94968,"name":"Micfalău","lat":46.0502773,"lng":25.8346653},{"id":95038,"name":"Moacşa","lat":45.86667,"lng":25.96667},{"id":95180,"name":"Municipiul Sfântu Gheorghe","lat":45.83806,"lng":25.7973},{"id":95193,"name":"Municipiul Târgu Secuiesc","lat":46.00589,"lng":26.17155},{"id":95421,"name":"Ojdula","lat":45.98333,"lng":26.25},{"id":95458,"name":"Oraş Baraolt","lat":46.0625,"lng":25.60505},{"id":95499,"name":"Oraş Covasna","lat":45.83527,"lng":26.16637},{"id":95628,"name":"Oraş Întorsura Buzãului","lat":45.68539,"lng":26.0126},{"id":95687,"name":"Ozun","lat":45.8,"lng":25.85},{"id":96019,"name":"Păpăuți","lat":45.78333,"lng":26.13333},{"id":95859,"name":"Poian","lat":46.06667,"lng":26.15},{"id":96073,"name":"Reci","lat":45.85,"lng":25.93333},{"id":105982,"name":"Sânzieni","lat":46.05,"lng":26.13333},{"id":96330,"name":"Sfântu Gheorghe","lat":45.86667,"lng":25.78333},{"id":96360,"name":"Sita Buzăului","lat":45.65,"lng":26.06667},{"id":96588,"name":"Târgu Secuiesc","lat":46.0,"lng":26.13333},{"id":96562,"name":"Turia","lat":46.03333,"lng":26.05},{"id":96918,"name":"Vâlcele","lat":45.85,"lng":25.68333},{"id":96717,"name":"Valea Crişului","lat":45.91667,"lng":25.76667},{"id":96735,"name":"Valea Mare","lat":45.76667,"lng":26.0},{"id":96941,"name":"Vârghiş","lat":46.13333,"lng":25.53333},{"id":97008,"name":"Zăbala","lat":45.9,"lng":26.18333},{"id":96979,"name":"Zagon","lat":45.76667,"lng":26.11667}]