[{"id":89881,"name":"Adjud","lat":46.1,"lng":27.16667},{"id":89883,"name":"Adjudu Vechi","lat":46.13485,"lng":27.18891},{"id":89956,"name":"Andreiaşu de Jos","lat":45.75,"lng":26.83333},{"id":89960,"name":"Anghelești","lat":46.07875,"lng":27.06459},{"id":90511,"name":"Băleşti","lat":45.43333,"lng":27.23333},{"id":90456,"name":"Bârseşti","lat":45.91667,"lng":26.73333},{"id":90138,"name":"Biliești","lat":45.7215256,"lng":27.3467393},{"id":90197,"name":"Bogheşti","lat":46.16667,"lng":27.4},{"id":90200,"name":"Bogza","lat":45.50798,"lng":27.19773},{"id":90215,"name":"Boloteşti","lat":45.83333,"lng":27.06667},{"id":90223,"name":"Bordeasca Veche","lat":45.54447,"lng":27.3173},{"id":90226,"name":"Bordeşti","lat":45.55,"lng":27.05},{"id":90309,"name":"Broşteni","lat":45.75,"lng":27.03333},{"id":90385,"name":"Budești","lat":45.62779,"lng":27.05669},{"id":90415,"name":"Burca","lat":45.91224,"lng":26.94905},{"id":93799,"name":"Câmpineanca","lat":45.71166,"lng":27.12832},{"id":93804,"name":"Câmpuri","lat":46.01535,"lng":26.78802},{"id":93805,"name":"Câmpurile de Jos","lat":46.01667,"lng":26.78333},{"id":93814,"name":"Cârligele","lat":45.68333,"lng":27.1},{"id":90603,"name":"Ceardac","lat":45.66967,"lng":27.16611},{"id":90673,"name":"Chiojdeni","lat":45.55,"lng":26.86667},{"id":90722,"name":"Ciorani","lat":45.98824,"lng":27.21614},{"id":90729,"name":"Ciorăşti","lat":45.43333,"lng":27.3},{"id":90761,"name":"Ciușlea","lat":45.78761,"lng":27.30644},{"id":90868,"name":"Comuna Andreiaşu de Jos","lat":45.73669,"lng":26.82752},{"id":91215,"name":"Comuna Băleşti","lat":45.44034,"lng":27.23703},{"id":91193,"name":"Comuna Bârseşti","lat":45.90724,"lng":26.74716},{"id":91030,"name":"Comuna Bogheşti","lat":46.16211,"lng":27.41871},{"id":91042,"name":"Comuna Boloteşti","lat":45.84099,"lng":27.04117},{"id":91048,"name":"Comuna Bordeşti","lat":45.54715,"lng":27.04104},{"id":91104,"name":"Comuna Broşteni","lat":45.76566,"lng":27.01305},{"id":91543,"name":"Comuna Câmpineanca","lat":45.70838,"lng":27.13191},{"id":91545,"name":"Comuna Câmpuri","lat":46.03618,"lng":26.75425},{"id":91552,"name":"Comuna Cârligele","lat":45.67723,"lng":27.06031},{"id":91319,"name":"Comuna Chiojdeni","lat":45.56113,"lng":26.84389},{"id":91357,"name":"Comuna Ciorăşti","lat":45.43869,"lng":27.30952},{"id":91427,"name":"Comuna Corbiţa","lat":46.16325,"lng":27.30861},{"id":91464,"name":"Comuna Coteşti","lat":45.63689,"lng":27.07546},{"id":93584,"name":"Comună Dumbrăveni","lat":45.55416,"lng":27.09037},{"id":91723,"name":"Comuna Dumitreşti","lat":45.57715,"lng":26.90728},{"id":91768,"name":"Comuna Fitioneşti","lat":45.96655,"lng":27.06953},{"id":91833,"name":"Comuna Garoafa","lat":45.79812,"lng":27.2501},{"id":91896,"name":"Comuna Goleşti","lat":45.66603,"lng":27.16708},{"id":91945,"name":"Comuna Gugeşti","lat":45.57982,"lng":27.1437},{"id":91946,"name":"Comuna Gura Caliţei","lat":45.61357,"lng":26.97284},{"id":92011,"name":"Comuna Homocea","lat":46.15796,"lng":27.23108},{"id":92115,"name":"Comuna Jariştea","lat":45.79987,"lng":27.04257},{"id":92127,"name":"Comuna Jitia","lat":45.5848,"lng":26.74876},{"id":92394,"name":"Comuna Măicăneşti","lat":45.50067,"lng":27.46121},{"id":92254,"name":"Comuna Mera","lat":45.77327,"lng":26.93423},{"id":92290,"name":"Comuna Milcovul","lat":45.65207,"lng":27.25928},{"id":92344,"name":"Comuna Moviliţa","lat":45.9575,"lng":27.10487},{"id":92463,"name":"Comuna Năneşti","lat":45.57801,"lng":27.49988},{"id":92465,"name":"Comuna Năruja","lat":45.82308,"lng":26.76617},{"id":92438,"name":"Comuna Nereju","lat":45.70833,"lng":26.69794},{"id":92449,"name":"Comuna Nistoreşti","lat":45.81578,"lng":26.67728},{"id":92532,"name":"Comuna Paltin","lat":45.77918,"lng":26.7477},{"id":92726,"name":"Comuna Păuleşti","lat":45.88712,"lng":26.68703},{"id":92729,"name":"Comuna Păuneşti","lat":46.04066,"lng":27.10336},{"id":92603,"name":"Comuna Ploscuţeni","lat":46.06103,"lng":27.26595},{"id":92626,"name":"Comuna Poiana Cristei","lat":45.66882,"lng":26.97125},{"id":92655,"name":"Comuna Popeşti","lat":45.58983,"lng":27.0656},{"id":92692,"name":"Comuna Pufeşti","lat":46.01111,"lng":27.20901},{"id":92839,"name":"Comuna Răcoasa","lat":45.99786,"lng":26.88548},{"id":92762,"name":"Comuna Reghiu","lat":45.79672,"lng":26.83648},{"id":92807,"name":"Comuna Rugineşti","lat":46.07885,"lng":27.11803},{"id":92928,"name":"Comuna Sihlea","lat":45.49398,"lng":27.15629},{"id":92955,"name":"Comuna Slobozia Bradului","lat":45.49203,"lng":27.03977},{"id":92958,"name":"Comuna Slobozia-Ciorăşti","lat":45.60606,"lng":27.21399},{"id":92979,"name":"Comuna Soveja","lat":45.99705,"lng":26.65351},{"id":92985,"name":"Comuna Spulber","lat":45.74654,"lng":26.73925},{"id":93009,"name":"Comuna Străoane","lat":45.92895,"lng":27.04359},{"id":93035,"name":"Comuna Suraia","lat":45.68066,"lng":27.38419},{"id":93222,"name":"Comuna Tâmboeşti","lat":45.51792,"lng":27.04555},{"id":93238,"name":"Comuna Tănăsoaia","lat":46.10161,"lng":27.37982},{"id":93235,"name":"Comuna Tãtãranu","lat":45.51621,"lng":27.3093},{"id":93573,"name":"Comuna Ţifeşti","lat":45.85329,"lng":27.10387},{"id":93205,"name":"Comuna Tulnici","lat":45.93283,"lng":26.60452},{"id":93281,"name":"Comuna Urecheşti","lat":45.60181,"lng":27.07141},{"id":93325,"name":"Comuna Valea Sării","lat":45.87892,"lng":26.80823},{"id":93435,"name":"Comuna Vânători","lat":45.73875,"lng":27.26951},{"id":93444,"name":"Comuna Vârteşcoiu","lat":45.72465,"lng":27.06471},{"id":93356,"name":"Comuna Vidra","lat":45.9142,"lng":26.90506},{"id":93366,"name":"Comuna Vintileasca","lat":45.6297,"lng":26.72608},{"id":93372,"name":"Comuna Vizantea-Livezi","lat":45.96233,"lng":26.81347},{"id":93411,"name":"Comuna Vrâncioaia","lat":45.87169,"lng":26.70971},{"id":93422,"name":"Comuna Vulturu","lat":45.60783,"lng":27.42281},{"id":93616,"name":"Corbiţa","lat":46.15,"lng":27.3},{"id":93632,"name":"Cornetu","lat":45.50456,"lng":27.05305},{"id":93674,"name":"Coteşti","lat":45.65,"lng":27.05},{"id":93992,"name":"Domnești-Târg","lat":46.01667,"lng":27.18333},{"id":94022,"name":"Dragosloveni","lat":46.0,"lng":26.66667},{"id":94086,"name":"Dumbrăveni","lat":45.53333,"lng":27.11667},{"id":94099,"name":"Dumitrești","lat":45.55243,"lng":26.92727},{"id":94180,"name":"Fitioneşti","lat":45.98333,"lng":27.05},{"id":94193,"name":"Focșani","lat":45.7,"lng":27.18333},{"id":94499,"name":"Găgești","lat":45.85598,"lng":27.0554},{"id":94282,"name":"Garoafa","lat":45.78333,"lng":27.2},{"id":94377,"name":"Goleşti","lat":45.66667,"lng":27.13333},{"id":94379,"name":"Gologanu","lat":45.6103715,"lng":27.2651475},{"id":94446,"name":"Gugeşti","lat":45.56667,"lng":27.13333},{"id":94451,"name":"Gura Caliţei","lat":45.58333,"lng":27.01667},{"id":94552,"name":"Homocea","lat":46.13333,"lng":27.23333},{"id":94646,"name":"Igești","lat":45.82043,"lng":27.18253},{"id":94687,"name":"Irești","lat":45.92993,"lng":26.94393},{"id":94723,"name":"Jariştea","lat":45.78333,"lng":27.06667},{"id":94742,"name":"Jitia","lat":45.58333,"lng":26.71667},{"id":94747,"name":"Jorăști","lat":45.71477,"lng":27.26335},{"id":94783,"name":"Lespezi","lat":46.16027,"lng":27.24065},{"id":95248,"name":"Măicăneşti","lat":45.5,"lng":27.5},{"id":95286,"name":"Mărășești","lat":45.88333,"lng":27.23333},{"id":95289,"name":"Mătăcina","lat":45.88333,"lng":26.8},{"id":94949,"name":"Mera","lat":45.76667,"lng":26.95},{"id":94996,"name":"Mihălceni","lat":45.44493,"lng":27.30466},{"id":95002,"name":"Milcovul","lat":45.65,"lng":27.25},{"id":95015,"name":"Mirceștii Noi","lat":45.75072,"lng":27.2726},{"id":95085,"name":"Moviliţa","lat":45.95,"lng":27.1},{"id":95101,"name":"Municipiul Adjud","lat":46.11464,"lng":27.19284},{"id":95141,"name":"Municipiul Focşani","lat":45.69004,"lng":27.22774},{"id":95372,"name":"Năneşti","lat":45.55,"lng":27.5},{"id":95374,"name":"Năruja","lat":45.83333,"lng":26.78333},{"id":95321,"name":"Negrilești","lat":45.9376254,"lng":26.7060225},{"id":95329,"name":"Nereju","lat":45.71667,"lng":26.71667},{"id":95330,"name":"Nereju Mic","lat":45.70618,"lng":26.69641},{"id":95350,"name":"Nistoreşti","lat":45.83333,"lng":26.73333},{"id":95388,"name":"Obrejița","lat":45.5011782,"lng":27.0769319},{"id":95407,"name":"Odobeşti","lat":45.76667,"lng":27.05},{"id":95427,"name":"Oleșești","lat":45.84781,"lng":27.10097},{"id":95547,"name":"Oraş Mãrãşeşti","lat":45.90446,"lng":27.22305},{"id":95559,"name":"Oraş Odobeşti","lat":45.75011,"lng":27.08754},{"id":95564,"name":"Oraş Panciu","lat":45.90661,"lng":27.09358},{"id":95702,"name":"Paltin","lat":45.78333,"lng":26.71667},{"id":95704,"name":"Panciu","lat":45.9,"lng":27.08333},{"id":96031,"name":"Păulești","lat":45.89154,"lng":26.68914},{"id":96033,"name":"Păuneşti","lat":46.03333,"lng":27.1},{"id":95829,"name":"Ploscuțeni","lat":46.07859,"lng":27.27032},{"id":95871,"name":"Poiana Cristei","lat":45.65,"lng":26.98333},{"id":95914,"name":"Popești","lat":45.59533,"lng":27.07916},{"id":95976,"name":"Pufeşti","lat":46.0,"lng":27.2},{"id":96189,"name":"Răcoasa","lat":46.0,"lng":26.88333},{"id":96169,"name":"Râmniceni","lat":45.51322,"lng":27.44843},{"id":96208,"name":"Răstoaca","lat":45.6594137,"lng":27.2865949},{"id":96080,"name":"Reghiu","lat":45.78333,"lng":26.83333},{"id":96145,"name":"Rucăreni","lat":45.99438,"lng":26.65496},{"id":96147,"name":"Rugineşti","lat":46.06667,"lng":27.11667},{"id":96337,"name":"Sihlea","lat":45.5,"lng":27.11667},{"id":97127,"name":"Șindrilari","lat":45.79083,"lng":26.87947},{"id":96374,"name":"Slobozia Bradului","lat":45.5,"lng":27.05},{"id":96378,"name":"Slobozia-Câmpineanca","lat":45.7,"lng":27.13333},{"id":96377,"name":"Slobozia-Ciorăşti","lat":45.61667,"lng":27.2},{"id":96419,"name":"Spulber","lat":45.75186,"lng":26.7608},{"id":96463,"name":"Străoane","lat":45.93333,"lng":27.05},{"id":96504,"name":"Suraia","lat":45.68333,"lng":27.4},{"id":96576,"name":"Tâmboeşti","lat":45.51667,"lng":27.05},{"id":96609,"name":"Tănăsoaia","lat":46.1,"lng":27.36667},{"id":96619,"name":"Tătăranu","lat":45.51667,"lng":27.31667},{"id":97105,"name":"Ţifeşti","lat":45.85,"lng":27.1},{"id":106175,"name":"Tulnici","lat":45.91667,"lng":26.66667},{"id":96665,"name":"Unirea","lat":45.7402,"lng":27.10741},{"id":96675,"name":"Urecheşti","lat":45.6,"lng":27.06667},{"id":96701,"name":"Vadu Roșca","lat":45.63864,"lng":27.45716},{"id":96758,"name":"Valea Sării","lat":45.87686,"lng":26.79873},{"id":96929,"name":"Vânători","lat":45.73333,"lng":27.25},{"id":96944,"name":"Vârteşcoiu","lat":45.73333,"lng":27.08333},{"id":96810,"name":"Vidra","lat":45.91667,"lng":26.9},{"id":96827,"name":"Viișoara","lat":46.0516,"lng":27.09593},{"id":96835,"name":"Vintileasca","lat":45.6,"lng":26.73333},{"id":96843,"name":"Vizantea-Mânăstirească","lat":45.98333,"lng":26.78333},{"id":96873,"name":"Voetin","lat":45.4437,"lng":27.14587},{"id":96898,"name":"Vrâncioaia","lat":45.85,"lng":26.73333},{"id":96905,"name":"Vulcăneasa","lat":45.77388,"lng":26.90981},{"id":96914,"name":"Vulturu","lat":45.61667,"lng":27.41667}]