[{"id":104713,"name":"Goléré","lat":16.25575,"lng":-14.10165},{"id":104740,"name":"Ndioum","lat":16.51293,"lng":-14.64706},{"id":104750,"name":"Polel Diaoubé","lat":15.26667,"lng":-13.0},{"id":104754,"name":"Richard-Toll","lat":16.4625,"lng":-15.70083},{"id":104755,"name":"Rosso","lat":16.42028,"lng":-15.79834},{"id":104757,"name":"Saint-Louis","lat":16.01793,"lng":-16.48962}]