[{"id":130643,"name":"Afega","lat":-13.79726,"lng":-171.85308},{"id":130644,"name":"Apia","lat":-13.83333,"lng":-171.76666},{"id":130652,"name":"Malie","lat":-13.80044,"lng":-171.8469},{"id":130660,"name":"Vailima","lat":-13.86417,"lng":-171.76126},{"id":130662,"name":"Vaiusu","lat":-13.82678,"lng":-171.79333}]