[{"id":104708,"name":"Diofior","lat":14.18333,"lng":-16.66667},{"id":104710,"name":"Fatick Department","lat":14.25909,"lng":-16.49884},{"id":104711,"name":"Foundiougne","lat":14.13333,"lng":-16.46667},{"id":104715,"name":"Guinguinéo","lat":14.26667,"lng":-15.95},{"id":104747,"name":"Passi","lat":13.98333,"lng":-16.26667},{"id":104751,"name":"Pourham","lat":14.35,"lng":-16.41667},{"id":104759,"name":"Sokone","lat":13.88333,"lng":-16.36667}]