[{"id":52151,"name":"Agogo","lat":6.80004,"lng":-1.08193},{"id":52164,"name":"Bekwai","lat":6.45195,"lng":-1.57866},{"id":52172,"name":"Ejura","lat":7.38558,"lng":-1.35617},{"id":52185,"name":"Konongo","lat":6.61667,"lng":-1.21667},{"id":52188,"name":"Kumasi","lat":6.68848,"lng":-1.62443},{"id":52189,"name":"Mampong","lat":7.06273,"lng":-1.4001},{"id":52196,"name":"Obuase","lat":6.20228,"lng":-1.66796},{"id":52206,"name":"Tafo","lat":6.73156,"lng":-1.6137}]