[{"id":39241,"name":"Ablon","lat":49.39214,"lng":0.29584},{"id":39255,"name":"Acquigny","lat":49.1735,"lng":1.1765},{"id":39259,"name":"Agneaux","lat":49.11905,"lng":-1.1061},{"id":39262,"name":"Agon-Coutainville","lat":49.04167,"lng":-1.575},{"id":39310,"name":"Alençon","lat":48.43476,"lng":0.09311},{"id":39317,"name":"Alizay","lat":49.32158,"lng":1.17854},{"id":39362,"name":"Amfreville","lat":49.25,"lng":-0.23333},{"id":39363,"name":"Amfreville-la-Mi-Voie","lat":49.40755,"lng":1.13871},{"id":39393,"name":"Andé","lat":49.23163,"lng":1.24088},{"id":39398,"name":"Angerville-l’Orcher","lat":49.58833,"lng":0.28191},{"id":39477,"name":"Argences","lat":49.12635,"lng":-0.16644},{"id":39479,"name":"Argentan","lat":48.74441,"lng":-0.02023},{"id":39502,"name":"Arnières-sur-Iton","lat":48.99678,"lng":1.10384},{"id":39509,"name":"Arques-la-Bataille","lat":49.88122,"lng":1.12875},{"id":39558,"name":"Athis-de-l'Orne","lat":48.81667,"lng":-0.5},{"id":39568,"name":"Aube-sur-Rîle","lat":48.7392,"lng":0.55161},{"id":39575,"name":"Aubevoye","lat":49.17097,"lng":1.33537},{"id":39603,"name":"Auffay","lat":49.71881,"lng":1.09911},{"id":39615,"name":"Aumale","lat":49.76985,"lng":1.75587},{"id":39619,"name":"Aunay-sur-Odon","lat":49.02012,"lng":-0.63238},{"id":39635,"name":"Authie","lat":49.20615,"lng":-0.43191},{"id":39651,"name":"Auzebosc","lat":49.59565,"lng":0.7285},{"id":39673,"name":"Aviron","lat":49.05,"lng":1.11667},{"id":39678,"name":"Avranches","lat":48.68436,"lng":-1.35686},{"id":39702,"name":"Bacqueville-en-Caux","lat":49.78761,"lng":0.99927},{"id":39710,"name":"Bagnoles-de-l'Orne","lat":48.5572,"lng":-0.41383},{"id":39781,"name":"Barentin","lat":49.54533,"lng":0.95515},{"id":39782,"name":"Barenton","lat":48.60027,"lng":-0.83258},{"id":39788,"name":"Barneville-Carteret","lat":49.38333,"lng":-1.75},{"id":39789,"name":"Barneville-Plage","lat":49.36786,"lng":-1.76512},{"id":39819,"name":"Bavent","lat":49.22996,"lng":-0.18675},{"id":39822,"name":"Bayeux","lat":49.27732,"lng":-0.7039},{"id":39861,"name":"Beaumont-Hague","lat":49.66387,"lng":-1.83822},{"id":39869,"name":"Beaumont-le-Roger","lat":49.07839,"lng":0.78081},{"id":39902,"name":"Belbeuf","lat":49.38766,"lng":1.14245},{"id":39931,"name":"Bellême","lat":48.37329,"lng":0.57005},{"id":39918,"name":"Bellengreville","lat":49.12425,"lng":-0.20961},{"id":40426,"name":"Bénouville","lat":49.24151,"lng":-0.28246},{"id":39952,"name":"Bernay","lat":49.08888,"lng":0.59858},{"id":39954,"name":"Berneval-le-Grand","lat":49.95328,"lng":1.18755},{"id":39957,"name":"Bernières-sur-Mer","lat":49.33057,"lng":-0.42299},{"id":39990,"name":"Beuville","lat":49.24364,"lng":-0.32585},{"id":39991,"name":"Beuvillers","lat":49.12961,"lng":0.25492},{"id":39995,"name":"Beuzeville","lat":49.34483,"lng":0.34254},{"id":39996,"name":"Beuzeville-la-Grenier","lat":49.59157,"lng":0.42684},{"id":40437,"name":"Bézu-Saint-Éloi","lat":49.29524,"lng":1.70404},{"id":40041,"name":"Biéville-Beuville","lat":49.24293,"lng":-0.32762},{"id":40019,"name":"Bihorel","lat":49.45468,"lng":1.1223},{"id":40048,"name":"Blainville-Crevon","lat":49.50395,"lng":1.29952},{"id":40049,"name":"Blainville-sur-Mer","lat":49.06599,"lng":-1.5834},{"id":40050,"name":"Blainville-sur-Orne","lat":49.22913,"lng":-0.30061},{"id":40054,"name":"Blangy-sur-Bresle","lat":49.93211,"lng":1.62514},{"id":40070,"name":"Blonville-sur-Mer","lat":49.33709,"lng":0.02709},{"id":40086,"name":"Bois-Guillaume","lat":49.4602,"lng":1.12219},{"id":40102,"name":"Bolbec","lat":49.57321,"lng":0.47339},{"id":40134,"name":"Boos","lat":49.38849,"lng":1.20348},{"id":40144,"name":"Bosc-le-Hard","lat":49.62734,"lng":1.17483},{"id":40186,"name":"Bourg-Achard","lat":49.35322,"lng":0.81623},{"id":40205,"name":"Bourgtheroulde-Infreville","lat":49.3,"lng":0.88333},{"id":40207,"name":"Bourguébus","lat":49.12187,"lng":-0.29786},{"id":40213,"name":"Bourth","lat":48.76846,"lng":0.80911},{"id":40229,"name":"Bouville","lat":49.56193,"lng":0.89514},{"id":40355,"name":"Bréauté","lat":49.62805,"lng":0.40005},{"id":40356,"name":"Brécey","lat":48.72413,"lng":-1.16647},{"id":40358,"name":"Bréhal","lat":48.89915,"lng":-1.51225},{"id":40285,"name":"Bretoncelles","lat":48.43122,"lng":0.88775},{"id":40287,"name":"Bretteville","lat":49.6544,"lng":-1.52884},{"id":40288,"name":"Bretteville-du-Grand-Caux","lat":49.66667,"lng":0.4},{"id":40289,"name":"Bretteville-l’Orgueilleuse","lat":49.21189,"lng":-0.51428},{"id":40290,"name":"Bretteville-sur-Laize","lat":49.04466,"lng":-0.32639},{"id":40291,"name":"Bretteville-sur-Odon","lat":49.16627,"lng":-0.41662},{"id":40297,"name":"Breuilpont","lat":48.96398,"lng":1.42919},{"id":40303,"name":"Bricquebec","lat":49.47008,"lng":-1.63254},{"id":40320,"name":"Brionne","lat":49.19553,"lng":0.7151},{"id":40323,"name":"Briouze","lat":48.69848,"lng":-0.36806},{"id":40329,"name":"Brix","lat":49.54512,"lng":-1.58012},{"id":40331,"name":"Broglie","lat":49.00911,"lng":0.52915},{"id":40370,"name":"Buchy","lat":49.58513,"lng":1.35852},{"id":40374,"name":"Bueil","lat":48.93189,"lng":1.44257},{"id":40445,"name":"Cabourg","lat":49.2911,"lng":-0.1133},{"id":40457,"name":"Caen","lat":49.18585,"lng":-0.35912},{"id":40460,"name":"Cagny","lat":49.1458,"lng":-0.2563},{"id":40462,"name":"Cahagnes","lat":49.06631,"lng":-0.76869},{"id":40466,"name":"Cairon","lat":49.24017,"lng":-0.45046},{"id":40478,"name":"Calvados","lat":49.09011,"lng":-0.30608},{"id":40485,"name":"Cambes-en-Plaine","lat":49.23161,"lng":-0.3854},{"id":40490,"name":"Cambremer","lat":49.15192,"lng":0.0476},{"id":40515,"name":"Canon","lat":49.0738,"lng":-0.09219},{"id":40518,"name":"Canteleu","lat":49.44065,"lng":1.02459},{"id":40522,"name":"Cany-Barville","lat":49.78885,"lng":0.63704},{"id":40541,"name":"Carentan","lat":49.30312,"lng":-1.24806},{"id":40556,"name":"Carpiquet","lat":49.18522,"lng":-0.44623},{"id":40602,"name":"Caudebec-en-Caux","lat":49.52577,"lng":0.72561},{"id":40603,"name":"Caudebec-lès-Elbeuf","lat":49.28082,"lng":1.02195},{"id":40607,"name":"Caumont","lat":49.36642,"lng":0.89591},{"id":40608,"name":"Caumont-l'Éventé","lat":49.09017,"lng":-0.80501},{"id":40615,"name":"Cauville-sur-Mer","lat":49.6,"lng":0.13333},{"id":40631,"name":"Ceaucé","lat":48.49436,"lng":-0.62526},{"id":41395,"name":"Cérences","lat":48.91667,"lng":-1.4347},{"id":40648,"name":"Cerisy-la-Salle","lat":49.02622,"lng":-1.28283},{"id":40664,"name":"Ceton","lat":48.22631,"lng":0.74968},{"id":40751,"name":"Champsecret","lat":48.60925,"lng":-0.55058},{"id":40779,"name":"Chanu","lat":48.72914,"lng":-0.67603},{"id":40800,"name":"Charleval","lat":49.3729,"lng":1.38369},{"id":40881,"name":"Cherbourg-Octeville","lat":49.63984,"lng":-1.61636},{"id":40890,"name":"Cheux","lat":49.16611,"lng":-0.52544},{"id":41045,"name":"Claville","lat":49.04844,"lng":1.01954},{"id":41066,"name":"Clécy","lat":48.91718,"lng":-0.48041},{"id":41071,"name":"Cléon","lat":49.31235,"lng":1.0295},{"id":41065,"name":"Clères","lat":49.6,"lng":1.11667},{"id":41054,"name":"Clinchamps-sur-Orne","lat":49.07857,"lng":-0.40156},{"id":41090,"name":"Colleville-Montgomery","lat":49.27528,"lng":-0.30052},{"id":41099,"name":"Colombelles","lat":49.2049,"lng":-0.29571},{"id":41128,"name":"Conches-en-Ouche","lat":48.95768,"lng":0.94052},{"id":41136,"name":"Condé-sur-Huisne","lat":48.38103,"lng":0.85093},{"id":41137,"name":"Condé-sur-Noireau","lat":48.84881,"lng":-0.55214},{"id":41138,"name":"Condé-sur-Sarthe","lat":48.43197,"lng":0.03398},{"id":41140,"name":"Condé-sur-Vire","lat":49.05,"lng":-1.03333},{"id":41179,"name":"Cormeilles","lat":49.24803,"lng":0.37654},{"id":41181,"name":"Cormelles-le-Royal","lat":49.15398,"lng":-0.33062},{"id":41191,"name":"Corneville-sur-Risle","lat":49.34128,"lng":0.58628},{"id":41245,"name":"Courcelles-sur-Seine","lat":49.18285,"lng":1.36008},{"id":41266,"name":"Courseulles-sur-Mer","lat":49.33027,"lng":-0.45612},{"id":41267,"name":"Courteilles","lat":48.77495,"lng":-0.19942},{"id":41278,"name":"Coutances","lat":49.04541,"lng":-1.44518},{"id":41279,"name":"Couterne","lat":48.51318,"lng":-0.41538},{"id":41340,"name":"Créances","lat":49.19873,"lng":-1.56938},{"id":41308,"name":"Cresserons","lat":49.28701,"lng":-0.35569},{"id":41310,"name":"Creully","lat":49.28478,"lng":-0.53976},{"id":41317,"name":"Criel-sur-Mer","lat":50.01508,"lng":1.31459},{"id":41318,"name":"Criquebeuf-sur-Seine","lat":49.30563,"lng":1.09964},{"id":41319,"name":"Criquetot-l’Esneval","lat":49.64555,"lng":0.26571},{"id":41329,"name":"Croth","lat":48.84557,"lng":1.37861},{"id":41385,"name":"Cuverville","lat":49.18998,"lng":-0.26474},{"id":41413,"name":"Damigny","lat":48.45,"lng":0.06667},{"id":41425,"name":"Damville","lat":48.8693,"lng":1.07458},{"id":41436,"name":"Darnétal","lat":49.44533,"lng":1.15144},{"id":41444,"name":"Deauville","lat":49.357,"lng":0.06995},{"id":41601,"name":"Démouville","lat":49.18001,"lng":-0.26947},{"id":41617,"name":"Département de l'Eure","lat":49.16667,"lng":1.0},{"id":41622,"name":"Département de l'Orne","lat":48.66667,"lng":0.08333},{"id":41650,"name":"Déville-lès-Rouen","lat":49.46942,"lng":1.05214},{"id":41469,"name":"Dieppe","lat":49.9216,"lng":1.07772},{"id":41480,"name":"Digosville","lat":49.63104,"lng":-1.52627},{"id":41495,"name":"Dives-sur-Mer","lat":49.28176,"lng":-0.10125},{"id":41516,"name":"Domfront","lat":48.59208,"lng":-0.64588},{"id":41534,"name":"Donville-les-Bains","lat":48.84608,"lng":-1.58315},{"id":41550,"name":"Doudeville","lat":49.72268,"lng":0.78479},{"id":41559,"name":"Douvres-la-Délivrande","lat":49.29472,"lng":-0.38039},{"id":41564,"name":"Dozulé","lat":49.23132,"lng":-0.04454},{"id":41584,"name":"Ducey","lat":48.61843,"lng":-1.29052},{"id":41585,"name":"Duclair","lat":49.48385,"lng":0.87617},{"id":48046,"name":"Écouché","lat":48.71751,"lng":-0.12409},{"id":48051,"name":"Écrainville","lat":49.64943,"lng":0.32488},{"id":41662,"name":"Elbeuf","lat":49.28669,"lng":1.00288},{"id":41685,"name":"Envermeu","lat":49.8956,"lng":1.26493},{"id":48070,"name":"Épaignes","lat":49.27945,"lng":0.4398},{"id":48083,"name":"Épouville","lat":49.56349,"lng":0.22373},{"id":48084,"name":"Épron","lat":49.22174,"lng":-0.37085},{"id":48086,"name":"Équemauville","lat":49.39406,"lng":0.2076},{"id":48087,"name":"Équeurdreville-Hainneville","lat":49.64868,"lng":-1.65306},{"id":41714,"name":"Eslettes","lat":49.5482,"lng":1.05515},{"id":48093,"name":"Étainhus","lat":49.56648,"lng":0.31285},{"id":48102,"name":"Éterville","lat":49.14423,"lng":-0.42512},{"id":48114,"name":"Étrépagny","lat":49.30623,"lng":1.61139},{"id":48110,"name":"Étretat","lat":49.70669,"lng":0.20523},{"id":41742,"name":"Eu","lat":50.04606,"lng":1.42079},{"id":48122,"name":"Évrecy","lat":49.09904,"lng":-0.50421},{"id":48123,"name":"Évreux","lat":49.02414,"lng":1.15082},{"id":48127,"name":"Ézy-sur-Eure","lat":48.86667,"lng":1.41667},{"id":41765,"name":"Falaise","lat":48.89217,"lng":-0.19527},{"id":41781,"name":"Fauville-en-Caux","lat":49.65257,"lng":0.59197},{"id":41999,"name":"Fécamp","lat":49.75787,"lng":0.37457},{"id":41800,"name":"Fermanville","lat":49.68673,"lng":-1.46284},{"id":41828,"name":"Flamanville","lat":49.53274,"lng":-1.8656},{"id":41836,"name":"Flers","lat":48.73722,"lng":-0.57466},{"id":41850,"name":"Fleury-sur-Andelle","lat":49.36176,"lng":1.35599},{"id":41851,"name":"Fleury-sur-Orne","lat":49.14851,"lng":-0.37508},{"id":41886,"name":"Fontaine-Étoupefour","lat":49.146,"lng":-0.45522},{"id":41880,"name":"Fontaine-la-Mallet","lat":49.536,"lng":0.14625},{"id":41881,"name":"Fontaine-le-Bourg","lat":49.56451,"lng":1.16391},{"id":41883,"name":"Fontaine-le-Dun","lat":49.81182,"lng":0.85095},{"id":41894,"name":"Fontenay","lat":49.55993,"lng":0.18391},{"id":41900,"name":"Fontenay-le-Marmion","lat":49.09346,"lng":-0.35294},{"id":41913,"name":"Forges-les-Eaux","lat":49.61391,"lng":1.54449},{"id":41921,"name":"Foucarmont","lat":49.84682,"lng":1.56899},{"id":41947,"name":"Francheville","lat":48.78647,"lng":0.84962},{"id":42010,"name":"Gacé","lat":48.79344,"lng":0.29624},{"id":42017,"name":"Gaillefontaine","lat":49.65371,"lng":1.61547},{"id":42018,"name":"Gaillon","lat":49.16104,"lng":1.34016},{"id":42019,"name":"Gainneville","lat":49.51845,"lng":0.26164},{"id":42040,"name":"Garennes-sur-Eure","lat":48.91116,"lng":1.43836},{"id":42049,"name":"Gasny","lat":49.09184,"lng":1.60336},{"id":42055,"name":"Gavray","lat":48.91108,"lng":-1.35059},{"id":42086,"name":"Giberville","lat":49.18158,"lng":-0.28386},{"id":42105,"name":"Gisors","lat":49.28178,"lng":1.7801},{"id":42115,"name":"Goderville","lat":49.64566,"lng":0.36593},{"id":42132,"name":"Gonneville-la-Mallet","lat":49.6395,"lng":0.22245},{"id":42152,"name":"Gournay-en-Bray","lat":49.48285,"lng":1.72471},{"id":42157,"name":"Gouville-sur-Mer","lat":49.09611,"lng":-1.57908},{"id":42166,"name":"Grainville-la-Teinturière","lat":49.74773,"lng":0.64048},{"id":42167,"name":"Grainville-sur-Odon","lat":49.13936,"lng":-0.53046},{"id":42172,"name":"Grand-Couronne","lat":49.35563,"lng":1.00647},{"id":42175,"name":"Grandcamp-Maisy","lat":49.38333,"lng":-1.03333},{"id":42185,"name":"Granville","lat":48.83792,"lng":-1.59714},{"id":42191,"name":"Gravigny","lat":49.0531,"lng":1.16962},{"id":42228,"name":"Gruchet-le-Valasse","lat":49.55466,"lng":0.48684},{"id":42251,"name":"Guichainville","lat":49.00139,"lng":1.19305},{"id":42320,"name":"Hambye","lat":48.94798,"lng":-1.26417},{"id":42328,"name":"Harfleur","lat":49.5066,"lng":0.19827},{"id":42355,"name":"Hautot-sur-Mer","lat":49.89789,"lng":1.02884},{"id":42357,"name":"Hauville","lat":49.39645,"lng":0.77232},{"id":42455,"name":"Hénouville","lat":49.4789,"lng":0.96367},{"id":42378,"name":"Hermanville-sur-Mer","lat":49.28464,"lng":-0.31544},{"id":42461,"name":"Hérouville-Saint-Clair","lat":49.21088,"lng":-0.30653},{"id":42462,"name":"Hérouvillette","lat":49.2213,"lng":-0.24348},{"id":42390,"name":"Heudreville-sur-Eure","lat":49.14089,"lng":1.18813},{"id":42417,"name":"Honfleur","lat":49.41985,"lng":0.23294},{"id":42427,"name":"Houlbec-Cocherel","lat":49.0735,"lng":1.36563},{"id":42428,"name":"Houlgate","lat":49.299,"lng":-0.08153},{"id":42431,"name":"Houppeville","lat":49.51259,"lng":1.07962},{"id":42472,"name":"Ifs","lat":49.14,"lng":-0.34899},{"id":42476,"name":"Igoville","lat":49.3199,"lng":1.14832},{"id":42485,"name":"Incheville","lat":50.01239,"lng":1.49438},{"id":42499,"name":"Isigny-le-Buat","lat":48.61705,"lng":-1.16993},{"id":42500,"name":"Isigny-sur-Mer","lat":49.31604,"lng":-1.10384},{"id":42502,"name":"Isneauville","lat":49.49832,"lng":1.15431},{"id":42516,"name":"Ivry-la-Bataille","lat":48.88333,"lng":1.45948},{"id":42589,"name":"Jullouville","lat":48.77576,"lng":-1.56366},{"id":42592,"name":"Jumièges","lat":49.43324,"lng":0.81918},{"id":42599,"name":"Juvigny-sous-Andaine","lat":48.55194,"lng":-0.50878},{"id":42648,"name":"La Bonneville-sur-Iton","lat":49.0,"lng":1.03333},{"id":42674,"name":"La Cerlangue","lat":49.50592,"lng":0.41332},{"id":42683,"name":"La Chapelle-Réanville","lat":49.09752,"lng":1.38209},{"id":42720,"name":"La Couture-Boussey","lat":48.89581,"lng":1.40491},{"id":42735,"name":"La Ferrière-aux-Étangs","lat":48.66227,"lng":-0.51955},{"id":42740,"name":"La Ferté-Macé","lat":48.58999,"lng":-0.358},{"id":42744,"name":"La Feuillie","lat":49.46415,"lng":1.51463},{"id":42768,"name":"La Glacerie","lat":49.60517,"lng":-1.58185},{"id":42782,"name":"La Haye-du-Puits","lat":49.28973,"lng":-1.54324},{"id":42780,"name":"La Haye-Malherbe","lat":49.22553,"lng":1.06774},{"id":42781,"name":"La Haye-Pesnel","lat":48.79561,"lng":-1.39655},{"id":42789,"name":"La Lande-Patry","lat":48.76202,"lng":-0.59876},{"id":42798,"name":"La Madeleine-de-Nonancourt","lat":48.77298,"lng":1.20253},{"id":42799,"name":"La Mailleraye-sur-Seine","lat":49.48308,"lng":0.7703},{"id":42800,"name":"La Meauffe","lat":49.17643,"lng":-1.11119},{"id":42844,"name":"La Remuée","lat":49.52773,"lng":0.40283},{"id":42848,"name":"La Rivière-Saint-Sauveur","lat":49.40821,"lng":0.2703},{"id":42874,"name":"La Saussaye","lat":49.25936,"lng":0.98094},{"id":42876,"name":"La Selle-la-Forge","lat":48.73295,"lng":-0.54103},{"id":42907,"name":"La Vaupalière","lat":49.48789,"lng":0.9963},{"id":42911,"name":"La Vespière","lat":49.01975,"lng":0.4125},{"id":43031,"name":"Langrune-sur-Mer","lat":49.32346,"lng":-0.37346},{"id":43042,"name":"Lanquetot","lat":49.58527,"lng":0.52637},{"id":43135,"name":"Le Bosc-Roger-en-Roumois","lat":49.28333,"lng":0.93333},{"id":43199,"name":"Le Grand-Quevilly","lat":49.40076,"lng":1.04582},{"id":43205,"name":"Le Havre","lat":49.4938,"lng":0.10767},{"id":43207,"name":"Le Houlme","lat":49.50972,"lng":1.03537},{"id":43220,"name":"Le Manoir","lat":49.31355,"lng":1.20455},{"id":43226,"name":"Le Mesnil-Esnard","lat":49.41319,"lng":1.14521},{"id":43234,"name":"Le Molay-Littry","lat":49.24265,"lng":-0.87238},{"id":43241,"name":"Le Neubourg","lat":49.15048,"lng":0.9102},{"id":43254,"name":"Le Petit-Quevilly","lat":49.41338,"lng":1.06155},{"id":43308,"name":"Le Teilleul","lat":48.53758,"lng":-0.87304},{"id":43310,"name":"Le Theil-Bocage","lat":48.88333,"lng":-0.71667},{"id":43319,"name":"Le Thuit-Signol","lat":49.26487,"lng":0.9391},{"id":43323,"name":"Le Trait","lat":49.46895,"lng":0.81634},{"id":43324,"name":"Le Tréport","lat":50.05979,"lng":1.37583},{"id":43328,"name":"Le Val-Saint-Père","lat":48.66177,"lng":-1.37653},{"id":43329,"name":"Le Vaudreuil","lat":49.25407,"lng":1.2096},{"id":43690,"name":"Léry","lat":49.28585,"lng":1.20768},{"id":43362,"name":"Les Andelys","lat":49.24557,"lng":1.41168},{"id":43368,"name":"Les Authieux-sur-le-Port-Saint-Ouen","lat":49.341,"lng":1.13465},{"id":43392,"name":"Les Grandes-Ventes","lat":49.78544,"lng":1.22921},{"id":43400,"name":"Les Loges-Marchis","lat":48.54132,"lng":-1.08754},{"id":43421,"name":"Les Pieux","lat":49.51286,"lng":-1.80714},{"id":43442,"name":"Lessay","lat":49.21703,"lng":-1.53089},{"id":43471,"name":"Lieurey","lat":49.23019,"lng":0.49879},{"id":43486,"name":"Lillebonne","lat":49.5203,"lng":0.53617},{"id":43497,"name":"Limésy","lat":49.61271,"lng":0.92483},{"id":43505,"name":"Lion-sur-Mer","lat":49.30018,"lng":-0.32157},{"id":43508,"name":"Lisieux","lat":49.1466,"lng":0.22925},{"id":43514,"name":"Livarot","lat":49.005,"lng":0.1502},{"id":43551,"name":"Londinières","lat":49.83187,"lng":1.40232},{"id":43564,"name":"Longny-au-Perche","lat":48.52984,"lng":0.75239},{"id":43614,"name":"Louviers","lat":49.21667,"lng":1.16667},{"id":43615,"name":"Louvigny","lat":49.15715,"lng":-0.39376},{"id":43630,"name":"Luc-sur-Mer","lat":49.31452,"lng":-0.35499},{"id":43654,"name":"Luneray","lat":49.82795,"lng":0.91581},{"id":43727,"name":"Magny-le-Désert","lat":48.57015,"lng":-0.32732},{"id":43752,"name":"Malaunay","lat":49.5271,"lng":1.04292},{"id":43771,"name":"Manche","lat":49.03822,"lng":-1.31865},{"id":43789,"name":"Manéglise","lat":49.56578,"lng":0.25572},{"id":43778,"name":"Manneville-sur-Risle","lat":49.35173,"lng":0.54526},{"id":43798,"name":"Marcey-les-Grèves","lat":48.69673,"lng":-1.39156},{"id":43807,"name":"Marcilly-sur-Eure","lat":48.82568,"lng":1.34741},{"id":43840,"name":"Marigny","lat":49.09952,"lng":-1.24179},{"id":43869,"name":"Maromme","lat":49.47925,"lng":1.02375},{"id":43918,"name":"Martin-Église","lat":49.90174,"lng":1.1412},{"id":43919,"name":"Martinvast","lat":49.59608,"lng":-1.66434},{"id":43939,"name":"Mathieu","lat":49.25448,"lng":-0.37188},{"id":43968,"name":"May-sur-Orne","lat":49.10107,"lng":-0.37471},{"id":44465,"name":"Ménilles","lat":49.03333,"lng":1.36667},{"id":44002,"name":"Menneval","lat":49.1,"lng":0.61667},{"id":44025,"name":"Merville-Franceville-Plage","lat":49.27218,"lng":-0.19616},{"id":44030,"name":"Mesnières-en-Bray","lat":49.76172,"lng":1.38187},{"id":44033,"name":"Messei","lat":48.71157,"lng":-0.53739},{"id":44136,"name":"Mondeville","lat":49.17497,"lng":-0.32238},{"id":44156,"name":"Mont-Saint-Aignan","lat":49.46307,"lng":1.09364},{"id":44185,"name":"Montaure","lat":49.23417,"lng":1.08837},{"id":44215,"name":"Montebourg","lat":49.48774,"lng":-1.38036},{"id":44256,"name":"Montigny","lat":49.4596,"lng":1.00168},{"id":44265,"name":"Montivilliers","lat":49.54518,"lng":0.18769},{"id":44280,"name":"Montmain","lat":49.40996,"lng":1.23742},{"id":44282,"name":"Montmartin-sur-Mer","lat":48.98861,"lng":-1.5253},{"id":44368,"name":"Mortagne-au-Perche","lat":48.52018,"lng":0.54734},{"id":44372,"name":"Mortain","lat":48.64782,"lng":-0.94055},{"id":44375,"name":"Mortrée","lat":48.63899,"lng":0.07909},{"id":44385,"name":"Mouen","lat":49.14696,"lng":-0.48366},{"id":44398,"name":"Moult","lat":49.11494,"lng":-0.16472},{"id":44420,"name":"Moyaux","lat":49.19511,"lng":0.35603},{"id":44517,"name":"Nassandres","lat":49.12632,"lng":0.73597},{"id":44527,"name":"Neaufles-Saint-Martin","lat":49.2765,"lng":1.72794},{"id":44542,"name":"Neufchâtel-en-Bray","lat":49.73315,"lng":1.43956},{"id":44699,"name":"Néville","lat":49.82472,"lng":0.70862},{"id":44623,"name":"Nointot","lat":49.59822,"lng":0.47674},{"id":44638,"name":"Nonancourt","lat":48.77086,"lng":1.19799},{"id":44642,"name":"Normanville","lat":49.07868,"lng":1.15915},{"id":44650,"name":"Notre-Dame-de-Bondeville","lat":49.48333,"lng":1.05},{"id":44651,"name":"Notre-Dame-de-Gravenchon","lat":49.4894,"lng":0.57188},{"id":44712,"name":"Octeville","lat":49.62612,"lng":-1.64349},{"id":44713,"name":"Octeville-sur-Mer","lat":49.55496,"lng":0.1166},{"id":44720,"name":"Offranville","lat":49.87208,"lng":1.04817},{"id":44728,"name":"Oissel","lat":49.33309,"lng":1.09413},{"id":44754,"name":"Orbec","lat":49.01667,"lng":0.41667},{"id":44770,"name":"Orival","lat":49.72429,"lng":1.20512},{"id":44805,"name":"Ouistreham","lat":49.27566,"lng":-0.2591},{"id":44810,"name":"Ourville-en-Caux","lat":49.72854,"lng":0.6046},{"id":44824,"name":"Pacy-sur-Eure","lat":49.01667,"lng":1.38333},{"id":44853,"name":"Parigny","lat":48.5945,"lng":-1.07925},{"id":44874,"name":"Pavilly","lat":49.56703,"lng":0.95445},{"id":44895,"name":"Percy","lat":48.91714,"lng":-1.18916},{"id":45352,"name":"Périers","lat":49.18667,"lng":-1.40762},{"id":44902,"name":"Perriers-sur-Andelle","lat":49.41487,"lng":1.37098},{"id":44915,"name":"Petit-Couronne","lat":49.38333,"lng":1.01667},{"id":44921,"name":"Petiville","lat":49.46078,"lng":0.5874},{"id":44946,"name":"Picauville","lat":49.3781,"lng":-1.40048},{"id":44979,"name":"Pirou","lat":49.18089,"lng":-1.57384},{"id":44983,"name":"Pissy-Pôville","lat":49.52986,"lng":0.99281},{"id":45368,"name":"Pîtres","lat":49.31667,"lng":1.23333},{"id":45164,"name":"Pont-Audemer","lat":49.35,"lng":0.51667},{"id":45177,"name":"Pont-d'Ouilly","lat":48.8759,"lng":-0.40221},{"id":45194,"name":"Pont-Écrepin","lat":48.76425,"lng":-0.24455},{"id":45167,"name":"Pont-Hébert","lat":49.16714,"lng":-1.13428},{"id":45191,"name":"Pont-l’Évêque","lat":49.28912,"lng":0.19161},{"id":45171,"name":"Pont-Saint-Pierre","lat":49.33561,"lng":1.27601},{"id":45215,"name":"Pontorson","lat":48.55316,"lng":-1.50754},{"id":45235,"name":"Port-en-Bessin-Huppain","lat":49.3446,"lng":-0.75557},{"id":45238,"name":"Portbail","lat":49.33571,"lng":-1.6956},{"id":45247,"name":"Poses","lat":49.30539,"lng":1.24353},{"id":45248,"name":"Potigny","lat":48.96925,"lng":-0.24166},{"id":45303,"name":"Préaux","lat":49.49136,"lng":1.21583},{"id":45333,"name":"Putanges-Pont-Écrepin","lat":48.76667,"lng":-0.25},{"id":45375,"name":"Querqueville","lat":49.66251,"lng":-1.69119},{"id":45381,"name":"Quettehou","lat":49.59308,"lng":-1.30352},{"id":45382,"name":"Quettreville-sur-Sienne","lat":48.96802,"lng":-1.46782},{"id":45387,"name":"Quillebeuf-sur-Seine","lat":49.46934,"lng":0.52793},{"id":45391,"name":"Quincampoix","lat":49.5271,"lng":1.18849},{"id":45415,"name":"Radon","lat":48.50246,"lng":0.10278},{"id":45417,"name":"Rai","lat":48.75,"lng":0.58333},{"id":45431,"name":"Ranville","lat":49.23071,"lng":-0.2556},{"id":45692,"name":"Rémalard","lat":48.42867,"lng":0.77185},{"id":45696,"name":"Réville","lat":49.61906,"lng":-1.25868},{"id":45557,"name":"Rogerville","lat":49.50296,"lng":0.26516},{"id":45568,"name":"Rolleville","lat":49.58232,"lng":0.21177},{"id":45571,"name":"Romagny","lat":48.63931,"lng":-0.96605},{"id":45579,"name":"Romilly-sur-Andelle","lat":49.3319,"lng":1.26127},{"id":45584,"name":"Roncherolles-sur-le-Vivier","lat":49.46667,"lng":1.18333},{"id":45614,"name":"Rots","lat":49.21235,"lng":-0.47319},{"id":45617,"name":"Rouen","lat":49.44313,"lng":1.09932},{"id":45633,"name":"Roumare","lat":49.51008,"lng":0.97422},{"id":45641,"name":"Routot","lat":49.378,"lng":0.73346},{"id":45643,"name":"Rouxmesnil-Bouteilles","lat":49.90633,"lng":1.07976},{"id":45666,"name":"Rugles","lat":48.82212,"lng":0.70979},{"id":45714,"name":"Sahurs","lat":49.35863,"lng":0.94256},{"id":45740,"name":"Saint-Amand","lat":49.04338,"lng":-0.96491},{"id":45767,"name":"Saint-André-sur-Orne","lat":49.11741,"lng":-0.38227},{"id":45776,"name":"Saint-Arnoult","lat":49.52676,"lng":0.67117},{"id":45789,"name":"Saint-Aubin-lès-Elbeuf","lat":49.3036,"lng":1.01056},{"id":45781,"name":"Saint-Aubin-Routot","lat":49.52341,"lng":0.32602},{"id":45790,"name":"Saint-Aubin-sur-Gaillon","lat":49.14701,"lng":1.32914},{"id":45791,"name":"Saint-Aubin-sur-Mer","lat":49.32787,"lng":-0.38696},{"id":45792,"name":"Saint-Aubin-sur-Scie","lat":49.87162,"lng":1.06823},{"id":45874,"name":"Saint-Contest","lat":49.21401,"lng":-0.40221},{"id":45904,"name":"Saint-Denis-sur-Sarthon","lat":48.4532,"lng":-0.0472},{"id":45920,"name":"Saint-Désir","lat":49.14056,"lng":0.21398},{"id":46655,"name":"Saint-Étienne-du-Rouvray","lat":49.37794,"lng":1.10467},{"id":45927,"name":"Saint-Eustache-la-Forêt","lat":49.55137,"lng":0.45599},{"id":45950,"name":"Saint-Gatien-des-Bois","lat":49.35,"lng":0.18333},{"id":45982,"name":"Saint-Georges-des-Groseillers","lat":48.76993,"lng":-0.56768},{"id":46010,"name":"Saint-Germain-du-Corbéis","lat":48.42215,"lng":0.06193},{"id":46016,"name":"Saint-Germain-la-Blanche-Herbe","lat":49.18327,"lng":-0.40426},{"id":46020,"name":"Saint-Germain-sur-Avre","lat":48.76466,"lng":1.26776},{"id":46001,"name":"Saint-Germain-Village","lat":49.34908,"lng":0.50331},{"id":46063,"name":"Saint-Hilaire-du-Harcouët","lat":48.577,"lng":-1.09004},{"id":46052,"name":"Saint-Hilaire-Petitville","lat":49.3025,"lng":-1.21995},{"id":46076,"name":"Saint-Jacques-sur-Darnétal","lat":49.4398,"lng":1.20359},{"id":46078,"name":"Saint-James","lat":48.5218,"lng":-1.32629},{"id":46106,"name":"Saint-Jean-des-Baisants","lat":49.09371,"lng":-0.97289},{"id":46107,"name":"Saint-Jean-des-Champs","lat":48.828,"lng":-1.46487},{"id":46109,"name":"Saint-Jean-du-Cardonnay","lat":49.50455,"lng":1.0114},{"id":46132,"name":"Saint-Jouin-Bruneval","lat":49.64275,"lng":0.164},{"id":46150,"name":"Saint-Just","lat":49.10852,"lng":1.44101},{"id":46175,"name":"Saint-Laurent-de-Brévedent","lat":49.52564,"lng":0.25458},{"id":46213,"name":"Saint-Léger-du-Bourg-Denis","lat":49.43345,"lng":1.15803},{"id":46225,"name":"Saint-Lô","lat":49.11624,"lng":-1.09031},{"id":46237,"name":"Saint-Manvieu","lat":49.18067,"lng":-0.50211},{"id":46238,"name":"Saint-Manvieu-Norrey","lat":49.18139,"lng":-0.5},{"id":46269,"name":"Saint-Martin-de-Boscherville","lat":49.44377,"lng":0.96271},{"id":46271,"name":"Saint-Martin-de-Fontenay","lat":49.11523,"lng":-0.37391},{"id":46273,"name":"Saint-Martin-de-Landelles","lat":48.5453,"lng":-1.1724},{"id":46282,"name":"Saint-Martin-des-Besaces","lat":49.01091,"lng":-0.845},{"id":46288,"name":"Saint-Martin-du-Manoir","lat":49.53213,"lng":0.23759},{"id":46293,"name":"Saint-Martin-du-Vivier","lat":49.46667,"lng":1.16667},{"id":46297,"name":"Saint-Martin-en-Campagne","lat":49.95648,"lng":1.22233},{"id":46265,"name":"Saint-Martin-Osmonville","lat":49.63873,"lng":1.29952},{"id":46369,"name":"Saint-Nicolas-d’Aliermont","lat":49.87857,"lng":1.22486},{"id":46367,"name":"Saint-Nicolas-de-la-Taille","lat":49.51085,"lng":0.47405},{"id":46379,"name":"Saint-Ouen-de-Thouberville","lat":49.35726,"lng":0.88848},{"id":46381,"name":"Saint-Ouen-du-Tilleul","lat":49.29723,"lng":0.9476},{"id":46420,"name":"Saint-Paër","lat":49.51452,"lng":0.87935},{"id":46387,"name":"Saint-Pair-sur-Mer","lat":48.81455,"lng":-1.56761},{"id":46434,"name":"Saint-Pierre-de-Varengeville","lat":49.5024,"lng":0.93118},{"id":46436,"name":"Saint-Pierre-des-Fleurs","lat":49.25,"lng":0.96667},{"id":46442,"name":"Saint-Pierre-du-Regard","lat":48.84286,"lng":-0.54631},{"id":46443,"name":"Saint-Pierre-du-Vauvray","lat":49.23208,"lng":1.22125},{"id":46453,"name":"Saint-Pierre-Église","lat":49.66848,"lng":-1.40358},{"id":46446,"name":"Saint-Pierre-en-Val","lat":50.02168,"lng":1.44707},{"id":46450,"name":"Saint-Pierre-lès-Elbeuf","lat":49.27901,"lng":1.04305},{"id":46452,"name":"Saint-Pierre-sur-Dives","lat":49.01667,"lng":-0.03333},{"id":46454,"name":"Saint-Planchers","lat":48.82269,"lng":-1.52598},{"id":46492,"name":"Saint-Quentin-sur-le-Homme","lat":48.64751,"lng":-1.31806},{"id":46508,"name":"Saint-Rémy","lat":48.94007,"lng":-0.50344},{"id":46500,"name":"Saint-Romain-de-Colbosc","lat":49.53093,"lng":0.35719},{"id":46544,"name":"Saint-Saëns","lat":49.67302,"lng":1.28525},{"id":46538,"name":"Saint-Sauveur-le-Vicomte","lat":49.38547,"lng":-1.5331},{"id":46533,"name":"Saint-Sauveur-Lendelin","lat":49.12988,"lng":-1.41405},{"id":46577,"name":"Saint-Sébastien-de-Morsent","lat":49.01096,"lng":1.0873},{"id":46546,"name":"Saint-Senier-sous-Avranches","lat":48.68399,"lng":-1.33126},{"id":46552,"name":"Saint-Sever-Calvados","lat":48.84035,"lng":-1.04773},{"id":46570,"name":"Saint-Sulpice-sur-Risle","lat":48.78063,"lng":0.65739},{"id":46571,"name":"Saint-Sylvain","lat":49.05624,"lng":-0.21758},{"id":46595,"name":"Saint-Vaast-la-Hougue","lat":49.58843,"lng":-1.26931},{"id":46596,"name":"Saint-Valery-en-Caux","lat":49.86667,"lng":0.73333},{"id":46612,"name":"Saint-Vigor-le-Grand","lat":49.28242,"lng":-0.68579},{"id":46625,"name":"Saint-Wandrille-Rançon","lat":49.52658,"lng":0.76497},{"id":46660,"name":"Sainte-Adresse","lat":49.5089,"lng":0.08446},{"id":46688,"name":"Sainte-Gauburge-Sainte-Colombe","lat":48.71722,"lng":0.43126},{"id":46696,"name":"Sainte-Honorine-du-Fay","lat":49.07775,"lng":-0.49295},{"id":46706,"name":"Sainte-Marguerite-sur-Duclair","lat":49.50852,"lng":0.84362},{"id":46714,"name":"Sainte-Marie-des-Champs","lat":49.6212,"lng":0.77904},{"id":46720,"name":"Sainte-Mère-Église","lat":49.41,"lng":-1.31726},{"id":46789,"name":"Sannerville","lat":49.18018,"lng":-0.22434},{"id":46821,"name":"Sartilly","lat":48.75239,"lng":-1.45678},{"id":47133,"name":"Sées","lat":48.60403,"lng":0.17244},{"id":46924,"name":"Seine-Maritime","lat":49.67278,"lng":1.12519},{"id":46964,"name":"Serquigny","lat":49.10943,"lng":0.71016},{"id":47027,"name":"Soliers","lat":49.1344,"lng":-0.29613},{"id":47053,"name":"Sottevast","lat":49.52374,"lng":-1.59169},{"id":47054,"name":"Sotteville-lès-Rouen","lat":49.40972,"lng":1.09005},{"id":47083,"name":"Sourdeval","lat":48.72312,"lng":-0.92223},{"id":47122,"name":"Surtainville","lat":49.45977,"lng":-1.81298},{"id":47169,"name":"Tancarville","lat":49.4855,"lng":0.45765},{"id":47213,"name":"Tessé-la-Madeleine","lat":48.54963,"lng":-0.42521},{"id":47212,"name":"Tessy-sur-Vire","lat":48.97381,"lng":-1.06087},{"id":47218,"name":"Thaon","lat":49.25796,"lng":-0.45605},{"id":47227,"name":"Thiberville","lat":49.13768,"lng":0.45502},{"id":47263,"name":"Thury-Harcourt","lat":48.98434,"lng":-0.47519},{"id":47283,"name":"Tillières-sur-Avre","lat":48.75585,"lng":1.05388},{"id":47285,"name":"Tilly-sur-Seulles","lat":49.17598,"lng":-0.62605},{"id":47288,"name":"Tinchebray","lat":48.76437,"lng":-0.73333},{"id":47292,"name":"Tollevast","lat":49.57437,"lng":-1.62746},{"id":47303,"name":"Torigni-sur-Vire","lat":49.03702,"lng":-0.98214},{"id":47418,"name":"Tôtes","lat":49.68091,"lng":1.04649},{"id":47317,"name":"Touques","lat":49.34443,"lng":0.10218},{"id":47321,"name":"Tourlaville","lat":49.63829,"lng":-1.56639},{"id":47330,"name":"Tourouvre","lat":48.58951,"lng":0.65253},{"id":47336,"name":"Tourville-la-Rivière","lat":49.32782,"lng":1.10551},{"id":47337,"name":"Tourville-sur-Arques","lat":49.85926,"lng":1.10238},{"id":47338,"name":"Tourville-sur-Odon","lat":49.14154,"lng":-0.50128},{"id":47341,"name":"Toutainville","lat":49.36474,"lng":0.46538},{"id":47378,"name":"Troarn","lat":49.17835,"lng":-0.18169},{"id":47383,"name":"Trouville-sur-Mer","lat":49.3657,"lng":0.08041},{"id":47387,"name":"Trun","lat":48.84268,"lng":0.03268},{"id":47416,"name":"Turretot","lat":49.60923,"lng":0.23422},{"id":47435,"name":"Urville-Nacqueville","lat":49.67444,"lng":-1.73664},{"id":47464,"name":"Val-de-Reuil","lat":49.27385,"lng":1.21021},{"id":47483,"name":"Valframbert","lat":48.46465,"lng":0.10828},{"id":47490,"name":"Valliquerville","lat":49.61385,"lng":0.68703},{"id":47497,"name":"Valognes","lat":49.50881,"lng":-1.47047},{"id":47509,"name":"Varengeville-sur-Mer","lat":49.90475,"lng":0.99479},{"id":47526,"name":"Vassy","lat":48.85381,"lng":-0.67485},{"id":47532,"name":"Vaudry","lat":48.8413,"lng":-0.85309},{"id":47590,"name":"Ver-sur-Mer","lat":49.32987,"lng":-0.53118},{"id":47613,"name":"Verneuil-sur-Avre","lat":48.73949,"lng":0.92731},{"id":47619,"name":"Vernon","lat":49.09292,"lng":1.46332},{"id":47633,"name":"Verson","lat":49.15432,"lng":-0.45628},{"id":47730,"name":"Villedieu-les-Poêles","lat":48.83333,"lng":-1.21667},{"id":47795,"name":"Villers-Bocage","lat":49.0796,"lng":-0.65412},{"id":47810,"name":"Villers-Écalles","lat":49.54136,"lng":0.91942},{"id":47809,"name":"Villers-sur-Mer","lat":49.32264,"lng":0.00027},{"id":47840,"name":"Vimoutiers","lat":48.92772,"lng":0.19835},{"id":47857,"name":"Vire","lat":48.83849,"lng":-0.88929},{"id":48000,"name":"Yainville","lat":49.45371,"lng":0.8292},{"id":48024,"name":"Yébleron","lat":49.63333,"lng":0.53746},{"id":48005,"name":"Yerville","lat":49.6672,"lng":0.89594},{"id":48008,"name":"Ymare","lat":49.3506,"lng":1.17938},{"id":48010,"name":"Yport","lat":49.73716,"lng":0.31537},{"id":48016,"name":"Yvetot","lat":49.61744,"lng":0.75814}]