[{"id":104718,"name":"Joal-Fadiout","lat":14.16667,"lng":-16.83333},{"id":104722,"name":"Kayar","lat":14.91893,"lng":-17.11978},{"id":104723,"name":"Khombole","lat":14.76667,"lng":-16.7},{"id":104736,"name":"Mbour","lat":14.40569,"lng":-16.85559},{"id":104738,"name":"Mékhé","lat":15.1097,"lng":-16.6218},{"id":104742,"name":"Nguékhokh","lat":14.51255,"lng":-17.00447},{"id":104752,"name":"Pout","lat":14.77099,"lng":-17.06107},{"id":104764,"name":"Thiès","lat":14.73004,"lng":-16.86974},{"id":104765,"name":"Thiès Nones","lat":14.78333,"lng":-16.96667},{"id":104766,"name":"Tiadiaye","lat":14.41667,"lng":-16.7},{"id":104768,"name":"Tivaouane","lat":15.08519,"lng":-16.71058},{"id":104773,"name":"Warang","lat":14.37349,"lng":-16.94366}]