[{"id":81056,"name":"Kandep","lat":-5.83333,"lng":143.55},{"id":81071,"name":"Kompiam Ambum","lat":-5.25,"lng":144.0},{"id":81075,"name":"Lagaip Porgera","lat":-5.38333,"lng":143.16667},{"id":81100,"name":"Porgera","lat":-5.463,"lng":143.148},{"id":81122,"name":"Wabag","lat":-5.33333,"lng":143.65},{"id":81123,"name":"Wapenamanda","lat":-5.66667,"lng":143.91667}]