[{"id":143877,"name":"Acevedo","lat":1.83611111,"lng":-75.855},{"id":143878,"name":"Aipe","lat":3.22194444,"lng":-75.2375},{"id":143879,"name":"Algeciras","lat":2.52194444,"lng":-75.31444444},{"id":143880,"name":"Altamira","lat":2.06333333,"lng":-75.78777778},{"id":143881,"name":"Baraya","lat":3.15305556,"lng":-75.0525},{"id":143882,"name":"Campoalegre","lat":2.68666667,"lng":-75.32555556},{"id":143883,"name":"Colombia","lat":3.375,"lng":-74.80194444},{"id":143884,"name":"El Agrado","lat":2.25833056,"lng":-75.7725},{"id":143885,"name":"Elias","lat":2.01361111,"lng":-75.93972222},{"id":143886,"name":"Garzón","lat":2.19611111,"lng":-75.62916667},{"id":143887,"name":"Gigante","lat":2.38666944,"lng":-75.5461},{"id":143888,"name":"Guadalupe","lat":2.025,"lng":-75.75638889},{"id":143889,"name":"Hobo","lat":2.5825,"lng":-75.45111111},{"id":143890,"name":"Iquira","lat":2.64833333,"lng":-75.63638889},{"id":143891,"name":"Isnos","lat":1.92888889,"lng":-76.21583333},{"id":149242,"name":"La Argentina","lat":2.19755555,"lng":-75.98888888},{"id":143892,"name":"La Plata","lat":2.39,"lng":-75.89194444},{"id":143893,"name":"Nataga","lat":2.54388889,"lng":-75.80861111},{"id":143894,"name":"Neiva","lat":2.9275,"lng":-75.2875},{"id":143895,"name":"Oporapa","lat":2.02305556,"lng":-75.99527778},{"id":143896,"name":"Paicol","lat":2.44972222,"lng":-75.77388889},{"id":143897,"name":"Palermo","lat":2.88833333,"lng":-75.43388889},{"id":143898,"name":"Palestina","lat":1.7225,"lng":-76.13055556},{"id":143899,"name":"Pital","lat":2.26638889,"lng":-75.80444444},{"id":143900,"name":"Pitalito","lat":1.85388889,"lng":-76.05138889},{"id":143901,"name":"Rivera","lat":2.77722222,"lng":-75.25638889},{"id":143902,"name":"Saladoblanco","lat":1.99333333,"lng":-76.04527778},{"id":143903,"name":"San Agustín","lat":1.87916667,"lng":-76.26833333},{"id":143904,"name":"Santa María","lat":2.93777778,"lng":-75.58694444},{"id":143905,"name":"Suaza","lat":1.975,"lng":-75.79555556},{"id":143906,"name":"Tarqui","lat":2.11055556,"lng":-75.82305556},{"id":143907,"name":"Tello","lat":3.06666667,"lng":-75.13861111},{"id":143908,"name":"Teruel","lat":2.74055556,"lng":-75.56833333},{"id":143909,"name":"Tesalia","lat":2.48472222,"lng":-75.73},{"id":143910,"name":"Timana","lat":1.97136,"lng":-75.93123},{"id":143911,"name":"Villavieja","lat":3.21888889,"lng":-75.21833333},{"id":143912,"name":"Yaguará","lat":2.66361111,"lng":-75.5175}]