[{"id":160143,"name":"Ferizaj","lat":42.37056,"lng":21.15528},{"id":160139,"name":"Hani i Elezit","lat":42.15,"lng":21.29667},{"id":160140,"name":"Kačanik","lat":42.23194,"lng":21.25944},{"id":160141,"name":"Shtime","lat":42.43306,"lng":21.03972},{"id":160142,"name":"Štrpce","lat":42.23944,"lng":21.02722}]