[{"id":160167,"name":"Leposaviq","lat":43.10389,"lng":20.80278},{"id":160166,"name":"Mitrovicë","lat":42.88333,"lng":20.86667},{"id":160168,"name":"Srbica","lat":42.74667,"lng":20.78861},{"id":160169,"name":"Vushtrri","lat":42.82306,"lng":20.9675},{"id":160170,"name":"Zubin Potok","lat":42.91444,"lng":20.68972},{"id":160171,"name":"Zvečan","lat":42.9075,"lng":20.84028}]