[{"id":52147,"name":"Aboso","lat":5.36073,"lng":-1.94856},{"id":52160,"name":"Axim","lat":4.86641,"lng":-2.24181},{"id":52166,"name":"Bibiani","lat":6.46346,"lng":-2.31938},{"id":52197,"name":"Prestea","lat":5.43385,"lng":-2.14295},{"id":52201,"name":"Sekondi-Takoradi","lat":4.92678,"lng":-1.75773},{"id":52202,"name":"Shama Junction","lat":5.01806,"lng":-1.66437},{"id":52207,"name":"Takoradi","lat":4.89816,"lng":-1.76029},{"id":52209,"name":"Tarkwa","lat":5.30383,"lng":-1.98956}]