[{"id":147944,"name":"Andoas","lat":-2.9025,"lng":-76.4025},{"id":147941,"name":"Borja","lat":-4.43333333,"lng":-77.55},{"id":147949,"name":"Caballococha","lat":-3.90583333,"lng":-70.51638889},{"id":147947,"name":"Cape Pantoja","lat":-0.96435,"lng":-75.18144},{"id":147952,"name":"Indiana","lat":-3.501427,"lng":-73.048096},{"id":147940,"name":"Iquitos","lat":-3.73333333,"lng":-73.25},{"id":147945,"name":"Jeberos","lat":-5.28333,"lng":-76.28333},{"id":147946,"name":"Jenaro Herrera","lat":-4.90741,"lng":-73.66779},{"id":147948,"name":"Lagunas","lat":-5.22694,"lng":-75.67528},{"id":147942,"name":"Nauta","lat":-4.50833333,"lng":-73.58333333},{"id":147953,"name":"Punchana","lat":-3.71666667,"lng":-73.23333333},{"id":147954,"name":"Requena","lat":-6.74797,"lng":-75.05491},{"id":147955,"name":"San Antonio del Estrecho","lat":-2.45012,"lng":-72.66896},{"id":147950,"name":"San Lorenzo","lat":-4.81667,"lng":-76.6},{"id":80953,"name":"San Pablo","lat":-4.01922,"lng":-71.10281},{"id":147951,"name":"Tamshiyacu","lat":-4.0032,"lng":-73.1585},{"id":147956,"name":"Yurimaguas","lat":-5.9,"lng":-76.08333333}]