[{"id":148287,"name":"Achi","lat":35.44388889,"lng":137.7475},{"id":148214,"name":"Agematsu","lat":35.78388889,"lng":137.69416667},{"id":148213,"name":"Aki","lat":33.5025,"lng":133.90722222},{"id":148279,"name":"Anan","lat":35.32361111,"lng":137.81611111},{"id":148259,"name":"Aoki","lat":36.37,"lng":138.12861111},{"id":148261,"name":"Asahi","lat":36.12361111,"lng":137.86638889},{"id":148299,"name":"Azumino","lat":36.30388889,"lng":137.90555556},{"id":148293,"name":"Chikuhoku","lat":36.4212,"lng":138.04011},{"id":148304,"name":"Chino","lat":35.99555556,"lng":138.15888889},{"id":148225,"name":"Fujimi","lat":35.91472222,"lng":138.24083333},{"id":148257,"name":"Geisei","lat":33.52694444,"lng":133.80916667},{"id":148269,"name":"Hakuba","lat":36.7,"lng":137.86666667},{"id":148274,"name":"Hara","lat":35.96444444,"lng":138.2175},{"id":148276,"name":"Hidaka","lat":33.53472222,"lng":133.37333333},{"id":148286,"name":"Hiraya","lat":35.32333333,"lng":137.63027778},{"id":148315,"name":"Iida","lat":35.51472222,"lng":137.82194444},{"id":148236,"name":"Iijima","lat":35.67638889,"lng":137.91944444},{"id":148312,"name":"Iiyama","lat":36.85166667,"lng":138.36555556},{"id":148290,"name":"Iizuna","lat":36.755,"lng":138.23555556},{"id":148284,"name":"Ikeda","lat":36.42138889,"lng":137.87472222},{"id":148267,"name":"Ikusaka","lat":36.42527778,"lng":137.9275},{"id":148313,"name":"Ina","lat":35.8275,"lng":137.95388889},{"id":148305,"name":"Ino","lat":33.55,"lng":133.43333333},{"id":148237,"name":"Karuizawa","lat":36.34833333,"lng":138.59694444},{"id":148288,"name":"Kawakami","lat":35.97555556,"lng":138.57833333},{"id":148264,"name":"Kijimadaira","lat":36.85861111,"lng":138.40666667},{"id":148217,"name":"Kiso","lat":35.93638889,"lng":137.78305556},{"id":148281,"name":"Kitaaiki","lat":36.05916667,"lng":138.55111111},{"id":148289,"name":"Kitagawa","lat":33.44777778,"lng":134.04222222},{"id":148317,"name":"Kōchi","lat":33.55888889,"lng":133.53138889},{"id":148306,"name":"Komoro","lat":36.3275,"lng":138.42583333},{"id":148300,"name":"Kōnan","lat":33.56416667,"lng":133.70055556},{"id":148280,"name":"Kuroshio","lat":33.025,"lng":133.01083333},{"id":148252,"name":"Matsukawa","lat":35.59722222,"lng":137.90972222},{"id":148292,"name":"Matsumoto","lat":36.23805556,"lng":137.97194444},{"id":148227,"name":"Mihara","lat":32.90611111,"lng":132.84722222},{"id":148256,"name":"Minamiaiki","lat":36.03611111,"lng":138.54694444},{"id":148228,"name":"Minamimaki","lat":36.02083333,"lng":138.49222222},{"id":148235,"name":"Minamiminowa","lat":35.87277778,"lng":137.97527778},{"id":148254,"name":"Minowa","lat":35.915,"lng":137.98194444},{"id":148247,"name":"Mitsushima","lat":35.275251,"lng":137.852137},{"id":148265,"name":"Miyada","lat":35.76888889,"lng":137.94422222},{"id":148291,"name":"Miyota","lat":36.32138889,"lng":138.50888889},{"id":148215,"name":"Motoyama","lat":35.16402778,"lng":136.96361111},{"id":148314,"name":"Muroto","lat":33.29,"lng":134.15194444},{"id":148310,"name":"Nagano","lat":36.64861111,"lng":138.19277778},{"id":148238,"name":"Nagawa","lat":36.25611111,"lng":138.26777778},{"id":148263,"name":"Nagiso","lat":35.60361111,"lng":137.60888889},{"id":148270,"name":"Nahari","lat":33.42416667,"lng":134.02111111},{"id":148224,"name":"Nakagawa","lat":35.63444444,"lng":137.94611111},{"id":148243,"name":"Nakajō","lat":36.61222222,"lng":138.03652778},{"id":148245,"name":"Nakamura","lat":32.99138889,"lng":132.93375},{"id":148249,"name":"Nakano","lat":36.74194444,"lng":138.36944444},{"id":148231,"name":"Nakatosa","lat":33.3275,"lng":133.22833333},{"id":148302,"name":"Nankoku","lat":33.57555556,"lng":133.64138889},{"id":148297,"name":"Neba","lat":35.25305556,"lng":137.58111111},{"id":148271,"name":"Niyodogawa","lat":33.57527778,"lng":133.16833333},{"id":148240,"name":"Nozawaonsen","lat":36.92277778,"lng":138.44055556},{"id":148233,"name":"Obuse","lat":36.69777778,"lng":138.31222222},{"id":148266,"name":"Ochi","lat":33.53277778,"lng":133.25194444},{"id":148303,"name":"Ogawa","lat":36.61694444,"lng":137.97444444},{"id":148262,"name":"Ōkawa","lat":33.78361111,"lng":133.46666667},{"id":148307,"name":"Okaya","lat":36.06694444,"lng":138.04944444},{"id":148251,"name":"Ōkuwa","lat":35.68277778,"lng":137.665},{"id":148321,"name":"Ōmachi","lat":36.5,"lng":137.85},{"id":148241,"name":"Omi","lat":36.45611111,"lng":138.04527778},{"id":148260,"name":"Ōshika","lat":35.57833333,"lng":138.03416667},{"id":148250,"name":"Ōtaki","lat":35.80944444,"lng":137.55111111},{"id":148242,"name":"Otari","lat":36.77916667,"lng":137.90833333},{"id":148218,"name":"Ōtoyo","lat":33.76416667,"lng":133.66416667},{"id":148223,"name":"Ōtsuki","lat":32.84138889,"lng":132.70694444},{"id":148275,"name":"Sakae","lat":36.9875,"lng":138.5775},{"id":148216,"name":"Sakaki","lat":36.46194444,"lng":138.18027778},{"id":148255,"name":"Sakawa","lat":33.50083333,"lng":133.28666667},{"id":148316,"name":"Saku","lat":36.24888889,"lng":138.47694444},{"id":148239,"name":"Sakuho","lat":36.16111111,"lng":138.48333333},{"id":148294,"name":"Sanada","lat":36.44088889,"lng":138.30361111},{"id":148273,"name":"Shimanto","lat":33.20833333,"lng":133.13555556},{"id":148277,"name":"Shimojō","lat":35.3975,"lng":137.78611111},{"id":148272,"name":"Shimosuwa","lat":36.06972222,"lng":138.08027778},{"id":148278,"name":"Shinano","lat":36.80638889,"lng":138.20694444},{"id":148301,"name":"Shiojiri","lat":36.11666667,"lng":137.95},{"id":148308,"name":"Sukumo","lat":32.93888889,"lng":132.72611111},{"id":148318,"name":"Susaki","lat":33.40083333,"lng":133.28305556},{"id":148309,"name":"Suwa","lat":36.03916667,"lng":138.11416667},{"id":148226,"name":"Takagi","lat":35.51388889,"lng":137.87388889},{"id":148222,"name":"Takamori","lat":35.55138889,"lng":137.87861111},{"id":148283,"name":"Takayama","lat":36.67972222,"lng":138.36305556},{"id":148232,"name":"Tano","lat":33.42777778,"lng":134.00833333},{"id":148285,"name":"Tateshina","lat":36.27194444,"lng":138.31611111},{"id":148295,"name":"Tatsuno","lat":35.9825,"lng":137.9875},{"id":148244,"name":"Togari","lat":36.91666667,"lng":138.38333333},{"id":148212,"name":"Tōmi","lat":36.35944444,"lng":138.33055556},{"id":148320,"name":"Tosa","lat":33.49611111,"lng":133.42527778},{"id":148319,"name":"Tosashimizu","lat":32.78138889,"lng":132.955},{"id":148296,"name":"Tōyō","lat":33.52805556,"lng":134.28},{"id":148268,"name":"Toyooka","lat":35.55138889,"lng":137.89583333},{"id":148221,"name":"Tsuno","lat":33.44666667,"lng":133.19944444},{"id":148246,"name":"Ueda","lat":36.40194444,"lng":138.24916667},{"id":148258,"name":"Umaji","lat":33.55527778,"lng":134.04805556},{"id":148220,"name":"Urugi","lat":35.27111111,"lng":137.71111111},{"id":148248,"name":"Usa","lat":33.44936111,"lng":133.43711111},{"id":148219,"name":"Yamagata","lat":36.16805556,"lng":137.87888889},{"id":148234,"name":"Yamanouchi","lat":36.74472222,"lng":138.4125},{"id":148282,"name":"Yasuda","lat":33.43833333,"lng":133.98111111},{"id":148229,"name":"Yasuoka","lat":35.37722222,"lng":137.84583333},{"id":148253,"name":"Yawata","lat":36.51666667,"lng":138.1},{"id":148230,"name":"Yusuhara","lat":33.39194444,"lng":132.92694444}]