[{"id":149098,"name":"Bunkpurugu-Nyakpanduri","lat":10.4660917,"lng":-0.2271195},{"id":149099,"name":"Chereponi","lat":10.1382772,"lng":0.2824258},{"id":149100,"name":"East Mamprusi","lat":10.4293186,"lng":-0.5307885},{"id":149101,"name":"Mamprugu-Moagduri","lat":10.2329,"lng":-1.2836},{"id":149102,"name":"West Mamprusi","lat":10.2990606,"lng":-1.367501},{"id":149103,"name":"Yunyoo-Nasuan","lat":10.484,"lng":-0.009}]