[{"id":155104,"name":"Altagène","lat":41.7097998,"lng":9.0324474},{"id":155105,"name":"Ambiegna","lat":42.089971,"lng":8.6857279},{"id":155106,"name":"Arbellara","lat":41.6705386,"lng":8.9514351},{"id":155107,"name":"Arbori","lat":42.1231376,"lng":8.7134262},{"id":155108,"name":"Argiusta-Moriccio","lat":41.8138243,"lng":8.9913101},{"id":155109,"name":"Arro","lat":42.0979801,"lng":8.7598974},{"id":155110,"name":"Aullène","lat":41.8111298,"lng":9.0104907},{"id":155111,"name":"Azilone-Ampaza","lat":41.8718755,"lng":8.9731963},{"id":155112,"name":"Azzana","lat":42.1172137,"lng":8.8919024},{"id":155113,"name":"Balogna","lat":42.1855133,"lng":8.6681475},{"id":155114,"name":"Bastelica","lat":41.9782793,"lng":8.8904698},{"id":155115,"name":"Bastelicaccia","lat":41.9327519,"lng":8.754742},{"id":155116,"name":"Belvédère-Campomoro","lat":41.6178641,"lng":8.7396196},{"id":155117,"name":"Bilia","lat":41.6222862,"lng":8.8636122},{"id":155118,"name":"Bocognano","lat":42.0872543,"lng":8.8998408},{"id":155119,"name":"Calcatoggio","lat":42.030628,"lng":8.5658691},{"id":155120,"name":"Cannelle","lat":42.0476311,"lng":8.7727864},{"id":155121,"name":"Carbini","lat":41.6779734,"lng":9.0776647},{"id":155122,"name":"Carbuccia","lat":42.0344405,"lng":8.8477713},{"id":155123,"name":"Cardo-Torgia","lat":41.8533956,"lng":8.9323192},{"id":155124,"name":"Cargiaca","lat":41.730276,"lng":8.9972685},{"id":155125,"name":"Casaglione","lat":42.0701093,"lng":8.6756192},{"id":155126,"name":"Casalabriva","lat":41.7583912,"lng":8.8350396},{"id":155127,"name":"Ciamannacce","lat":41.9695626,"lng":9.0494379},{"id":155128,"name":"Coggia","lat":42.1096963,"lng":8.6569937},{"id":155129,"name":"Cognocoli-Monticchi","lat":41.80533,"lng":8.786035},{"id":155130,"name":"Conca","lat":41.7549344,"lng":9.1551892},{"id":155131,"name":"Corrano","lat":41.8829409,"lng":9.0320483},{"id":155132,"name":"Coti-Chiavari","lat":41.7675351,"lng":8.5762958},{"id":155133,"name":"Cozzano","lat":41.9321238,"lng":9.102435},{"id":155134,"name":"Cristinacce","lat":42.2459162,"lng":8.7751395},{"id":155135,"name":"Eccica-Suarella","lat":41.9205519,"lng":8.8131953},{"id":155136,"name":"Évisa","lat":42.2846915,"lng":8.6617089},{"id":155137,"name":"Foce","lat":41.6240562,"lng":8.9530497},{"id":155138,"name":"Forciolo","lat":41.8463679,"lng":8.9742701},{"id":155139,"name":"Fozzano","lat":41.7014719,"lng":8.9084833},{"id":155140,"name":"Frasseto","lat":41.9199192,"lng":8.9949715},{"id":155141,"name":"Giuncheto","lat":41.5863212,"lng":8.9170006},{"id":155142,"name":"Granace","lat":41.6400006,"lng":8.9711288},{"id":155143,"name":"Grossa","lat":41.6050737,"lng":8.7752457},{"id":155144,"name":"Guagno","lat":42.1772932,"lng":8.8164635},{"id":155145,"name":"Guargualé","lat":41.8251179,"lng":8.8858259},{"id":155146,"name":"Guitera-les-Bains","lat":41.9267835,"lng":9.0385188},{"id":155147,"name":"Lecci","lat":41.658277,"lng":9.2183479},{"id":155148,"name":"Letia","lat":42.2167499,"lng":8.7110977},{"id":155149,"name":"Levie","lat":41.6613206,"lng":8.9434747},{"id":155150,"name":"Lopigna","lat":42.088874,"lng":8.7707288},{"id":155151,"name":"Loreto-di-Tallano","lat":41.6959908,"lng":8.9895521},{"id":155152,"name":"Marignana","lat":42.2091044,"lng":8.5545084},{"id":155153,"name":"Mela","lat":41.6827132,"lng":9.0711446},{"id":155154,"name":"Moca-Croce","lat":41.7777022,"lng":8.9226275},{"id":155155,"name":"Monacia-d'Aullène","lat":41.5233908,"lng":8.8434461},{"id":155156,"name":"Murzo","lat":42.1556726,"lng":8.766666},{"id":155157,"name":"Ocana","lat":41.9547946,"lng":8.8209556},{"id":155158,"name":"Olivese","lat":41.8366333,"lng":8.9882663},{"id":155159,"name":"Olmiccia","lat":41.6701445,"lng":8.948673},{"id":155160,"name":"Orto","lat":42.1984463,"lng":8.880159},{"id":155161,"name":"Osani","lat":42.3405481,"lng":8.4443355},{"id":155162,"name":"Ota","lat":42.253807,"lng":8.653797},{"id":155163,"name":"Palneca","lat":41.9905927,"lng":9.104423},{"id":155164,"name":"Partinello","lat":42.3151425,"lng":8.6097221},{"id":155165,"name":"Pastricciola","lat":42.1445836,"lng":8.85004},{"id":155166,"name":"Petreto-Bicchisano","lat":41.7658076,"lng":8.8805121},{"id":155167,"name":"Piana","lat":42.2234893,"lng":8.4559413},{"id":155168,"name":"Pianottoli-Caldarello","lat":41.5209572,"lng":8.9632423},{"id":155169,"name":"Pila-Canale","lat":41.791762,"lng":8.812619},{"id":155170,"name":"Poggiolo","lat":42.1616857,"lng":8.8572965},{"id":155171,"name":"Quasquara","lat":41.912092,"lng":8.9658921},{"id":155172,"name":"Quenza","lat":41.794908,"lng":9.0508361},{"id":155173,"name":"Renno","lat":42.2053463,"lng":8.7795329},{"id":155174,"name":"Rezza","lat":42.1255133,"lng":8.9145121},{"id":155175,"name":"Rosazia","lat":42.1235671,"lng":8.7757429},{"id":155176,"name":"Sainte-Lucie-de-Tallano","lat":41.6730669,"lng":8.9789454},{"id":155177,"name":"Salice","lat":42.1072098,"lng":8.8179386},{"id":155178,"name":"Sampolo","lat":41.9488147,"lng":9.1011375},{"id":155179,"name":"San-Gavino-di-Carbini","lat":41.6860947,"lng":9.0649612},{"id":155182,"name":"Sant'Andréa-d'Orcino","lat":42.0452552,"lng":8.7019943},{"id":155180,"name":"Santa-Maria-Figaniella","lat":41.728903,"lng":8.9681577},{"id":155181,"name":"Santa-Maria-Siché","lat":41.8838659,"lng":8.9407354},{"id":155183,"name":"Sari-d'Orcino","lat":42.0641036,"lng":8.7544925},{"id":155184,"name":"Sarrola-Carcopino","lat":41.9981943,"lng":8.7452132},{"id":155185,"name":"Serra-di-Ferro","lat":41.7444169,"lng":8.7318534},{"id":155186,"name":"Serra-di-Scopamène","lat":41.7827842,"lng":9.0363185},{"id":155187,"name":"Serriera","lat":42.308481,"lng":8.6471822},{"id":155188,"name":"Soccia","lat":42.2066376,"lng":8.8485282},{"id":155189,"name":"Sollacaro","lat":41.7421174,"lng":8.7935789},{"id":155190,"name":"Sorbollano","lat":41.7521451,"lng":9.0707695},{"id":155191,"name":"Sotta","lat":41.5558909,"lng":9.0118778},{"id":155192,"name":"Tasso","lat":41.9476821,"lng":9.0491893},{"id":155193,"name":"Tavaco","lat":42.0327273,"lng":8.8460661},{"id":155194,"name":"Tavera","lat":42.0729964,"lng":8.8648067},{"id":155195,"name":"Tolla","lat":41.9678726,"lng":8.8850309},{"id":155196,"name":"Ucciani","lat":42.0515331,"lng":8.9029377},{"id":155197,"name":"Urbalacone","lat":41.8234763,"lng":8.9076345},{"id":155198,"name":"Valle-di-Mezzana","lat":42.0253252,"lng":8.7754539},{"id":155199,"name":"Vero","lat":42.0576931,"lng":8.837377},{"id":155200,"name":"Vico","lat":42.1463302,"lng":8.57127},{"id":155201,"name":"Viggianello","lat":41.6715834,"lng":8.9049308},{"id":155202,"name":"Villanova","lat":41.9641585,"lng":8.5789845},{"id":155203,"name":"Zérubia","lat":41.7459679,"lng":8.9721351},{"id":155204,"name":"Zévaco","lat":41.889064,"lng":9.0046085},{"id":155205,"name":"Zicavo","lat":41.8841206,"lng":9.0044751},{"id":155206,"name":"Zigliara","lat":41.8361431,"lng":8.9421181},{"id":155207,"name":"Zoza","lat":41.7226678,"lng":9.0287158}]