[{"id":38723,"name":"Ādīs ‘Alem","lat":9.03333,"lng":38.4},{"id":38724,"name":"Āgaro","lat":7.85,"lng":36.65},{"id":38594,"name":"Arsi Zone","lat":7.5,"lng":39.5},{"id":38726,"name":"Āsasa","lat":7.1,"lng":39.2},{"id":38727,"name":"Āsbe Teferī","lat":9.08569,"lng":40.86708},{"id":38601,"name":"Bedelē","lat":8.456,"lng":36.35302},{"id":38602,"name":"Bedēsa","lat":8.9,"lng":40.78333},{"id":38605,"name":"Bishoftu","lat":8.75225,"lng":38.97846},{"id":38617,"name":"Deder","lat":9.31168,"lng":41.44301},{"id":38620,"name":"Dembī Dolo","lat":8.53333,"lng":34.8},{"id":38623,"name":"Dodola","lat":6.98333,"lng":39.18333},{"id":38626,"name":"East Harerghe Zone","lat":8.70114,"lng":42.00241},{"id":38627,"name":"East Shewa Zone","lat":8.21353,"lng":38.84809},{"id":38628,"name":"East Wellega Zone","lat":9.51928,"lng":36.75762},{"id":38630,"name":"Fichē","lat":9.8,"lng":38.73333},{"id":38633,"name":"Gebre Guracha","lat":9.8,"lng":38.4},{"id":38646,"name":"Gēdo","lat":9.01667,"lng":37.45},{"id":38635,"name":"Gelemso","lat":8.81667,"lng":40.51667},{"id":38636,"name":"Genet","lat":9.06667,"lng":38.5},{"id":38638,"name":"Gimbi","lat":9.17031,"lng":35.83491},{"id":38639,"name":"Ginir","lat":7.13952,"lng":40.71083},{"id":38640,"name":"Goba","lat":7.01667,"lng":39.98333},{"id":38643,"name":"Gorē","lat":8.15,"lng":35.53333},{"id":38644,"name":"Guji Zone","lat":5.588,"lng":39.067},{"id":38654,"name":"Hāgere Hiywet","lat":8.98333,"lng":37.85},{"id":38649,"name":"Hagere Maryam","lat":5.63418,"lng":38.23603},{"id":38656,"name":"Hīrna","lat":9.21667,"lng":41.1},{"id":38653,"name":"Huruta","lat":8.15,"lng":39.35},{"id":38657,"name":"Illubabor Zone","lat":8.27526,"lng":35.75596},{"id":38660,"name":"Jimma","lat":7.67344,"lng":36.83441},{"id":38661,"name":"Jimma Zone","lat":7.66667,"lng":37.0},{"id":38665,"name":"Kibre Mengist","lat":5.88333,"lng":38.98333},{"id":38666,"name":"Kofelē","lat":7.06667,"lng":38.78333},{"id":38682,"name":"Mēga","lat":4.05,"lng":38.3},{"id":38677,"name":"Mendī","lat":9.8,"lng":35.1},{"id":38678,"name":"Metahāra","lat":8.9,"lng":39.91667},{"id":38680,"name":"Metu","lat":8.3,"lng":35.58333},{"id":38681,"name":"Mojo","lat":8.58679,"lng":39.12111},{"id":38684,"name":"Nazrēt","lat":8.55,"lng":39.26667},{"id":38685,"name":"Nejo","lat":9.5,"lng":35.5},{"id":38687,"name":"North Shewa Zone","lat":9.66915,"lng":38.8124},{"id":38690,"name":"Sebeta","lat":8.91667,"lng":38.61667},{"id":38692,"name":"Sendafa","lat":9.15203,"lng":39.02335},{"id":38693,"name":"Shakiso","lat":5.76494,"lng":38.91006},{"id":38694,"name":"Shambu","lat":9.56667,"lng":37.1},{"id":38695,"name":"Shashemenē","lat":7.2,"lng":38.6},{"id":38699,"name":"Sirre","lat":8.31667,"lng":39.48333},{"id":38706,"name":"Tulu Bolo","lat":8.66667,"lng":38.21667},{"id":38709,"name":"Waliso","lat":8.53417,"lng":37.96515},{"id":38711,"name":"Wenjī","lat":8.45,"lng":39.28333},{"id":38714,"name":"West Harerghe Zone","lat":8.67245,"lng":40.84885},{"id":38715,"name":"West Wellega Zone","lat":9.17283,"lng":35.05279},{"id":38717,"name":"Yabēlo","lat":4.88333,"lng":38.08333},{"id":38720,"name":"Ziway","lat":7.93333,"lng":38.71667}]