[{"id":155592,"name":"Ageville","lat":48.1100383,"lng":5.1731024},{"id":155593,"name":"Aigremont","lat":48.9026677,"lng":1.992056},{"id":155594,"name":"Aillianville","lat":48.3342943,"lng":5.438491},{"id":155595,"name":"Aingoulaincourt","lat":48.4564937,"lng":5.257309},{"id":155596,"name":"Aizanville","lat":48.111294,"lng":4.8747416},{"id":155597,"name":"Allichamps","lat":48.5639574,"lng":4.8685195},{"id":155598,"name":"Ambonville","lat":48.3152649,"lng":4.9725764},{"id":155599,"name":"Andelot-Blancheville","lat":48.2364426,"lng":5.1984669},{"id":155600,"name":"Andilly-en-Bassigny","lat":47.9276761,"lng":5.5021577},{"id":155601,"name":"Annéville-la-Prairie","lat":48.1995331,"lng":5.066883},{"id":155602,"name":"Annonville","lat":48.3864488,"lng":5.2500368},{"id":155603,"name":"Anrosey","lat":47.8468299,"lng":5.6367122},{"id":155604,"name":"Aprey","lat":47.7738509,"lng":5.155331},{"id":155605,"name":"Arbigny-sous-Varennes","lat":47.8615123,"lng":5.5736863},{"id":155606,"name":"Arbot","lat":47.846776,"lng":4.9753505},{"id":155607,"name":"Arc-en-Barrois","lat":47.9484217,"lng":4.9353581},{"id":155608,"name":"Arnancourt","lat":48.3504419,"lng":4.8783656},{"id":155609,"name":"Attancourt","lat":48.5365414,"lng":4.9212576},{"id":155610,"name":"Aubepierre-sur-Aube","lat":47.9144566,"lng":4.8726756},{"id":155611,"name":"Auberive","lat":47.784252,"lng":5.0122086},{"id":155612,"name":"Audeloncourt","lat":48.1181583,"lng":5.4909569},{"id":155613,"name":"Aujeurres","lat":47.7391033,"lng":5.1507739},{"id":155614,"name":"Aulnoy-sur-Aube","lat":47.8319059,"lng":5.0114891},{"id":155615,"name":"Autigny-le-Grand","lat":48.4725666,"lng":5.1297722},{"id":155616,"name":"Autigny-le-Petit","lat":48.4811236,"lng":5.1304957},{"id":155617,"name":"Autreville-sur-la-Renne","lat":48.1269401,"lng":4.9346892},{"id":155618,"name":"Avrecourt","lat":47.9654835,"lng":5.5132007},{"id":155619,"name":"Bailly-aux-Forges","lat":48.4553051,"lng":4.8652279},{"id":155620,"name":"Baissey","lat":47.7492522,"lng":5.2316086},{"id":155621,"name":"Bannes","lat":47.9030042,"lng":5.3492827},{"id":155622,"name":"Bassoncourt","lat":48.0758398,"lng":5.535413},{"id":155623,"name":"Baudrecourt","lat":48.3938565,"lng":4.9497169},{"id":155624,"name":"Bay-sur-Aube","lat":47.8253216,"lng":5.0175246},{"id":155626,"name":"Beauchemin","lat":47.9171261,"lng":5.2284513},{"id":155627,"name":"Belmont","lat":47.7204302,"lng":5.5328952},{"id":155629,"name":"Beurville","lat":48.3175485,"lng":4.8202643},{"id":155631,"name":"Bize","lat":47.8402348,"lng":5.626086},{"id":155632,"name":"Blaisy","lat":48.1729857,"lng":4.9894013},{"id":155633,"name":"Blecourt","lat":48.3810725,"lng":5.0575179},{"id":155634,"name":"Blessonville","lat":48.0569495,"lng":4.9910285},{"id":155635,"name":"Blumeray","lat":48.3554839,"lng":4.8238315},{"id":40106,"name":"Bologne","lat":48.2035415,"lng":5.0971981},{"id":155637,"name":"Bonnecourt","lat":47.9573954,"lng":5.440916},{"id":155639,"name":"Bourdons-sur-Rognon","lat":48.1717017,"lng":5.3020868},{"id":40184,"name":"Bourg","lat":47.7926245,"lng":5.2933267},{"id":155641,"name":"Bourg-Sainte-Marie","lat":48.1819772,"lng":5.53052},{"id":155642,"name":"Bourmont-entre-Meuse-et-Mouzon","lat":48.2224374,"lng":5.5297279},{"id":155643,"name":"Bouzancourt","lat":48.32097,"lng":4.902808},{"id":155644,"name":"Brachay","lat":48.3808567,"lng":5.0195523},{"id":155645,"name":"Brainville-sur-Meuse","lat":48.1753564,"lng":5.5719898},{"id":155646,"name":"Braux-le-Châtel","lat":48.1043656,"lng":4.9153055},{"id":155647,"name":"Brennes","lat":47.7978815,"lng":5.2566348},{"id":155648,"name":"Brethenay","lat":48.1585163,"lng":5.0576733},{"id":155649,"name":"Breuvannes-en-Bassigny","lat":48.0860969,"lng":5.4531498},{"id":155650,"name":"Briaucourt","lat":48.2131636,"lng":5.116444},{"id":155651,"name":"Bricon","lat":48.0849606,"lng":4.8999893},{"id":155652,"name":"Brousseval","lat":48.4913629,"lng":4.8943872},{"id":155653,"name":"Bugnières","lat":47.9641633,"lng":5.0077633},{"id":155654,"name":"Busson","lat":48.3326654,"lng":5.2617032},{"id":155655,"name":"Buxières-lès-Clefmont","lat":48.0917868,"lng":5.4193507},{"id":155656,"name":"Buxières-lès-Villiers","lat":48.102026,"lng":4.9861135},{"id":155657,"name":"Ceffonds","lat":48.4406638,"lng":4.6653347},{"id":155658,"name":"Celles-en-Bassigny","lat":47.9134076,"lng":5.513275},{"id":155659,"name":"Celsoy","lat":47.8631386,"lng":5.4118233},{"id":155660,"name":"Cerisières","lat":48.3072988,"lng":4.9987294},{"id":155661,"name":"Chalancey","lat":47.677309,"lng":5.0939364},{"id":155663,"name":"Chalvraines","lat":48.2309689,"lng":5.4247741},{"id":155665,"name":"Chambroncourt","lat":48.3503024,"lng":5.3164353},{"id":155666,"name":"Chamouilley","lat":48.6122253,"lng":5.0105217},{"id":155667,"name":"Champigneulles-en-Bassigny","lat":48.1262668,"lng":5.5488156},{"id":155668,"name":"Champigny-lès-Langres","lat":47.8950423,"lng":5.3062434},{"id":155669,"name":"Champigny-sous-Varennes","lat":47.8710109,"lng":5.5868279},{"id":155670,"name":"Champsevraine","lat":47.7717309,"lng":5.4462293},{"id":155672,"name":"Changey","lat":47.9249275,"lng":5.3440004},{"id":155673,"name":"Chanoy","lat":47.9194916,"lng":5.2446584},{"id":155674,"name":"Chantraines","lat":48.2187271,"lng":5.1630319},{"id":40806,"name":"Charmes","lat":47.9219036,"lng":5.3116599},{"id":155676,"name":"Charmes-en-l'Angle","lat":48.3575716,"lng":4.9576211},{"id":155677,"name":"Charmes-la-Grande","lat":48.3793644,"lng":4.9144786},{"id":155678,"name":"Chassigny","lat":47.7164873,"lng":5.3008153},{"id":155680,"name":"Chatenay-Mâcheron","lat":47.8555815,"lng":5.3670206},{"id":155681,"name":"Chatenay-Vaudin","lat":47.8502707,"lng":5.4277451},{"id":155682,"name":"Chatonrupt-Sommermont","lat":48.4727651,"lng":5.0568494},{"id":155683,"name":"Chaudenay","lat":47.8210141,"lng":5.4864964},{"id":155684,"name":"Chauffourt","lat":47.9709364,"lng":5.4159543},{"id":155686,"name":"Chaumont-la-Ville","lat":48.1435948,"lng":5.5974411},{"id":155688,"name":"Chézeaux","lat":47.876195,"lng":5.6368265},{"id":155689,"name":"Choilley-Dardenay","lat":47.6613532,"lng":5.3258641},{"id":155690,"name":"Choiseul","lat":48.0530799,"lng":5.5323432},{"id":155691,"name":"Cirey-lès-Mareilles","lat":48.195627,"lng":5.258027},{"id":155692,"name":"Cirey-sur-Blaise","lat":48.3340564,"lng":4.8866816},{"id":155693,"name":"Cirfontaines-en-Azois","lat":48.1064212,"lng":4.824628},{"id":155694,"name":"Cirfontaines-en-Ornois","lat":48.4515323,"lng":5.3575975},{"id":155695,"name":"Clefmont","lat":48.1121267,"lng":5.465579},{"id":155696,"name":"Clinchamp","lat":48.1939177,"lng":5.4092802},{"id":155697,"name":"Cohons","lat":47.7889887,"lng":5.344312},{"id":155698,"name":"Coiffy-le-Bas","lat":47.9066848,"lng":5.6248249},{"id":155699,"name":"Coiffy-le-Haut","lat":47.9017803,"lng":5.6479318},{"id":155700,"name":"Colmier-le-Bas","lat":47.7723287,"lng":4.9205618},{"id":155701,"name":"Colmier-le-Haut","lat":47.7896264,"lng":4.9387708},{"id":155702,"name":"Colombey-les-Deux-Églises","lat":48.2417951,"lng":4.8414222},{"id":155703,"name":"Condes","lat":48.1419122,"lng":5.1210436},{"id":155704,"name":"Consigny","lat":48.166983,"lng":5.3931076},{"id":155705,"name":"Coublanc","lat":47.7052619,"lng":5.399556},{"id":155706,"name":"Coupray","lat":47.9774168,"lng":4.9225712},{"id":155707,"name":"Cour-l'Évêque","lat":47.975009,"lng":4.9386785},{"id":155708,"name":"Courcelles-en-Montagne","lat":47.8455562,"lng":5.1685375},{"id":155709,"name":"Courcelles-sur-Blaise","lat":48.4119088,"lng":4.921561},{"id":155710,"name":"Culmont","lat":47.8273513,"lng":5.4233428},{"id":155711,"name":"Curel","lat":48.499134,"lng":5.1252558},{"id":155712,"name":"Curmont","lat":48.2548595,"lng":4.9316851},{"id":155713,"name":"Cusey","lat":47.6221881,"lng":5.3145719},{"id":155714,"name":"Cuves","lat":48.0951666,"lng":5.4104817},{"id":155715,"name":"Daillancourt","lat":48.2972743,"lng":4.8933588},{"id":155716,"name":"Daillecourt","lat":48.070918,"lng":5.4854146},{"id":155717,"name":"Dammartin-sur-Meuse","lat":47.9801454,"lng":5.5401116},{"id":41418,"name":"Dampierre","lat":47.9609782,"lng":5.3598387},{"id":155719,"name":"Damrémont","lat":47.9475301,"lng":5.6206379},{"id":155720,"name":"Dancevoir","lat":47.9299757,"lng":4.83475},{"id":155721,"name":"Darmannes","lat":48.1660283,"lng":5.1835965},{"id":155722,"name":"Dinteville","lat":48.0371785,"lng":4.7594935},{"id":155723,"name":"Domblain","lat":48.4655625,"lng":4.9803215},{"id":155724,"name":"Dommarien","lat":47.6922617,"lng":5.3166862},{"id":155725,"name":"Dommartin-le-Franc","lat":48.425421,"lng":4.9061403},{"id":155726,"name":"Dommartin-le-Saint-Père","lat":48.4093539,"lng":4.8736755},{"id":155727,"name":"Domremy-Landéville","lat":48.3579319,"lng":5.2164475},{"id":155728,"name":"Doncourt-sur-Meuse","lat":48.1401587,"lng":5.5614611},{"id":155729,"name":"Donjeux","lat":48.3507715,"lng":5.122286},{"id":155731,"name":"Doulevant-le-Château","lat":48.3725803,"lng":4.874653},{"id":155732,"name":"Doulevant-le-Petit","lat":48.4496083,"lng":4.9088055},{"id":155733,"name":"Échenay","lat":48.4641518,"lng":5.2941865},{"id":155734,"name":"Éclaron-Braucourt Sainte-Livière","lat":48.5697694,"lng":4.7514629},{"id":155735,"name":"Ecot-la-Combe","lat":48.2066707,"lng":5.3554518},{"id":155736,"name":"Effincourt","lat":48.4925383,"lng":5.2233341},{"id":155737,"name":"Enfonvelle","lat":47.9228482,"lng":5.8436466},{"id":155738,"name":"Épizon","lat":48.3622748,"lng":5.2876596},{"id":155739,"name":"Esnouveaux","lat":48.1331649,"lng":5.3003733},{"id":155740,"name":"Euffigneix","lat":48.1270488,"lng":5.0226852},{"id":155742,"name":"Farincourt","lat":47.6974724,"lng":5.6605242},{"id":155743,"name":"Faverolles","lat":47.9558662,"lng":5.1813938},{"id":155745,"name":"Fays","lat":48.4771566,"lng":5.0170241},{"id":155746,"name":"Ferrière-et-Lafolie","lat":48.3979585,"lng":5.0287288},{"id":155747,"name":"Flagey","lat":47.7853103,"lng":5.2233331},{"id":155748,"name":"Flammerécourt","lat":48.3631099,"lng":4.9950413},{"id":155749,"name":"Fontaines-sur-Marne","lat":48.5560653,"lng":5.0980075},{"id":155750,"name":"Forcey","lat":48.1510609,"lng":5.3487836},{"id":155751,"name":"Foulain","lat":48.0234144,"lng":5.0805978},{"id":155752,"name":"Frampas","lat":48.5201973,"lng":4.7923487},{"id":155753,"name":"Frécourt","lat":47.948244,"lng":5.4339694},{"id":155754,"name":"Fresnes-sur-Apance","lat":47.9425681,"lng":5.7936318},{"id":155756,"name":"Fronville","lat":48.4004696,"lng":5.0897287},{"id":155757,"name":"Genevrières","lat":47.7234116,"lng":5.5610954},{"id":155758,"name":"Germaines","lat":47.7990649,"lng":5.0090132},{"id":155759,"name":"Germainvilliers","lat":48.1153884,"lng":5.5960749},{"id":155760,"name":"Germay","lat":48.4074001,"lng":5.3312975},{"id":155761,"name":"Germisay","lat":48.3909236,"lng":5.3252742},{"id":155762,"name":"Giey-sur-Aujon","lat":47.9052753,"lng":5.0174544},{"id":155763,"name":"Gillancourt","lat":48.1533526,"lng":4.9544146},{"id":155764,"name":"Gillaumé","lat":48.4685431,"lng":5.3266431},{"id":42094,"name":"Gilley","lat":47.6917015,"lng":5.6122397},{"id":155766,"name":"Graffigny-Chemin","lat":48.1683059,"lng":5.607289},{"id":155767,"name":"Grandchamp","lat":47.7223129,"lng":5.425662},{"id":155768,"name":"Grenant","lat":47.7072256,"lng":5.4514633},{"id":155769,"name":"Gudmont-Villiers","lat":48.336213,"lng":5.0792639},{"id":155770,"name":"Guindrecourt-aux-Ormes","lat":48.4529772,"lng":5.0194009},{"id":155771,"name":"Guindrecourt-sur-Blaise","lat":48.2984423,"lng":4.9585809},{"id":155772,"name":"Guyonvelle","lat":47.8594445,"lng":5.6842497},{"id":155773,"name":"Hâcourt","lat":48.1605869,"lng":5.5590814},{"id":155774,"name":"Hallignicourt","lat":48.6473811,"lng":4.8314346},{"id":155775,"name":"Harréville-les-Chanteurs","lat":48.267077,"lng":5.5766788},{"id":155776,"name":"Haute-Amance","lat":47.8492299,"lng":5.4463608},{"id":155777,"name":"Heuilley-le-Grand","lat":47.7564211,"lng":5.3552038},{"id":155778,"name":"Huilliécourt","lat":48.1593637,"lng":5.4906455},{"id":155779,"name":"Humbécourt","lat":48.5799777,"lng":4.8805876},{"id":155780,"name":"Humberville","lat":48.2945111,"lng":5.3597504},{"id":155781,"name":"Humes-Jorquenay","lat":47.9027077,"lng":5.2609114},{"id":155782,"name":"Illoud","lat":48.2166019,"lng":5.5096665},{"id":155783,"name":"Is-en-Bassigny","lat":48.035993,"lng":5.403915},{"id":155784,"name":"Isômes","lat":47.6355302,"lng":5.2825977},{"id":155786,"name":"Jonchery","lat":48.149545,"lng":5.0310239},{"id":155787,"name":"Juzennecourt","lat":48.2019317,"lng":4.937094},{"id":155788,"name":"La Genevroye","lat":48.2763446,"lng":5.0452419},{"id":155807,"name":"La Porte du Der","lat":48.477274,"lng":4.7250607},{"id":155789,"name":"Lachapelle-en-Blaisy","lat":48.2069996,"lng":4.9214007},{"id":155790,"name":"Lafauche","lat":48.3039309,"lng":5.4701739},{"id":155791,"name":"Laferté-sur-Amance","lat":47.8341195,"lng":5.6750967},{"id":155792,"name":"Laferté-sur-Aube","lat":48.0960106,"lng":4.6969476},{"id":155793,"name":"Lamancine","lat":48.2111801,"lng":5.0950295},{"id":155794,"name":"Laneuvelle","lat":47.9354225,"lng":5.6277844},{"id":155795,"name":"Laneuville-à-Rémy","lat":48.4730875,"lng":4.86052},{"id":155796,"name":"Laneuville-au-Pont","lat":48.6269414,"lng":4.8466466},{"id":155798,"name":"Lanques-sur-Rognon","lat":48.0830324,"lng":5.3225517},{"id":155799,"name":"Lanty-sur-Aube","lat":48.0251898,"lng":4.7065431},{"id":155800,"name":"Larivière-Arnoncourt","lat":48.0210484,"lng":5.6872893},{"id":155801,"name":"Latrecey-Ormoy-sur-Aube","lat":47.9904226,"lng":4.7677267},{"id":155802,"name":"Lavernoy","lat":47.9154506,"lng":5.555906},{"id":155803,"name":"Laville-aux-Bois","lat":48.0901912,"lng":5.1952753},{"id":155804,"name":"Lavilleneuve","lat":48.0378705,"lng":5.4978273},{"id":155805,"name":"Lavilleneuve-au-Roi","lat":48.1618677,"lng":4.8932596},{"id":155806,"name":"Le Châtelet-sur-Meuse","lat":47.9714007,"lng":5.6084331},{"id":155808,"name":"Le Montsaugeonnais","lat":47.6642109,"lng":5.2462922},{"id":155809,"name":"Le Pailly","lat":47.7873504,"lng":5.3944263},{"id":155810,"name":"Le Val-d'Esnoms","lat":47.6861288,"lng":5.1788751},{"id":155811,"name":"Lecey","lat":47.8606991,"lng":5.3943673},{"id":155812,"name":"Leffonds","lat":47.9791097,"lng":5.1051473},{"id":43399,"name":"Les Loges","lat":47.7709189,"lng":5.4399936},{"id":155814,"name":"Leschères-sur-le-Blaiseron","lat":48.3322719,"lng":4.9872942},{"id":155815,"name":"Leuchey","lat":47.7288288,"lng":5.1952202},{"id":155816,"name":"Leurville","lat":48.3373983,"lng":5.3445623},{"id":155817,"name":"Levécourt","lat":48.134688,"lng":5.5382255},{"id":155818,"name":"Lezéville","lat":48.4261292,"lng":5.3153623},{"id":155819,"name":"Liffol-le-Petit","lat":48.2895456,"lng":5.503193},{"id":43553,"name":"Longchamp","lat":48.127511,"lng":5.4195462},{"id":155821,"name":"Longeau-Percey","lat":47.7616295,"lng":5.3018817},{"id":155822,"name":"Louvemont","lat":48.5450553,"lng":4.8525505},{"id":155823,"name":"Louvières","lat":48.0273859,"lng":5.261216},{"id":155824,"name":"Luzy-sur-Marne","lat":48.0560805,"lng":5.1592642},{"id":155825,"name":"Maâtz","lat":47.7130728,"lng":5.3931655},{"id":155826,"name":"Magneux","lat":48.5090522,"lng":4.9860076},{"id":155827,"name":"Maisoncelles","lat":48.1343423,"lng":5.5160444},{"id":155828,"name":"Maizières","lat":48.4917916,"lng":5.0430362},{"id":155829,"name":"Maizières-sur-Amance","lat":47.8345139,"lng":5.5884042},{"id":155830,"name":"Malaincourt-sur-Meuse","lat":48.1552475,"lng":5.5855777},{"id":155831,"name":"Mandres-la-Côte","lat":48.0691601,"lng":5.3117008},{"id":155832,"name":"Manois","lat":48.2617151,"lng":5.3288009},{"id":155833,"name":"Marac","lat":47.9328565,"lng":5.1239271},{"id":155834,"name":"Maranville","lat":48.1391109,"lng":4.8215655},{"id":155835,"name":"Marbéville","lat":48.2638263,"lng":4.9836448},{"id":155836,"name":"Marcilly-en-Bassigny","lat":47.8877096,"lng":5.5074909},{"id":155837,"name":"Mardor","lat":47.8845246,"lng":5.188609},{"id":155838,"name":"Mareilles","lat":48.1662245,"lng":5.2156902},{"id":155839,"name":"Marnay-sur-Marne","lat":48.0108534,"lng":5.1901817},{"id":155840,"name":"Mathons","lat":48.4161171,"lng":5.0007497},{"id":155842,"name":"Mennouveaux","lat":48.1006732,"lng":5.3934273},{"id":155843,"name":"Merrey","lat":48.0526836,"lng":5.5740662},{"id":155844,"name":"Mertrud","lat":48.4257433,"lng":4.8443843},{"id":155845,"name":"Meures","lat":48.1929416,"lng":5.0387654},{"id":155846,"name":"Millières","lat":48.1411114,"lng":5.3889561},{"id":155847,"name":"Mirbel","lat":48.2846571,"lng":4.9974898},{"id":155848,"name":"Moëslains","lat":48.6173239,"lng":4.8638916},{"id":155849,"name":"Montcharvot","lat":47.8994999,"lng":5.708726},{"id":155850,"name":"Montheries","lat":48.1778452,"lng":4.8610062},{"id":155851,"name":"Montot-sur-Rognon","lat":48.2825433,"lng":5.2759523},{"id":155852,"name":"Montreuil-sur-Blaise","lat":48.4761954,"lng":4.9459368},{"id":155853,"name":"Montreuil-sur-Thonnance","lat":48.4600472,"lng":5.2131313},{"id":155854,"name":"Morancourt","lat":48.4266181,"lng":4.9672687},{"id":155855,"name":"Morionvilliers","lat":48.3761948,"lng":5.3699008},{"id":155856,"name":"Mouilleron","lat":47.6949112,"lng":5.0919961},{"id":155857,"name":"Mussey-sur-Marne","lat":48.379962,"lng":5.0877731},{"id":155858,"name":"Narcy","lat":48.5802239,"lng":5.0608876},{"id":155859,"name":"Neuilly-l'Évêque","lat":47.9181808,"lng":5.3980482},{"id":155860,"name":"Neuilly-sur-Suize","lat":48.0402246,"lng":5.0870901},{"id":155861,"name":"Neuvelle-lès-Voisey","lat":47.8659532,"lng":5.7634018},{"id":155862,"name":"Ninville","lat":48.070343,"lng":5.4189796},{"id":155863,"name":"Nogent","lat":48.0419092,"lng":5.2809766},{"id":155864,"name":"Noidant-Chatenoy","lat":47.7909626,"lng":5.3565896},{"id":155865,"name":"Noidant-le-Rocheux","lat":47.8221498,"lng":5.2182875},{"id":155866,"name":"Nomécourt","lat":48.4351412,"lng":5.0545066},{"id":155867,"name":"Noncourt-sur-le-Rongeant","lat":48.4204159,"lng":5.2110017},{"id":155868,"name":"Noyers","lat":48.0625693,"lng":5.4398067},{"id":155869,"name":"Nully","lat":48.3699434,"lng":4.7728357},{"id":155870,"name":"Occey","lat":47.6022884,"lng":5.2309136},{"id":155871,"name":"Orbigny-au-Mont","lat":47.8862482,"lng":5.4182883},{"id":155872,"name":"Orbigny-au-Val","lat":47.8827366,"lng":5.3999721},{"id":155873,"name":"Orcevaux","lat":47.7756866,"lng":5.247701},{"id":155874,"name":"Orges","lat":48.0813556,"lng":4.9001171},{"id":155875,"name":"Ormancey","lat":47.9080857,"lng":5.141879},{"id":155876,"name":"Ormoy-lès-Sexfontaines","lat":48.2256605,"lng":5.0354459},{"id":155877,"name":"Orquevaux","lat":48.3088389,"lng":5.3743901},{"id":155878,"name":"Osne-le-Val","lat":48.4993298,"lng":5.1600799},{"id":155879,"name":"Oudincourt","lat":48.226293,"lng":5.065222},{"id":155880,"name":"Outremécourt","lat":48.2171675,"lng":5.6738201},{"id":155881,"name":"Ozières","lat":48.1710068,"lng":5.4299697},{"id":155882,"name":"Palaiseul","lat":47.766239,"lng":5.3962053},{"id":155883,"name":"Pansey","lat":48.4799985,"lng":5.2587139},{"id":155884,"name":"Parnoy-en-Bassigny","lat":48.0262932,"lng":5.6195368},{"id":155885,"name":"Paroy-sur-Saulx","lat":48.5173588,"lng":5.2142368},{"id":155886,"name":"Peigney","lat":47.878458,"lng":5.3317474},{"id":155887,"name":"Perrancey-les-Vieux-Moulins","lat":47.8569019,"lng":5.2322409},{"id":155888,"name":"Perrogney-les-Fontaines","lat":47.8029868,"lng":5.1799449},{"id":155889,"name":"Perrusse","lat":48.0954262,"lng":5.453226},{"id":44910,"name":"Perthes","lat":48.664966,"lng":4.773729},{"id":155891,"name":"Pierremont-sur-Amance","lat":47.8049316,"lng":5.6177051},{"id":155892,"name":"Pisseloup","lat":47.8336862,"lng":5.7197443},{"id":155893,"name":"Planrupt","lat":48.5114291,"lng":4.7682593},{"id":155894,"name":"Plesnoy","lat":47.8914912,"lng":5.4725267},{"id":155895,"name":"Poinsenot","lat":47.7156343,"lng":4.9887805},{"id":155896,"name":"Poinson-lès-Fayl","lat":47.7478634,"lng":5.5839757},{"id":155897,"name":"Poinson-lès-Grancey","lat":47.710298,"lng":4.9375836},{"id":155898,"name":"Poinson-lès-Nogent","lat":47.9905861,"lng":5.3602919},{"id":155899,"name":"Poiseul","lat":47.9226671,"lng":5.4699776},{"id":155900,"name":"Poissons","lat":48.4220694,"lng":5.1733332},{"id":155901,"name":"Pont-la-Ville","lat":48.0805858,"lng":4.827785},{"id":155902,"name":"Poulangy","lat":48.0454915,"lng":5.2147112},{"id":155903,"name":"Praslay","lat":47.738125,"lng":5.088798},{"id":155904,"name":"Pressigny","lat":47.7465131,"lng":5.5864637},{"id":155905,"name":"Prez-sous-Lafauche","lat":48.278233,"lng":5.343314},{"id":155906,"name":"Rachecourt-sur-Marne","lat":48.5210348,"lng":5.0533948},{"id":155907,"name":"Rachecourt-Suzémont","lat":48.4559556,"lng":4.8899002},{"id":155908,"name":"Rançonnières","lat":47.9413511,"lng":5.4781002},{"id":155909,"name":"Rangecourt","lat":48.0426452,"lng":5.403832},{"id":155910,"name":"Rennepont","lat":48.1652632,"lng":4.7804283},{"id":155911,"name":"Reynel","lat":48.2958499,"lng":5.259144},{"id":155912,"name":"Riaucourt","lat":48.1734913,"lng":5.0848373},{"id":45494,"name":"Richebourg","lat":48.0129197,"lng":4.9741317},{"id":155914,"name":"Rimaucourt","lat":48.2457128,"lng":5.2657957},{"id":155915,"name":"Rives-Dervoises","lat":48.4700813,"lng":4.5417326},{"id":155916,"name":"Rivière-les-Fosses","lat":47.6452808,"lng":5.1420849},{"id":155917,"name":"Rivières-le-Bois","lat":47.7412169,"lng":5.3722787},{"id":155918,"name":"Rizaucourt-Buchey","lat":48.2726463,"lng":4.8275589},{"id":155919,"name":"Rochefort-sur-la-Côte","lat":48.2277466,"lng":5.17031},{"id":155920,"name":"Roches-Bettaincourt","lat":48.2949786,"lng":5.098041},{"id":155921,"name":"Roches-sur-Marne","lat":48.601289,"lng":4.9247326},{"id":155922,"name":"Rochetaillée","lat":47.8435073,"lng":5.0363089},{"id":155924,"name":"Romain-sur-Meuse","lat":48.1870431,"lng":5.4349784},{"id":155925,"name":"Rouécourt","lat":48.3296999,"lng":5.0347051},{"id":155926,"name":"Rouelles","lat":47.8040479,"lng":5.0068672},{"id":155927,"name":"Rougeux","lat":47.8098506,"lng":5.4894379},{"id":155928,"name":"Rouvres-sur-Aube","lat":47.8562542,"lng":4.9091746},{"id":155929,"name":"Rouvroy-sur-Marne","lat":48.3593011,"lng":5.0325881},{"id":155930,"name":"Rupt","lat":48.4220129,"lng":5.0896824},{"id":155931,"name":"Sailly","lat":48.4346045,"lng":5.1839207},{"id":155932,"name":"Saint-Blin","lat":48.2513246,"lng":5.3349074},{"id":155933,"name":"Saint-Broingt-le-Bois","lat":47.7290703,"lng":5.377214},{"id":155934,"name":"Saint-Broingt-les-Fosses","lat":47.713488,"lng":5.1874188},{"id":155935,"name":"Saint-Ciergues","lat":47.8821052,"lng":5.1767534},{"id":155937,"name":"Saint-Loup-sur-Aujon","lat":47.8810315,"lng":5.0467766},{"id":155938,"name":"Saint-Martin-lès-Langres","lat":47.896671,"lng":5.2405612},{"id":46311,"name":"Saint-Maurice","lat":47.8542807,"lng":5.3967997},{"id":155940,"name":"Saint-Thiébault","lat":48.2013026,"lng":5.5721312},{"id":155941,"name":"Saint-Urbain-Maconcourt","lat":48.3974609,"lng":5.1634203},{"id":155942,"name":"Saint-Vallier-sur-Marne","lat":47.833649,"lng":5.3836665},{"id":155943,"name":"Saints-Geosmes","lat":47.8240755,"lng":5.2628665},{"id":155944,"name":"Sarcey","lat":48.0575487,"lng":5.2754717},{"id":155945,"name":"Sarrey","lat":48.0014763,"lng":5.3848461},{"id":155946,"name":"Saudron","lat":48.4952191,"lng":5.3021128},{"id":155947,"name":"Saulles","lat":47.7026992,"lng":5.4947943},{"id":155948,"name":"Saulxures","lat":47.9552636,"lng":5.5573983},{"id":46876,"name":"Savigny","lat":47.7181841,"lng":5.6241962},{"id":155950,"name":"Semilly","lat":48.244594,"lng":5.431913},{"id":155951,"name":"Semoutiers-Montsaon","lat":48.0606181,"lng":5.0052701},{"id":46963,"name":"Serqueux","lat":48.0005888,"lng":5.7049492},{"id":155953,"name":"Sexfontaines","lat":48.2086151,"lng":4.9875252},{"id":155954,"name":"Signéville","lat":48.2671693,"lng":5.2458979},{"id":155955,"name":"Silvarouvres","lat":48.060793,"lng":4.7468342},{"id":155956,"name":"Sommancourt","lat":48.5034342,"lng":5.0201385},{"id":155957,"name":"Sommerécourt","lat":48.2238818,"lng":5.6307284},{"id":155958,"name":"Sommevoire","lat":48.4108339,"lng":4.7863399},{"id":155959,"name":"Soncourt-sur-Marne","lat":48.2487186,"lng":5.0436971},{"id":155960,"name":"Soulaucourt-sur-Mouzon","lat":48.1941795,"lng":5.6553845},{"id":155961,"name":"Soyers","lat":47.866103,"lng":5.6766526},{"id":155962,"name":"Suzannecourt","lat":48.4397234,"lng":5.1645924},{"id":155963,"name":"Ternat","lat":47.91493,"lng":5.1069784},{"id":155964,"name":"Thilleux","lat":48.4339701,"lng":4.7463532},{"id":155965,"name":"Thivet","lat":47.9856458,"lng":5.2544915},{"id":155966,"name":"Thol-lès-Millières","lat":48.1473342,"lng":5.4547026},{"id":155967,"name":"Thonnance-lès-Joinville","lat":48.463233,"lng":5.1434403},{"id":155968,"name":"Thonnance-les-Moulins","lat":48.4239904,"lng":5.2772842},{"id":155969,"name":"Torcenay","lat":47.8139019,"lng":5.4481451},{"id":155970,"name":"Tornay","lat":47.6909267,"lng":5.5744619},{"id":155971,"name":"Treix","lat":48.1418884,"lng":5.1748214},{"id":155972,"name":"Trémilly","lat":48.383207,"lng":4.7352978},{"id":155973,"name":"Troisfontaines-la-Ville","lat":48.547296,"lng":4.9282619},{"id":155974,"name":"Vaillant","lat":47.7171437,"lng":5.1384795},{"id":155976,"name":"Valcourt","lat":48.6114533,"lng":4.8910259},{"id":155977,"name":"Valleret","lat":48.4885999,"lng":4.9874182},{"id":47488,"name":"Valleroy","lat":47.6972464,"lng":5.6371642},{"id":155979,"name":"Vals-des-Tilles","lat":47.6904542,"lng":5.0455439},{"id":155980,"name":"Varennes-sur-Amance","lat":47.8950276,"lng":5.5703576},{"id":155981,"name":"Vaudrecourt","lat":48.2077605,"lng":5.626409},{"id":155982,"name":"Vaudrémont","lat":48.1326314,"lng":4.8921488},{"id":155983,"name":"Vaux-sur-Blaise","lat":48.4693905,"lng":4.9218493},{"id":155984,"name":"Vaux-sur-Saint-Urbain","lat":48.3709177,"lng":5.185808},{"id":155985,"name":"Vauxbons","lat":47.8827957,"lng":5.1002308},{"id":155986,"name":"Vecqueville","lat":48.4622115,"lng":5.1196355},{"id":155987,"name":"Velles","lat":47.8347955,"lng":5.7037626},{"id":155988,"name":"Verbiesles","lat":48.0758862,"lng":5.1535936},{"id":155989,"name":"Verseilles-le-Bas","lat":47.7623903,"lng":5.2740166},{"id":155990,"name":"Verseilles-le-Haut","lat":47.7694885,"lng":5.2715433},{"id":155991,"name":"Vesaignes-sous-Lafauche","lat":48.2845587,"lng":5.4049029},{"id":155992,"name":"Vesaignes-sur-Marne","lat":47.9973709,"lng":5.2462047},{"id":155993,"name":"Vesvres-sous-Chalancey","lat":47.6968835,"lng":5.1473904},{"id":47671,"name":"Vicq","lat":47.926984,"lng":5.5672122},{"id":155995,"name":"Viéville","lat":48.239481,"lng":5.1272626},{"id":155996,"name":"Vignes-la-Côte","lat":48.2735412,"lng":5.2883091},{"id":155997,"name":"Vignory","lat":48.2715079,"lng":5.0481491},{"id":155998,"name":"Villars-en-Azois","lat":48.0705967,"lng":4.6695698},{"id":155999,"name":"Villars-Santenoge","lat":47.7450741,"lng":4.9604231},{"id":156000,"name":"Ville-en-Blaisois","lat":48.4428744,"lng":4.9076027},{"id":156001,"name":"Villegusien-le-Lac","lat":47.7434733,"lng":5.2370394},{"id":156003,"name":"Villiers-le-Sec","lat":48.1008822,"lng":5.0486812},{"id":156004,"name":"Villiers-lès-Aprey","lat":47.7563689,"lng":5.1994207},{"id":156005,"name":"Villiers-sur-Suize","lat":47.979848,"lng":5.1503588},{"id":156006,"name":"Violot","lat":47.7584487,"lng":5.426696},{"id":156007,"name":"Vitry-en-Montagne","lat":47.8211098,"lng":5.0506618},{"id":156008,"name":"Vitry-lès-Nogent","lat":47.9870419,"lng":5.3221635},{"id":156009,"name":"Vivey","lat":47.7376951,"lng":5.0401567},{"id":156010,"name":"Voillecomte","lat":48.5040846,"lng":4.820705},{"id":156011,"name":"Voisey","lat":47.8791048,"lng":5.7314528},{"id":156012,"name":"Voisines","lat":47.8566689,"lng":5.1355168},{"id":156013,"name":"Voncourt","lat":47.7171771,"lng":5.6539265},{"id":156014,"name":"Vouécourt","lat":48.2642444,"lng":5.126392},{"id":156015,"name":"Vraincourt","lat":48.2315009,"lng":5.1000409},{"id":156016,"name":"Vroncourt-la-Côte","lat":48.1461927,"lng":5.4924083}]