[{"id":149220,"name":"10th of Ramadan","lat":30.2993939,"lng":31.6141789},{"id":149228,"name":"Al Qurein","lat":26.2930066,"lng":31.8495035},{"id":149223,"name":"Awlad Saqr","lat":30.9309623,"lng":31.6913238},{"id":149224,"name":"Bilbeis","lat":30.4167692,"lng":31.5543048},{"id":149225,"name":"Diyarb Negm","lat":30.7480082,"lng":31.3889308},{"id":149226,"name":"El Husseiniya","lat":31.1393396,"lng":32.1494967},{"id":149229,"name":"Faqous","lat":30.7229174,"lng":31.7613658},{"id":149230,"name":"Hihya","lat":30.6551621,"lng":31.5067157},{"id":149231,"name":"Kafr Saqr","lat":30.7795514,"lng":31.6177412},{"id":149221,"name":"Markaz Abū Ḩammād","lat":30.5360443,"lng":31.6597023},{"id":149232,"name":"Mashtoul El Souk","lat":30.3557011,"lng":31.3627853},{"id":149233,"name":"Minya El Qamh","lat":30.5003745,"lng":31.2376685},{"id":149234,"name":"New Salhia","lat":30.6286879,"lng":31.9209906},{"id":149235,"name":"Zagazig","lat":30.5845623,"lng":31.3474779}]