[{"id":149311,"name":"Abramok","lat":50.63694444,"lng":27.9075},{"id":149312,"name":"Adamivka","lat":50.37694444,"lng":27.91527778},{"id":149313,"name":"Adamove","lat":50.83111111,"lng":27.48305556},{"id":149314,"name":"Agativka","lat":49.98611111,"lng":28.605},{"id":149315,"name":"Andriyivka","lat":49.76293844,"lng":34.3003749},{"id":149316,"name":"Andrushivka","lat":50.01666667,"lng":29.01666667},{"id":149317,"name":"Autozavodskoy","lat":49.07173,"lng":33.41552},{"id":149318,"name":"Avratin","lat":49.87611111,"lng":27.82638889},{"id":149319,"name":"Bairak","lat":49.72043437,"lng":34.37378921},{"id":149320,"name":"Baliasne","lat":49.82119646,"lng":34.33881183},{"id":149323,"name":"Barashi","lat":50.71555556,"lng":28.03083333},{"id":149324,"name":"Bazar","lat":51.04388889,"lng":29.29361111},{"id":149325,"name":"Bekhi","lat":51.01972222,"lng":28.69333333},{"id":149326,"name":"Berdychiv","lat":49.89194444,"lng":28.6},{"id":149327,"name":"Berestivka","lat":50.34055556,"lng":27.47611111},{"id":149328,"name":"Berestovets","lat":51.02,"lng":28.87027778},{"id":149329,"name":"Berezianka","lat":49.69194444,"lng":29.45305556},{"id":149330,"name":"Berezovii Grud","lat":50.99666667,"lng":28.35888889},{"id":149331,"name":"Bereztsi","lat":50.50555556,"lng":29.3175},{"id":149332,"name":"Bicheva","lat":49.75055556,"lng":27.77777778},{"id":149333,"name":"Bigun","lat":51.40194444,"lng":28.28277778},{"id":149334,"name":"Bikiv","lat":50.17833333,"lng":29.29638889},{"id":149335,"name":"Bila Krynytsia","lat":50.63638889,"lng":29.46361111},{"id":149336,"name":"Bilii Bereg","lat":50.75638889,"lng":29.47888889},{"id":149337,"name":"Bilka","lat":50.81861111,"lng":28.18777778},{"id":149338,"name":"Bilylivka","lat":49.68,"lng":29.03},{"id":149339,"name":"Bistrik","lat":49.85638889,"lng":28.56638889},{"id":149340,"name":"Bistriyivka","lat":50.47777778,"lng":29.16472222},{"id":149341,"name":"Borisivka","lat":49.76934347,"lng":34.33837579},{"id":149342,"name":"Broniki","lat":50.55361111,"lng":27.80777778},{"id":149344,"name":"Bronitsia","lat":50.94666667,"lng":27.34527778},{"id":149343,"name":"Bronitska Guta","lat":50.93138889,"lng":27.31388889},{"id":149345,"name":"Brovki Pershi","lat":49.93194444,"lng":29.1975},{"id":149346,"name":"Brusyliv","lat":50.28333333,"lng":29.53333333},{"id":149347,"name":"Buchmany","lat":51.07,"lng":28.0425},{"id":149348,"name":"Buki","lat":50.19638889,"lng":28.325},{"id":149349,"name":"Buldichiv","lat":50.11361111,"lng":27.79666667},{"id":149350,"name":"Buriaki","lat":49.81888889,"lng":28.28361111},{"id":149351,"name":"Burkivtsi","lat":49.87888889,"lng":28.04444444},{"id":149352,"name":"Bykivka","lat":50.29277778,"lng":27.98305556},{"id":149353,"name":"Chernechii Iar","lat":49.83543,"lng":34.59174},{"id":149354,"name":"Cherniakhiv","lat":50.455,"lng":28.66527778},{"id":149355,"name":"Chervone","lat":49.94972222,"lng":28.86861111},{"id":149356,"name":"Chopovychi","lat":50.83333333,"lng":28.9525},{"id":149357,"name":"Chornukhy","lat":50.26990573,"lng":32.94757796},{"id":149358,"name":"Chudniv","lat":50.05277778,"lng":28.09694444},{"id":149359,"name":"Chutove","lat":49.71689367,"lng":35.17463951},{"id":149360,"name":"Dashynka","lat":50.64944444,"lng":28.395},{"id":149361,"name":"Davidivka","lat":50.52694444,"lng":28.41},{"id":149362,"name":"Davydky","lat":50.94888889,"lng":28.43861111},{"id":149363,"name":"Denyshi","lat":50.21527778,"lng":28.40777778},{"id":149364,"name":"Derhanivka","lat":49.69222222,"lng":29.06333333},{"id":149365,"name":"Dibrova","lat":51.16027778,"lng":27.97277778},{"id":149366,"name":"Didkovichi","lat":51.09972222,"lng":28.83194444},{"id":149367,"name":"Didovichi","lat":50.60916667,"lng":27.35583333},{"id":149368,"name":"Divochki","lat":50.44694444,"lng":28.74972222},{"id":149369,"name":"Dovbysh","lat":50.37223889,"lng":27.989475},{"id":149370,"name":"Druzhba","lat":51.18611111,"lng":27.96611111},{"id":149371,"name":"Dubivka","lat":49.90861111,"lng":28.78444444},{"id":149372,"name":"Dubnyki","lat":50.87416667,"lng":27.34888889},{"id":149373,"name":"Dubrivka","lat":50.28527778,"lng":29.59333333},{"id":149374,"name":"Dvorishche","lat":50.56194444,"lng":28.39777778},{"id":149375,"name":"Dykanka","lat":49.82223788,"lng":34.53408003},{"id":149376,"name":"Elivka","lat":50.72722222,"lng":29.18388889},{"id":149377,"name":"Fedorivka","lat":49.77617039,"lng":34.43944548},{"id":149378,"name":"Filenkove","lat":49.83559723,"lng":35.00298408},{"id":149379,"name":"Glinivtsi","lat":50.04611111,"lng":28.80416667},{"id":149380,"name":"Godikha","lat":50.19027778,"lng":28.22194444},{"id":149381,"name":"Golovenka","lat":50.15361111,"lng":28.54388889},{"id":149382,"name":"Golovki","lat":50.83972222,"lng":29.13333333},{"id":149383,"name":"Golubyatin","lat":49.855,"lng":29.51361111},{"id":149384,"name":"Gorbuliv","lat":50.5375,"lng":28.92333333},{"id":149385,"name":"Gordiyivka","lat":50.05444444,"lng":27.875},{"id":149386,"name":"Gorianshchina","lat":49.91185729,"lng":34.45818988},{"id":149387,"name":"Gorodkivka","lat":49.90972222,"lng":28.99416667},{"id":149388,"name":"Gorodok","lat":49.60027778,"lng":29.195},{"id":149389,"name":"Gorodske","lat":50.3775,"lng":29.16888889},{"id":149390,"name":"Goropayi","lat":50.01388889,"lng":27.83388889},{"id":149391,"name":"Goshiv","lat":51.23916667,"lng":28.71388889},{"id":149392,"name":"Gromada","lat":49.94638889,"lng":27.76222222},{"id":149393,"name":"Grozyne","lat":50.95888889,"lng":28.73055556},{"id":149394,"name":"Grushki","lat":50.49277778,"lng":28.455},{"id":149395,"name":"Gubske","lat":50.09951906,"lng":32.83123218},{"id":149396,"name":"Gulsk","lat":50.51916667,"lng":27.72111111},{"id":149397,"name":"Gumenniki","lat":50.39694444,"lng":28.92666667},{"id":149398,"name":"Guta-Potiyivka","lat":50.69111111,"lng":28.87416667},{"id":149399,"name":"Guto-Mariatin","lat":51.03,"lng":29.41666667},{"id":149400,"name":"Hadiach","lat":50.36666667,"lng":34.0},{"id":149401,"name":"Hlobyne","lat":49.38856468,"lng":33.26320863},{"id":149402,"name":"Holovyne","lat":50.4725,"lng":28.82805556},{"id":149403,"name":"Holubivka","lat":49.68097,"lng":29.16059},{"id":149404,"name":"Horishni Plavni","lat":49.01066008,"lng":33.65624556},{"id":149405,"name":"Horodets","lat":51.37,"lng":28.24138889},{"id":149406,"name":"Horodnytsia","lat":50.80944444,"lng":27.31833333},{"id":149407,"name":"Hradyzk","lat":49.23306925,"lng":33.13203713},{"id":149408,"name":"Hranitne","lat":50.74277778,"lng":29.35222222},{"id":149409,"name":"Hrebinka","lat":50.11799594,"lng":32.43958508},{"id":149410,"name":"Hryshkivtsi","lat":49.93555556,"lng":28.60166667},{"id":149411,"name":"Iemilivka","lat":50.68777778,"lng":28.72805556},{"id":149412,"name":"Ievgenivka","lat":50.63833333,"lng":27.99833333},{"id":149413,"name":"Irshansk","lat":50.71666667,"lng":28.71666667},{"id":149414,"name":"Ivanivka","lat":50.43777778,"lng":27.62944444},{"id":149415,"name":"Ivankiv","lat":50.39611111,"lng":28.56888889},{"id":149416,"name":"Ivanopil","lat":49.85861111,"lng":28.21555556},{"id":149417,"name":"Kamiani Potoky","lat":48.98589514,"lng":33.5186261},{"id":149418,"name":"Kardashivka","lat":49.88384899,"lng":34.64044604},{"id":149419,"name":"Karlivka","lat":49.45474986,"lng":35.13079636},{"id":149420,"name":"Khodaky","lat":50.97805556,"lng":28.80666667},{"id":149421,"name":"Khorol","lat":49.784031,"lng":33.258861},{"id":149422,"name":"Khoroshiv","lat":50.6,"lng":28.45},{"id":149423,"name":"Kobeliaky","lat":49.14736024,"lng":34.19927008},{"id":149424,"name":"Kononenki","lat":49.91143501,"lng":34.51172749},{"id":149425,"name":"Korchak","lat":50.2125,"lng":28.47638889},{"id":149426,"name":"Kornyn","lat":50.09527778,"lng":29.53583333},{"id":149427,"name":"Korosten","lat":50.95,"lng":28.65},{"id":149428,"name":"Korostyshiv","lat":50.31861111,"lng":29.05916667},{"id":149429,"name":"Kotelva","lat":50.06832759,"lng":34.7592113},{"id":149430,"name":"Kozelshchyna","lat":49.2155,"lng":33.8518},{"id":149431,"name":"Kratova Govtva","lat":49.87362868,"lng":34.50805284},{"id":149432,"name":"Kremenchuk","lat":49.0775,"lng":33.42388889},{"id":149433,"name":"Krukovskiy","lat":49.06672,"lng":33.4532},{"id":149434,"name":"Kucherivka","lat":49.74801949,"lng":34.29072744},{"id":149435,"name":"Kupech","lat":50.99611111,"lng":28.78472222},{"id":149436,"name":"Kvitneve","lat":49.98472222,"lng":29.51583333},{"id":149437,"name":"Landari","lat":49.78295521,"lng":34.38817299},{"id":149438,"name":"Lani","lat":49.71283212,"lng":34.43433283},{"id":149439,"name":"Lasky","lat":51.26555556,"lng":28.95638889},{"id":149440,"name":"Lazarivka","lat":50.3125,"lng":29.58583333},{"id":149441,"name":"Lisogirka","lat":49.75916667,"lng":27.90305556},{"id":149442,"name":"Liubar","lat":49.92138889,"lng":27.75833333},{"id":149443,"name":"Lokhvytsia","lat":50.3610461,"lng":33.26517113},{"id":149444,"name":"Lubny","lat":50.01856413,"lng":32.98686035},{"id":149445,"name":"Luhyny","lat":51.06666667,"lng":28.38333333},{"id":149446,"name":"Lutovynivka","lat":49.23722222,"lng":33.905},{"id":149447,"name":"Mala Rudka","lat":49.73993159,"lng":34.44651297},{"id":149448,"name":"Malyn","lat":50.76888889,"lng":29.27},{"id":149449,"name":"Marchenki","lat":49.84310165,"lng":34.38291991},{"id":149450,"name":"Markivka","lat":49.30247078,"lng":34.07348137},{"id":149451,"name":"Maschiwka","lat":49.44491715,"lng":34.87575392},{"id":149452,"name":"Morozivka","lat":50.67138889,"lng":27.45166667},{"id":149453,"name":"Myrhorod","lat":49.96397912,"lng":33.61238091},{"id":149454,"name":"Myropil","lat":50.1075,"lng":27.70583333},{"id":149455,"name":"Narodychi","lat":51.20231667,"lng":29.08139444},{"id":149456,"name":"Nedoharky","lat":49.169215,"lng":33.25495},{"id":149457,"name":"Nemyryntsi","lat":49.62,"lng":29.05},{"id":149458,"name":"Nova Borova","lat":50.69222222,"lng":28.63666667},{"id":149459,"name":"Nova Chortoriia","lat":50.0283,"lng":27.7081},{"id":149460,"name":"Novi Bilokorovychi","lat":51.0475,"lng":28.05194444},{"id":149461,"name":"Novi Sanzhary","lat":49.33539098,"lng":34.31619855},{"id":149462,"name":"Novi Vorobyi","lat":50.86972222,"lng":29.34333333},{"id":149463,"name":"Novohrad-Volynskyi","lat":50.58333333,"lng":27.63333333},{"id":149464,"name":"Novoozerianka","lat":51.21333333,"lng":28.00194444},{"id":149465,"name":"Nyvky","lat":51.35,"lng":29.11666667},{"id":149466,"name":"Odariukivka","lat":49.73973669,"lng":34.35914676},{"id":149467,"name":"Olefirshchina","lat":49.8859865,"lng":34.58571058},{"id":149468,"name":"Olevsk","lat":51.22777778,"lng":27.64805556},{"id":149469,"name":"Onatski","lat":49.88676376,"lng":34.46003707},{"id":149470,"name":"Opishnia","lat":49.95635316,"lng":34.61200414},{"id":149471,"name":"Orzhytsia","lat":49.79097957,"lng":32.7015265},{"id":149472,"name":"Ovruch","lat":51.32444444,"lng":28.80805556},{"id":149473,"name":"Ozerne","lat":50.17944444,"lng":28.73611111},{"id":149474,"name":"Pavoloch","lat":49.86916667,"lng":29.44916667},{"id":149475,"name":"Pershotravensk","lat":50.20111111,"lng":27.63388889},{"id":149476,"name":"Pershotravneve","lat":51.38916667,"lng":28.8625},{"id":149477,"name":"Petrenki","lat":49.7316474,"lng":34.33764355},{"id":149478,"name":"Pisarivshchina","lat":49.85532915,"lng":34.63195588},{"id":149479,"name":"Pishchiv","lat":50.60555556,"lng":27.31694444},{"id":149480,"name":"Polianka","lat":50.25620278,"lng":27.69518889},{"id":149481,"name":"Poltava","lat":49.57444444,"lng":34.56861111},{"id":149482,"name":"Popilnia","lat":49.94583333,"lng":29.45944444},{"id":149483,"name":"Popivka","lat":49.82284856,"lng":34.36835803},{"id":149484,"name":"Potiivka","lat":50.61972222,"lng":28.96444444},{"id":149485,"name":"Proni","lat":49.7862968,"lng":34.54425486},{"id":149486,"name":"Pyriatyn","lat":50.24059547,"lng":32.50929941},{"id":149487,"name":"Radomyshl","lat":50.49472222,"lng":29.23333333},{"id":149488,"name":"Reshetylivka","lat":49.5636,"lng":34.0763},{"id":149489,"name":"Rohachi","lat":49.64413,"lng":29.36076},{"id":149490,"name":"Romaniv","lat":50.15166667,"lng":27.93916667},{"id":149491,"name":"Romodan","lat":49.99487495,"lng":33.33073071},{"id":149492,"name":"Ruzhyn (settlement)","lat":49.72333333,"lng":29.22138889},{"id":149493,"name":"Schyschaky","lat":49.87689865,"lng":34.00709565},{"id":149494,"name":"Semenivka","lat":49.60167044,"lng":33.18746872},{"id":149495,"name":"Sencha","lat":50.25413446,"lng":33.35250701},{"id":149496,"name":"Shumsk","lat":50.11944444,"lng":26.11666667},{"id":149497,"name":"Slovechne","lat":51.38111111,"lng":28.35444444},{"id":149498,"name":"Smolovivshchina","lat":49.0681,"lng":34.43803},{"id":149499,"name":"Sokhatska Balka","lat":49.79953582,"lng":34.36245495},{"id":149500,"name":"Stepanivka","lat":49.75900311,"lng":34.42956716},{"id":149501,"name":"Sudivka","lat":49.75552151,"lng":34.49162461},{"id":149502,"name":"Tabory","lat":50.27833333,"lng":27.5975},{"id":149503,"name":"Taraschanka","lat":50.64583333,"lng":27.515},{"id":149504,"name":"Topory","lat":49.65361111,"lng":29.31333333},{"id":149505,"name":"Travneve","lat":50.42611111,"lng":29.08},{"id":149506,"name":"Troiany","lat":49.84137052,"lng":34.46811957},{"id":149507,"name":"Vasilivka","lat":49.82960962,"lng":34.45204549},{"id":149508,"name":"Velika Rudka","lat":49.74811105,"lng":34.46531945},{"id":149509,"name":"Veliki Budishcha","lat":49.85606039,"lng":34.58307084},{"id":149510,"name":"Velyka Bahachka","lat":49.79438338,"lng":33.72074263},{"id":149511,"name":"Velyki Korovyntsi","lat":49.97138889,"lng":28.29472222},{"id":149512,"name":"Velyki Sorochyntsi","lat":50.02530458,"lng":33.94765459},{"id":149513,"name":"Veresna","lat":50.38222222,"lng":27.3075},{"id":149514,"name":"Veselivka","lat":49.7358384,"lng":34.49733875},{"id":149515,"name":"Virlya","lat":50.34111111,"lng":27.70083333},{"id":149516,"name":"Vodiana Balka","lat":49.90247078,"lng":34.48073506},{"id":149517,"name":"Yablunets","lat":50.8,"lng":28.06666667},{"id":149518,"name":"Yarun","lat":50.54333333,"lng":27.46611111},{"id":149519,"name":"Yemilchyne","lat":50.87083333,"lng":27.80277778},{"id":149520,"name":"Zabaro-Davidivka","lat":50.97027778,"lng":27.45305556},{"id":149521,"name":"Zadovga","lat":49.27884,"lng":33.91136},{"id":149522,"name":"Zakrinichchia","lat":50.4,"lng":27.28416667},{"id":149523,"name":"Zalissia","lat":51.26444444,"lng":29.19805556},{"id":149524,"name":"Zaliznia","lat":50.15,"lng":28.52222222},{"id":149525,"name":"Zaluzhne","lat":50.23833333,"lng":27.96805556},{"id":149526,"name":"Zapadnia","lat":50.19055556,"lng":29.32916667},{"id":149527,"name":"Zarichchia","lat":49.71111111,"lng":29.22888889},{"id":149528,"name":"Zarudintsi","lat":49.65333333,"lng":29.19222222},{"id":149529,"name":"Zavodske","lat":50.40019868,"lng":33.39081277},{"id":149530,"name":"Zbranki","lat":51.29833333,"lng":28.64583333},{"id":149531,"name":"Zdorovets","lat":50.90694444,"lng":27.88611111},{"id":149532,"name":"Zherdeli","lat":49.89888889,"lng":28.97},{"id":149533,"name":"Zhitintsi","lat":49.91388889,"lng":27.57194444},{"id":149534,"name":"Zhovte","lat":50.40444444,"lng":27.82166667},{"id":149535,"name":"Zhovtii Brid","lat":50.28361111,"lng":28.10638889},{"id":149536,"name":"Zhupanivka","lat":50.9275,"lng":28.355},{"id":149537,"name":"Zhurbintsi","lat":49.97944444,"lng":28.71583333},{"id":149538,"name":"Zhytomyr","lat":50.25444444,"lng":28.65777778},{"id":149539,"name":"Zinkiv","lat":50.20813908,"lng":34.36684182},{"id":149540,"name":"Zlobichi","lat":50.85611111,"lng":28.69111111},{"id":149541,"name":"Zoriane","lat":49.64916667,"lng":29.24444444},{"id":149542,"name":"Zorokiv","lat":50.39416667,"lng":28.62388889},{"id":149543,"name":"Zosimivka","lat":50.73888889,"lng":27.64888889},{"id":149544,"name":"Zubivshchina","lat":50.95944444,"lng":28.81722222},{"id":149545,"name":"Zvizdal","lat":51.17386,"lng":29.24655}]