[{"id":150058,"name":"Boven Bolivia","lat":12.1819,"lng":-68.2181},{"id":150059,"name":"Dorp Tera Kora","lat":12.13333,"lng":-68.26667},{"id":150060,"name":"Oranjestad","lat":17.48333333,"lng":-62.98333333},{"id":150061,"name":"Rincon","lat":12.23833333,"lng":-68.3325},{"id":150062,"name":"St. Johns","lat":17.6210075,"lng":-63.2431683},{"id":150063,"name":"The Bottom","lat":17.62611111,"lng":-63.24916667},{"id":150064,"name":"Windwardside","lat":17.62864,"lng":-63.23136},{"id":150065,"name":"Zion's Hill","lat":17.643,"lng":-63.22649}]