[{"id":151219,"name":"Alegría-Dulantzi","lat":42.844094,"lng":-2.511955},{"id":32361,"name":"Amurrio","lat":43.05,"lng":-3.0},{"id":151245,"name":"Añana","lat":42.8151891,"lng":-2.9875565},{"id":151220,"name":"Aramaio","lat":43.0521188,"lng":-2.564711},{"id":32489,"name":"Armiñón","lat":42.72313,"lng":-2.87172},{"id":151238,"name":"Arraia-Maeztu","lat":42.73945,"lng":-2.4462181},{"id":151222,"name":"Arrazua-Ubarrundia","lat":42.9412484,"lng":-2.6090043},{"id":151221,"name":"Artziniega","lat":43.1205796,"lng":-3.1294084},{"id":151223,"name":"Asparrena","lat":42.8892222,"lng":-2.3123031},{"id":151224,"name":"Ayala/Aiara","lat":43.0753042,"lng":-3.0776568},{"id":151225,"name":"Baños de Ebro/Mañueta","lat":42.5295215,"lng":-2.6789301},{"id":151226,"name":"Barrundia","lat":42.8897047,"lng":-2.4695471},{"id":32832,"name":"Berantevilla","lat":42.68254,"lng":-2.85832},{"id":151227,"name":"Bernedo","lat":42.6275603,"lng":-2.4991327},{"id":151228,"name":"Campezo/Kanpezu","lat":42.6933238,"lng":-2.3517526},{"id":151232,"name":"Elburgo/Burgelu","lat":42.8496919,"lng":-2.5452497},{"id":34032,"name":"Elciego","lat":42.51569,"lng":-2.61897},{"id":151233,"name":"Elvillar/Bilar","lat":42.5706068,"lng":-2.5433183},{"id":151243,"name":"Erriberagoitia/Ribera Alta","lat":42.80724,"lng":-2.9175955},{"id":151250,"name":"Harana/Valle de Arana","lat":42.7527315,"lng":-2.3123031},{"id":151257,"name":"Iruña Oka/Iruña de Oca","lat":42.8192346,"lng":-2.8277963},{"id":151234,"name":"Iruraiz-Gauna","lat":42.8117467,"lng":-2.565825},{"id":151230,"name":"Kripan","lat":42.5969406,"lng":-2.514842},{"id":151231,"name":"Kuartango","lat":42.8851727,"lng":-2.9175955},{"id":151235,"name":"Labastida/Bastida","lat":42.5899354,"lng":-2.7956557},{"id":34942,"name":"Lagrán","lat":42.62625,"lng":-2.58385},{"id":34943,"name":"Laguardia","lat":42.55461,"lng":-2.58528},{"id":151236,"name":"Lanciego/Lantziego","lat":42.5625422,"lng":-2.5116145},{"id":151258,"name":"Lantarón","lat":42.728003,"lng":-3.0029739},{"id":34973,"name":"Lapuebla de Labarca","lat":42.49455,"lng":-2.57341},{"id":151237,"name":"Laudio/Llodio","lat":43.1455195,"lng":-2.9875565},{"id":151252,"name":"Legutio","lat":42.9804724,"lng":-2.6425841},{"id":35039,"name":"Leza","lat":42.56552,"lng":-2.63324},{"id":151239,"name":"Moreda de Álava/Moreda Araba","lat":42.525059,"lng":-2.4083391},{"id":35770,"name":"Navaridas","lat":42.54566,"lng":-2.6265},{"id":151240,"name":"Okondo","lat":43.1556707,"lng":-3.0265434},{"id":151241,"name":"Oyón-Oion","lat":42.507376,"lng":-2.4364679},{"id":151242,"name":"Peñacerrada-Urizaharra","lat":42.6441769,"lng":-2.7134227},{"id":151244,"name":"Ribera Baja/Erribera Beitia","lat":42.7120175,"lng":-2.9183217},{"id":151246,"name":"Salvatierra/Agurain","lat":42.8493348,"lng":-2.388785},{"id":36789,"name":"Samaniego","lat":42.56854,"lng":-2.67974},{"id":151247,"name":"San Millán/Donemiliaga","lat":42.8763933,"lng":-2.3782756},{"id":151248,"name":"Urkabustaiz","lat":42.9772904,"lng":-2.9410935},{"id":151249,"name":"Valdegovía/Gaubea","lat":42.8420421,"lng":-3.0776568},{"id":151251,"name":"Villabuena de Álava/Eskuernaga","lat":42.5446122,"lng":-2.6636066},{"id":151253,"name":"Vitoria-Gasteiz","lat":42.8531869,"lng":-2.6732421},{"id":151254,"name":"Yécora/Iekora","lat":42.5672746,"lng":-2.4715422},{"id":151255,"name":"Zalduondo","lat":42.8854919,"lng":-2.3462029},{"id":38464,"name":"Zambrana","lat":42.66102,"lng":-2.87909},{"id":151229,"name":"Zigoitia","lat":42.96788,"lng":-2.7182728},{"id":151256,"name":"Zuia","lat":42.9649882,"lng":-2.8377656}]