[{"id":151259,"name":"Abadiño","lat":43.1510298,"lng":-2.6112624},{"id":151260,"name":"Abanto y Ciérvana-Abanto Zierbena","lat":43.3168794,"lng":-3.0876783},{"id":151318,"name":"Ajangiz","lat":43.3033795,"lng":-2.6636066},{"id":32319,"name":"Alonsotegi","lat":43.24483,"lng":-2.98759},{"id":151261,"name":"Amorebieta-Etxano","lat":43.2204692,"lng":-2.733068},{"id":32357,"name":"Amoroto","lat":43.32634,"lng":-2.51349},{"id":151262,"name":"Arakaldo","lat":43.1528173,"lng":-2.9354543},{"id":151263,"name":"Arantzazu","lat":42.9793458,"lng":-2.3977928},{"id":151311,"name":"Areatza","lat":43.121255,"lng":-2.7697412},{"id":151266,"name":"Arrankudiaga","lat":43.1730622,"lng":-2.919982},{"id":151319,"name":"Arratzu","lat":43.3062858,"lng":-2.6402657},{"id":151267,"name":"Arrieta","lat":43.3416751,"lng":-2.7689657},{"id":32507,"name":"Arrigorriaga","lat":43.21006,"lng":-2.88562},{"id":151271,"name":"Artea","lat":43.1324732,"lng":-2.7842053},{"id":151265,"name":"Artzentales","lat":43.2357466,"lng":-3.2281983},{"id":151309,"name":"Atxondo","lat":43.131605,"lng":-2.5832703},{"id":32557,"name":"Aulesti","lat":43.3,"lng":-2.56667},{"id":32618,"name":"Bakio","lat":43.42917,"lng":-2.80881},{"id":151308,"name":"Balmaseda","lat":43.1924561,"lng":-3.1986805},{"id":32638,"name":"Barakaldo","lat":43.29639,"lng":-2.98813},{"id":151268,"name":"Barrika","lat":43.4067611,"lng":-2.9648237},{"id":32688,"name":"Basauri","lat":43.2397,"lng":-2.8858},{"id":151310,"name":"Bedia","lat":43.2029257,"lng":-2.8228124},{"id":32831,"name":"Berango","lat":43.365,"lng":-2.99601},{"id":32859,"name":"Bermeo","lat":43.42088,"lng":-2.72152},{"id":32863,"name":"Berriatua","lat":43.31667,"lng":-2.46667},{"id":32866,"name":"Berriz","lat":43.16667,"lng":-2.56667},{"id":32895,"name":"Bilbao","lat":43.26271,"lng":-2.92528},{"id":151269,"name":"Busturia","lat":43.3828135,"lng":-2.6985988},{"id":33927,"name":"Derio","lat":43.30544,"lng":-2.88116},{"id":151273,"name":"Dima","lat":43.138795,"lng":-2.7277213},{"id":33961,"name":"Durango","lat":43.17124,"lng":-2.6338},{"id":33968,"name":"Ea","lat":43.37985,"lng":-2.58556},{"id":151276,"name":"Elantxobe","lat":43.403103,"lng":-2.6397102},{"id":34038,"name":"Elorrio","lat":43.12924,"lng":-2.54056},{"id":34066,"name":"Erandio","lat":43.30438,"lng":-2.97352},{"id":151277,"name":"Ereño","lat":43.3558714,"lng":-2.6228101},{"id":34069,"name":"Ermua","lat":43.18725,"lng":-2.50261},{"id":34071,"name":"Errigoiti","lat":43.31667,"lng":-2.71667},{"id":151274,"name":"Etxebarri","lat":43.2527737,"lng":-2.8834532},{"id":151275,"name":"Etxebarria","lat":43.2537606,"lng":-2.4761591},{"id":34232,"name":"Forua","lat":43.33343,"lng":-2.67504},{"id":151278,"name":"Fruiz","lat":43.3279087,"lng":-2.7840861},{"id":34378,"name":"Galdakao","lat":43.23073,"lng":-2.8429},{"id":151279,"name":"Galdames","lat":43.2584012,"lng":-3.1077277},{"id":151280,"name":"Gamiz-Fika","lat":43.3270073,"lng":-2.818375},{"id":151281,"name":"Garai","lat":43.1934282,"lng":-2.610387},{"id":34436,"name":"Gatika","lat":43.36313,"lng":-2.87294},{"id":151282,"name":"Gautegiz Arteaga","lat":43.3518002,"lng":-2.6539486},{"id":34457,"name":"Gernika-Lumo","lat":43.31667,"lng":-2.68333},{"id":34461,"name":"Getxo","lat":43.35689,"lng":-3.01146},{"id":151285,"name":"Gizaburuaga","lat":43.3326823,"lng":-2.5420799},{"id":151283,"name":"Gordexola","lat":43.179379,"lng":-3.0748899},{"id":151284,"name":"Gorliz","lat":43.413174,"lng":-2.934305},{"id":34568,"name":"Güeñes","lat":43.21252,"lng":-3.09497},{"id":34724,"name":"Ibarrangelu","lat":43.39027,"lng":-2.63423},{"id":151312,"name":"Igorre","lat":43.1643497,"lng":-2.7792444},{"id":151286,"name":"Ispaster","lat":43.3618594,"lng":-2.5439819},{"id":151317,"name":"Iurreta","lat":43.1769783,"lng":-2.633813},{"id":34783,"name":"Izurtza","lat":43.15,"lng":-2.63333},{"id":151270,"name":"Karrantza Harana/Valle de Carranza","lat":43.2223226,"lng":-3.3590446},{"id":151314,"name":"Kortezubi","lat":43.3400145,"lng":-2.6548743},{"id":34961,"name":"Lanestosa","lat":43.21986,"lng":-3.4392},{"id":151287,"name":"Larrabetzu","lat":43.2609878,"lng":-2.7960332},{"id":151288,"name":"Laukiz","lat":43.351445,"lng":-2.9228598},{"id":35026,"name":"Leioa","lat":43.32686,"lng":-2.98884},{"id":35028,"name":"Lekeitio","lat":43.36417,"lng":-2.50492},{"id":151289,"name":"Lemoa","lat":43.208637,"lng":-2.7751137},{"id":151290,"name":"Lemoiz","lat":43.4129291,"lng":-2.9026256},{"id":35041,"name":"Lezama","lat":43.02799,"lng":-2.97257},{"id":151313,"name":"Loiu","lat":43.3069814,"lng":-2.9126022},{"id":151291,"name":"Mallabia","lat":43.1897926,"lng":-2.5303161},{"id":35361,"name":"Mañaria","lat":43.13819,"lng":-2.66104},{"id":35294,"name":"Markina-Xemein","lat":43.26667,"lng":-2.5},{"id":151292,"name":"Maruri-Jatabe","lat":43.4020223,"lng":-2.8721651},{"id":151294,"name":"Meñaka","lat":43.3614243,"lng":-2.7986106},{"id":151293,"name":"Mendata","lat":43.2867837,"lng":-2.6352267},{"id":35400,"name":"Mendexa","lat":43.3459,"lng":-2.4842},{"id":151296,"name":"Morga","lat":43.2996565,"lng":-2.7524733},{"id":35662,"name":"Mundaka","lat":43.40804,"lng":-2.69852},{"id":35664,"name":"Mungia","lat":43.35461,"lng":-2.84524},{"id":151264,"name":"Munitibar-Arbatzegi Gerrikaitz","lat":43.2657334,"lng":-2.592295},{"id":151315,"name":"Murueta","lat":43.3534739,"lng":-2.6817726},{"id":151298,"name":"Muskiz","lat":43.3226028,"lng":-3.1138928},{"id":151297,"name":"Muxika","lat":43.2894723,"lng":-2.6891316},{"id":151316,"name":"Nabarniz","lat":43.3213208,"lng":-2.5844348},{"id":35924,"name":"Ondarroa","lat":43.31667,"lng":-2.41667},{"id":151301,"name":"Orozko","lat":43.1075643,"lng":-2.9112964},{"id":35964,"name":"Ortuella","lat":43.31113,"lng":-3.05617},{"id":151299,"name":"Otxandio","lat":43.0430773,"lng":-2.6553349},{"id":36244,"name":"Plentzia","lat":43.4053,"lng":-2.94794},{"id":36300,"name":"Portugalete","lat":43.32099,"lng":-3.02064},{"id":37155,"name":"Santurtzi","lat":43.32842,"lng":-3.03248},{"id":37233,"name":"Sestao","lat":43.30975,"lng":-3.00716},{"id":37292,"name":"Sondika","lat":43.3002,"lng":-2.92442},{"id":151304,"name":"Sopelana","lat":43.3804959,"lng":-2.9838777},{"id":37297,"name":"Sopuerta","lat":43.26239,"lng":-3.15505},{"id":151302,"name":"Sukarrieta","lat":43.3948548,"lng":-2.6965229},{"id":151305,"name":"Trucios-Turtzioz","lat":43.2716898,"lng":-3.2565373},{"id":151306,"name":"Ubide","lat":43.0240916,"lng":-2.6879671},{"id":151295,"name":"Ugao-Miraballes","lat":43.1828241,"lng":-2.9013692},{"id":151307,"name":"Urduliz","lat":43.3641033,"lng":-2.9425698},{"id":151300,"name":"Urduña/Orduña","lat":43.0081817,"lng":-3.0476046},{"id":151303,"name":"Valle de Trápaga-Trapagaran","lat":43.3049937,"lng":-3.0372333},{"id":38460,"name":"Zaldibar","lat":43.16667,"lng":-2.53333},{"id":38461,"name":"Zalla","lat":43.23333,"lng":-3.13333},{"id":38466,"name":"Zamudio","lat":43.286,"lng":-2.87},{"id":38472,"name":"Zaratamo","lat":43.21667,"lng":-2.86667},{"id":38490,"name":"Zeanuri","lat":43.1,"lng":-2.75},{"id":151272,"name":"Zeberio","lat":43.1490751,"lng":-2.847737},{"id":38493,"name":"Zierbena","lat":43.35,"lng":-3.08333},{"id":151320,"name":"Ziortza-Bolibar","lat":43.2497137,"lng":-2.5497101}]