[{"id":32076,"name":"Alcalá de los Gazules","lat":36.46212,"lng":-5.72382},{"id":32080,"name":"Alcalá del Valle","lat":36.90448,"lng":-5.1724},{"id":32210,"name":"Algar","lat":36.65748,"lng":-5.65558},{"id":32216,"name":"Algeciras","lat":36.13326,"lng":-5.45051},{"id":32223,"name":"Algodonales","lat":36.88044,"lng":-5.40536},{"id":32437,"name":"Arcos de la Frontera","lat":36.75075,"lng":-5.81056},{"id":32646,"name":"Barbate","lat":36.19237,"lng":-5.92186},{"id":151361,"name":"Barrios Los","lat":36.1850645,"lng":-5.4925573},{"id":32766,"name":"Benalup-Casas Viejas","lat":36.34375,"lng":-5.8128},{"id":32773,"name":"Benaocaz","lat":36.70069,"lng":-5.42222},{"id":32957,"name":"Bornos","lat":36.81677,"lng":-5.74448},{"id":33117,"name":"Cadiz","lat":36.52672,"lng":-6.2891},{"id":33420,"name":"Castellar de la Frontera","lat":36.31736,"lng":-5.45407},{"id":33631,"name":"Chiclana de la Frontera","lat":36.41976,"lng":-6.14367},{"id":33641,"name":"Chipiona","lat":36.73663,"lng":-6.43703},{"id":33761,"name":"Conil de la Frontera","lat":36.27719,"lng":-6.0885},{"id":151362,"name":"El Bosque","lat":36.7580042,"lng":-5.5061788},{"id":151363,"name":"El Gastor","lat":36.856029,"lng":-5.3226677},{"id":151366,"name":"El Puerto de Santa María","lat":36.6393281,"lng":-6.2588369},{"id":34115,"name":"Espera","lat":36.87446,"lng":-5.806},{"id":34507,"name":"Grazalema","lat":36.76018,"lng":-5.36839},{"id":34812,"name":"Jerez de la Frontera","lat":36.68645,"lng":-6.13606},{"id":34817,"name":"Jimena de la Frontera","lat":36.43517,"lng":-5.45387},{"id":151364,"name":"La Línea de la Concepción","lat":36.1682563,"lng":-5.3494719},{"id":151365,"name":"Medina-Sidonia","lat":36.4619644,"lng":-5.9292131},{"id":35917,"name":"Olvera","lat":36.93418,"lng":-5.26678},{"id":36078,"name":"Paterna de Rivera","lat":36.52246,"lng":-5.86578},{"id":36346,"name":"Prado del Rey","lat":36.78756,"lng":-5.55589},{"id":36447,"name":"Puerto Real","lat":36.52819,"lng":-6.19011},{"id":36450,"name":"Puerto Serrano","lat":36.92209,"lng":-5.54304},{"id":36680,"name":"Rota","lat":36.62545,"lng":-6.3622},{"id":36835,"name":"San Fernando","lat":36.4759,"lng":-6.19817},{"id":36842,"name":"San José del Valle","lat":36.60554,"lng":-5.79895},{"id":36919,"name":"San Roque","lat":36.21067,"lng":-5.38415},{"id":36947,"name":"Sanlúcar de Barrameda","lat":36.77808,"lng":-6.3515},{"id":37236,"name":"Setenil de las Bodegas","lat":36.86397,"lng":-5.18177},{"id":37381,"name":"Tarifa","lat":36.01393,"lng":-5.60695},{"id":37487,"name":"Torre Alháquime","lat":36.91588,"lng":-5.23381},{"id":37625,"name":"Trebujena","lat":36.87075,"lng":-6.17586},{"id":37670,"name":"Ubrique","lat":36.67777,"lng":-5.446},{"id":37921,"name":"Vejer de la Frontera","lat":36.25213,"lng":-5.96717},{"id":38124,"name":"Villaluenga del Rosario","lat":36.69644,"lng":-5.38601},{"id":38136,"name":"Villamartín","lat":36.85979,"lng":-5.64485},{"id":38454,"name":"Zahara","lat":36.84055,"lng":-5.39128}]