[{"id":31929,"name":"Adamuz","lat":38.02674,"lng":-4.52231},{"id":151367,"name":"Aguilar de la Frontera","lat":37.4828908,"lng":-4.6657027},{"id":32087,"name":"Alcaracejos","lat":38.38333,"lng":-4.96667},{"id":32277,"name":"Almedinilla","lat":37.43902,"lng":-4.09052},{"id":32295,"name":"Almodóvar del Río","lat":37.8107,"lng":-5.02037},{"id":32596,"name":"Añora","lat":38.41667,"lng":-4.9},{"id":32607,"name":"Baena","lat":37.6167,"lng":-4.32245},{"id":32734,"name":"Belalcázar","lat":38.57566,"lng":-5.16653},{"id":33059,"name":"Bélmez","lat":38.26667,"lng":-5.2},{"id":32771,"name":"Benamejí","lat":37.26833,"lng":-4.54123},{"id":151368,"name":"Blázquez Los","lat":38.4070654,"lng":-5.4378177},{"id":33014,"name":"Bujalance","lat":37.89556,"lng":-4.38074},{"id":33098,"name":"Cabra","lat":37.47249,"lng":-4.44206},{"id":33540,"name":"Cañete de las Torres","lat":37.86717,"lng":-4.31835},{"id":33290,"name":"Carcabuey","lat":37.4442,"lng":-4.27471},{"id":33298,"name":"Cardeña","lat":38.27023,"lng":-4.32358},{"id":33491,"name":"Castro del Río","lat":37.69125,"lng":-4.48058},{"id":33762,"name":"Conquista","lat":38.4,"lng":-4.5},{"id":33904,"name":"Córdoba","lat":37.89155,"lng":-4.77275},{"id":33954,"name":"Doña Mencía","lat":37.55346,"lng":-4.35602},{"id":33950,"name":"Dos Torres","lat":38.45,"lng":-4.9},{"id":151370,"name":"El Carpio","lat":37.9411415,"lng":-4.4963843},{"id":151372,"name":"El Guijo","lat":38.4959178,"lng":-4.7827516},{"id":151379,"name":"El Viso","lat":38.4829438,"lng":-4.9532721},{"id":34047,"name":"Encinas Reales","lat":37.27419,"lng":-4.48828},{"id":34112,"name":"Espejo","lat":37.6798,"lng":-4.55355},{"id":34116,"name":"Espiel","lat":38.2,"lng":-5.01667},{"id":34175,"name":"Fernán-Núñez","lat":37.67044,"lng":-4.7264},{"id":34304,"name":"Fuente la Lancha","lat":38.41667,"lng":-5.03333},{"id":34292,"name":"Fuente Obejuna","lat":38.26667,"lng":-5.41667},{"id":34293,"name":"Fuente Palmera","lat":37.70494,"lng":-5.09965},{"id":34306,"name":"Fuente-Tójar","lat":37.51095,"lng":-4.14631},{"id":34523,"name":"Guadalcázar","lat":37.75738,"lng":-4.94387},{"id":34627,"name":"Hinojosa del Duque","lat":38.50057,"lng":-5.14651},{"id":34660,"name":"Hornachuelos","lat":37.83333,"lng":-5.23333},{"id":34782,"name":"Iznájar","lat":37.25766,"lng":-4.30836},{"id":151369,"name":"La Carlota","lat":37.6726446,"lng":-4.9337946},{"id":151371,"name":"La Granjuela","lat":38.3716692,"lng":-5.3514337},{"id":151375,"name":"La Rambla","lat":37.6063408,"lng":-4.7393576},{"id":151377,"name":"La Victoria","lat":37.693062,"lng":-4.8572493},{"id":35149,"name":"Lucena","lat":37.40881,"lng":-4.48522},{"id":35169,"name":"Luque","lat":37.55797,"lng":-4.27974},{"id":35533,"name":"Montalbán de Córdoba","lat":37.57996,"lng":-4.74935},{"id":35558,"name":"Montemayor","lat":37.6479,"lng":-4.69779},{"id":35577,"name":"Montilla","lat":37.58627,"lng":-4.63805},{"id":35583,"name":"Montoro","lat":38.02409,"lng":-4.3834},{"id":35585,"name":"Monturque","lat":37.47186,"lng":-4.58164},{"id":35629,"name":"Moriles","lat":37.4367,"lng":-4.60761},{"id":151373,"name":"Nueva Carteya","lat":37.5856113,"lng":-4.4677456},{"id":35853,"name":"Obejo","lat":38.13265,"lng":-4.80018},{"id":36024,"name":"Palenciana","lat":37.24851,"lng":-4.58261},{"id":36029,"name":"Palma del Río","lat":37.70024,"lng":-5.28121},{"id":36098,"name":"Pedro Abad","lat":37.96686,"lng":-4.4556},{"id":36102,"name":"Pedroche","lat":38.42848,"lng":-4.76325},{"id":36174,"name":"Peñarroya-Pueblonuevo","lat":38.3,"lng":-5.26667},{"id":36303,"name":"Posadas","lat":37.80205,"lng":-5.10726},{"id":36323,"name":"Pozoblanco","lat":38.37906,"lng":-4.84827},{"id":36354,"name":"Priego de Córdoba","lat":37.43807,"lng":-4.19523},{"id":151374,"name":"Puente Genil","lat":37.3887529,"lng":-4.7650998},{"id":36706,"name":"Rute","lat":37.3269,"lng":-4.36827},{"id":36921,"name":"San Sebastián de los Ballesteros","lat":37.65376,"lng":-4.82409},{"id":37049,"name":"Santa Eufemia","lat":38.6,"lng":-4.9},{"id":37104,"name":"Santaella","lat":37.56294,"lng":-4.84362},{"id":37513,"name":"Torrecampo","lat":38.46667,"lng":-4.66667},{"id":37823,"name":"Valenzuela","lat":37.7756,"lng":-4.22038},{"id":151376,"name":"Valsequillo","lat":38.4670914,"lng":-5.3730176},{"id":38014,"name":"Villa del Río","lat":37.98108,"lng":-4.29003},{"id":38056,"name":"Villafranca de Córdoba","lat":37.96257,"lng":-4.54547},{"id":38081,"name":"Villaharta","lat":38.13333,"lng":-4.9},{"id":38180,"name":"Villanueva de Córdoba","lat":38.32277,"lng":-4.62873},{"id":38217,"name":"Villanueva del Duque","lat":38.38333,"lng":-5.0},{"id":151378,"name":"Villanueva del Rey","lat":38.1978857,"lng":-5.1516777},{"id":38264,"name":"Villaralto","lat":38.45,"lng":-4.98333},{"id":38356,"name":"Villaviciosa de Córdoba","lat":38.08333,"lng":-5.01667},{"id":38507,"name":"Zuheros","lat":37.54332,"lng":-4.31531}]