[{"id":31950,"name":"Agrón","lat":37.03023,"lng":-3.8287},{"id":31996,"name":"Alamedilla","lat":37.58232,"lng":-3.24241},{"id":32048,"name":"Albolote","lat":37.23088,"lng":-3.6551},{"id":32049,"name":"Albondón","lat":36.8277,"lng":-3.21144},{"id":32062,"name":"Albuñán","lat":37.22708,"lng":-3.13321},{"id":32060,"name":"Albuñol","lat":36.79203,"lng":-3.205},{"id":32061,"name":"Albuñuelas","lat":36.92828,"lng":-3.63184},{"id":32180,"name":"Aldeire","lat":37.16012,"lng":-3.07204},{"id":32188,"name":"Alfacar","lat":37.23744,"lng":-3.56807},{"id":32212,"name":"Algarinejo","lat":37.32526,"lng":-4.1585},{"id":32235,"name":"Alhama de Granada","lat":37.00689,"lng":-3.98963},{"id":32240,"name":"Alhendín","lat":37.10879,"lng":-3.64557},{"id":32246,"name":"Alicún de Ortega","lat":37.60898,"lng":-3.13648},{"id":32279,"name":"Almegíjar","lat":36.90258,"lng":-3.30122},{"id":32314,"name":"Almuñécar","lat":36.73393,"lng":-3.69072},{"id":151405,"name":"Alpujarra de la Sierra","lat":37.0091731,"lng":-3.1478514},{"id":32334,"name":"Alquife","lat":37.18024,"lng":-3.11553},{"id":32448,"name":"Arenas del Rey","lat":36.95799,"lng":-3.89362},{"id":32488,"name":"Armilla","lat":37.14386,"lng":-3.62534},{"id":32550,"name":"Atarfe","lat":37.22479,"lng":-3.68686},{"id":32700,"name":"Baza","lat":37.49073,"lng":-2.77259},{"id":32717,"name":"Beas de Granada","lat":37.21803,"lng":-3.48095},{"id":32718,"name":"Beas de Guadix","lat":37.27861,"lng":-3.20579},{"id":151380,"name":"Benalúa","lat":37.3507892,"lng":-3.1635732},{"id":32768,"name":"Benalúa de las Villas","lat":37.42742,"lng":-3.68346},{"id":32770,"name":"Benamaurel","lat":37.60826,"lng":-2.7025},{"id":33061,"name":"Bérchules","lat":36.97678,"lng":-3.19067},{"id":32997,"name":"Bubión","lat":36.949,"lng":-3.35615},{"id":33036,"name":"Busquístar","lat":36.93796,"lng":-3.29444},{"id":151381,"name":"Cacín","lat":37.0594262,"lng":-3.9158216},{"id":33893,"name":"Cádiar","lat":36.94591,"lng":-3.1802},{"id":33894,"name":"Cájar","lat":37.13381,"lng":-3.57274},{"id":33144,"name":"Calicasas","lat":37.2713,"lng":-3.61345},{"id":33212,"name":"Campotéjar","lat":37.48235,"lng":-3.61771},{"id":33901,"name":"Cáñar","lat":36.92684,"lng":-3.42808},{"id":33239,"name":"Caniles","lat":37.43671,"lng":-2.72482},{"id":33268,"name":"Capileira","lat":36.96148,"lng":-3.35864},{"id":33276,"name":"Carataunas","lat":36.92204,"lng":-3.40834},{"id":33900,"name":"Cástaras","lat":36.93164,"lng":-3.25406},{"id":33468,"name":"Castilléjar","lat":37.71697,"lng":-2.6406},{"id":33474,"name":"Castril","lat":37.79581,"lng":-2.78002},{"id":33568,"name":"Cenes de la Vega","lat":37.16006,"lng":-3.53548},{"id":33619,"name":"Chauchina","lat":37.19977,"lng":-3.77157},{"id":33637,"name":"Chimeneas","lat":37.13125,"lng":-3.8213},{"id":33652,"name":"Churriana de la Vega","lat":37.14499,"lng":-3.64617},{"id":33666,"name":"Cijuela","lat":37.198,"lng":-3.81174},{"id":33723,"name":"Cogollos de Guadix","lat":37.22521,"lng":-3.16094},{"id":151382,"name":"Cogollos de la Vega","lat":37.2752926,"lng":-3.5719339},{"id":33747,"name":"Colomera","lat":37.37156,"lng":-3.71393},{"id":33810,"name":"Cortes de Baza","lat":37.65514,"lng":-2.77167},{"id":151383,"name":"Cortes y Graena","lat":37.3069434,"lng":-3.2174751},{"id":33878,"name":"Cuevas del Campo","lat":37.60755,"lng":-2.92938},{"id":151384,"name":"Cúllar","lat":37.5828301,"lng":-2.5705729},{"id":151385,"name":"Cúllar Vega","lat":37.1521168,"lng":-3.6716156},{"id":33914,"name":"Darro","lat":37.34987,"lng":-3.29465},{"id":33920,"name":"Dehesas de Guadix","lat":37.58876,"lng":-3.10317},{"id":33921,"name":"Deifontes","lat":37.3262,"lng":-3.59568},{"id":33934,"name":"Diezma","lat":37.31982,"lng":-3.33256},{"id":33965,"name":"Dílar","lat":37.07282,"lng":-3.60134},{"id":151386,"name":"Dólar","lat":37.1781955,"lng":-2.9913808},{"id":33966,"name":"Dúdar","lat":37.18579,"lng":-3.48347},{"id":33967,"name":"Dúrcal","lat":36.98788,"lng":-3.56601},{"id":151411,"name":"El Pinar","lat":36.8904838,"lng":-3.5509074},{"id":151403,"name":"El Valle","lat":36.9322296,"lng":-3.5913939},{"id":34094,"name":"Escúzar","lat":37.06219,"lng":-3.76126},{"id":34176,"name":"Ferreira","lat":37.17247,"lng":-3.03539},{"id":34206,"name":"Fonelas","lat":37.41042,"lng":-3.17158},{"id":34243,"name":"Freila","lat":37.5299,"lng":-2.90828},{"id":34294,"name":"Fuente Vaqueros","lat":37.22019,"lng":-3.78294},{"id":34380,"name":"Galera","lat":37.74262,"lng":-2.55175},{"id":34473,"name":"Gobernador","lat":37.47845,"lng":-3.32119},{"id":34563,"name":"Gójar","lat":37.10456,"lng":-3.60565},{"id":34484,"name":"Gor","lat":37.36937,"lng":-2.97016},{"id":151387,"name":"Gorafe","lat":37.5254429,"lng":-3.0275802},{"id":34497,"name":"Granada","lat":37.18817,"lng":-3.60667},{"id":34519,"name":"Guadahortuna","lat":37.55711,"lng":-3.39859},{"id":34531,"name":"Guadix","lat":37.29932,"lng":-3.13922},{"id":151407,"name":"Guajares Los","lat":36.8456748,"lng":-3.6116494},{"id":34533,"name":"Gualchos","lat":36.74467,"lng":-3.39079},{"id":151388,"name":"Güejar Sierra","lat":37.1590713,"lng":-3.4404462},{"id":34567,"name":"Güevéjar","lat":37.25759,"lng":-3.59691},{"id":34708,"name":"Huélago","lat":37.41972,"lng":-3.26226},{"id":34710,"name":"Huéneja","lat":37.1766,"lng":-2.95024},{"id":34717,"name":"Huéscar","lat":37.81104,"lng":-2.54116},{"id":151389,"name":"Huétor de Santillán","lat":37.2228363,"lng":-3.5150142},{"id":151390,"name":"Huétor Tájar","lat":37.1972428,"lng":-4.0481376},{"id":34719,"name":"Huétor Vega","lat":37.14529,"lng":-3.56963},{"id":34749,"name":"Illora","lat":37.28771,"lng":-3.88109},{"id":38580,"name":"Ítrabo","lat":36.79998,"lng":-3.63899},{"id":34779,"name":"Iznalloz","lat":37.39258,"lng":-3.52762},{"id":34810,"name":"Jayena","lat":36.9492,"lng":-3.82313},{"id":34836,"name":"Jérez del Marquesado","lat":37.18382,"lng":-3.15961},{"id":151391,"name":"Jete","lat":36.7975846,"lng":-3.668028},{"id":34829,"name":"Jun","lat":37.22083,"lng":-3.59407},{"id":34834,"name":"Juviles","lat":36.94879,"lng":-3.22586},{"id":151392,"name":"La Calahorra","lat":37.1814822,"lng":-3.0638805},{"id":151394,"name":"La Malahá","lat":37.0991501,"lng":-3.721297},{"id":151395,"name":"La Peza","lat":37.2771901,"lng":-3.2847716},{"id":151402,"name":"La Taha","lat":36.9236067,"lng":-3.3338547},{"id":151401,"name":"La Zubia","lat":41.3752526,"lng":1.72088},{"id":35174,"name":"Láchar","lat":37.19519,"lng":-3.83277},{"id":34967,"name":"Lanjarón","lat":36.91853,"lng":-3.4818},{"id":34969,"name":"Lanteira","lat":37.16871,"lng":-3.13823},{"id":151406,"name":"Las Gabias","lat":37.1346055,"lng":-3.6693027},{"id":151393,"name":"Lecrín","lat":36.9474773,"lng":-3.5528045},{"id":35029,"name":"Lentegí","lat":36.83613,"lng":-3.67426},{"id":35096,"name":"Lobras","lat":36.92849,"lng":-3.2123},{"id":35102,"name":"Loja","lat":37.16887,"lng":-4.15129},{"id":35160,"name":"Lugros","lat":37.22942,"lng":-3.2415},{"id":35178,"name":"Lújar","lat":36.78831,"lng":-3.404},{"id":35275,"name":"Maracena","lat":37.20764,"lng":-3.63493},{"id":35283,"name":"Marchal","lat":37.29639,"lng":-3.20353},{"id":35463,"name":"Moclín","lat":37.33959,"lng":-3.78651},{"id":35490,"name":"Molvízar","lat":36.78592,"lng":-3.60783},{"id":35494,"name":"Monachil","lat":37.1332,"lng":-3.53724},{"id":35548,"name":"Montefrío","lat":37.32308,"lng":-4.00898},{"id":35551,"name":"Montejicar","lat":37.57223,"lng":-3.50527},{"id":35578,"name":"Montillana","lat":37.50168,"lng":-3.67368},{"id":35600,"name":"Moraleda de Zafayona","lat":37.16723,"lng":-3.96505},{"id":151410,"name":"Morelábor","lat":37.4326637,"lng":-3.3086778},{"id":35645,"name":"Motril","lat":36.75066,"lng":-3.5179},{"id":35686,"name":"Murtas","lat":36.88504,"lng":-3.10945},{"id":151404,"name":"Nevada","lat":37.0337462,"lng":-3.0275802},{"id":35809,"name":"Nigüelas","lat":36.9776,"lng":-3.53949},{"id":35845,"name":"Nívar","lat":37.25909,"lng":-3.57768},{"id":35862,"name":"Ogíjares","lat":37.11913,"lng":-3.60772},{"id":35936,"name":"Orce","lat":37.7212,"lng":-2.47752},{"id":38583,"name":"Órgiva","lat":36.90259,"lng":-3.42379},{"id":35982,"name":"Otívar","lat":36.81582,"lng":-3.67979},{"id":35981,"name":"Otura","lat":37.08846,"lng":-3.63321},{"id":35996,"name":"Padul","lat":37.02462,"lng":-3.62678},{"id":36043,"name":"Pampaneira","lat":36.94015,"lng":-3.36096},{"id":36100,"name":"Pedro Martínez","lat":37.5029,"lng":-3.23134},{"id":36126,"name":"Peligros","lat":37.23231,"lng":-3.62901},{"id":36229,"name":"Piñar","lat":37.44457,"lng":-3.43861},{"id":36211,"name":"Pinos Genil","lat":37.16346,"lng":-3.50215},{"id":36212,"name":"Pinos Puente","lat":37.25109,"lng":-3.74967},{"id":36267,"name":"Polícar","lat":37.25759,"lng":-3.23375},{"id":36265,"name":"Polopos","lat":36.79466,"lng":-3.29816},{"id":36486,"name":"Pórtugos","lat":36.94193,"lng":-3.31066},{"id":36415,"name":"Puebla de Don Fadrique","lat":37.96156,"lng":-2.43961},{"id":36468,"name":"Pulianas","lat":37.22302,"lng":-3.60832},{"id":36477,"name":"Purullena","lat":37.31763,"lng":-3.19056},{"id":36532,"name":"Quéntar","lat":37.19253,"lng":-3.46653},{"id":36692,"name":"Rubite","lat":36.80947,"lng":-3.34816},{"id":36746,"name":"Salar","lat":37.15036,"lng":-4.06576},{"id":36774,"name":"Salobreña","lat":36.74277,"lng":-3.58717},{"id":151396,"name":"Santa Cruz del Comercio","lat":37.0614572,"lng":-3.9757259},{"id":151397,"name":"Santa Fe","lat":37.1878785,"lng":-3.7202391},{"id":37296,"name":"Soportújar","lat":36.92863,"lng":-3.40542},{"id":37305,"name":"Sorvilán","lat":36.79505,"lng":-3.26769},{"id":37506,"name":"Torre-Cardela","lat":37.50456,"lng":-3.35609},{"id":151398,"name":"Torvizcón","lat":36.8788429,"lng":-3.2988391},{"id":37634,"name":"Trevélez","lat":37.00037,"lng":-3.26545},{"id":151399,"name":"Turón","lat":36.8641989,"lng":-3.0573069},{"id":37675,"name":"Ugíjar","lat":36.96087,"lng":-3.05523},{"id":151408,"name":"Valle del Zalabí","lat":37.2912138,"lng":-3.0075642},{"id":38413,"name":"Válor","lat":36.99618,"lng":-3.08287},{"id":151412,"name":"Vegas del Genil","lat":37.1701396,"lng":-3.6978264},{"id":38414,"name":"Vélez de Benaudalla","lat":36.83244,"lng":-3.51539},{"id":37941,"name":"Ventas de Huelma","lat":37.0684,"lng":-3.81983},{"id":151409,"name":"Villamena","lat":36.9800692,"lng":-3.6065848},{"id":38208,"name":"Villanueva de las Torres","lat":37.55719,"lng":-3.08868},{"id":151400,"name":"Villanueva Mesía","lat":37.214584,"lng":-4.0112611},{"id":38418,"name":"Víznar","lat":37.23149,"lng":-3.55382},{"id":38449,"name":"Zafarraya","lat":36.97554,"lng":-4.14442},{"id":38453,"name":"Zagra","lat":37.25561,"lng":-4.16905},{"id":38512,"name":"Zújar","lat":37.54285,"lng":-2.84197}]