[{"id":151732,"name":"Abella de la Conca","lat":42.1615074,"lng":1.0919975},{"id":38571,"name":"Àger","lat":42.0,"lng":0.76667},{"id":31948,"name":"Agramunt","lat":41.78686,"lng":1.09683},{"id":31983,"name":"Aitona","lat":41.48333,"lng":0.46667},{"id":151733,"name":"Alamús Els","lat":41.6150242,"lng":0.7402123},{"id":32345,"name":"Alàs i Cerc","lat":42.35,"lng":1.51667},{"id":151734,"name":"Albagés L","lat":41.4470074,"lng":0.7408063},{"id":151735,"name":"Albatàrrec","lat":41.5733763,"lng":0.607391},{"id":32043,"name":"Albesa","lat":41.75282,"lng":0.65936},{"id":151736,"name":"Albi L","lat":41.4230658,"lng":0.9360877},{"id":32086,"name":"Alcanó","lat":41.48064,"lng":0.61659},{"id":32089,"name":"Alcarràs","lat":41.56667,"lng":0.51667},{"id":32110,"name":"Alcoletge","lat":41.64762,"lng":0.69383},{"id":32201,"name":"Alfarràs","lat":41.81667,"lng":0.58333},{"id":32207,"name":"Alfés","lat":41.52143,"lng":0.6205},{"id":32218,"name":"Algerri","lat":41.81482,"lng":0.63633},{"id":32228,"name":"Alguaire","lat":41.73703,"lng":0.5845},{"id":151737,"name":"Alins","lat":42.5486199,"lng":1.3177031},{"id":32259,"name":"Almacelles","lat":41.73216,"lng":0.43722},{"id":151738,"name":"Almatret","lat":41.3057999,"lng":0.4237121},{"id":32280,"name":"Almenar","lat":41.79604,"lng":0.56834},{"id":151739,"name":"Alòs de Balaguer","lat":41.9126559,"lng":0.9600662},{"id":32331,"name":"Alpicat","lat":41.6657,"lng":0.55564},{"id":151740,"name":"Alt Àneu","lat":42.6830031,"lng":1.0777723},{"id":32378,"name":"Anglesola","lat":41.65649,"lng":1.08286},{"id":32422,"name":"Arbeca","lat":41.54153,"lng":0.92457},{"id":151743,"name":"Arres","lat":42.7591538,"lng":0.7105267},{"id":151744,"name":"Arsèguel","lat":42.3500537,"lng":1.5829386},{"id":151745,"name":"Artesa de Lleida","lat":41.553054,"lng":0.7033745},{"id":32524,"name":"Artesa de Segre","lat":41.89467,"lng":1.04625},{"id":32535,"name":"Aspa","lat":41.49472,"lng":0.67277},{"id":151748,"name":"Baix Pallars","lat":42.3301006,"lng":1.0394635},{"id":32619,"name":"Balaguer","lat":41.79117,"lng":0.81094},{"id":151749,"name":"Barbens","lat":41.6775914,"lng":1.016083},{"id":151752,"name":"Bassella","lat":42.0169127,"lng":1.2958754},{"id":151753,"name":"Bausen","lat":42.8344383,"lng":0.7167588},{"id":151754,"name":"Belianes","lat":41.5605304,"lng":1.0143426},{"id":151756,"name":"Bell-lloc d'Urgell","lat":41.6303438,"lng":0.7791283},{"id":151828,"name":"Bellaguarda","lat":41.3287569,"lng":0.724773},{"id":151755,"name":"Bellcaire d'Urgell","lat":41.7583443,"lng":0.9044696},{"id":151757,"name":"Bellmunt d'Urgell","lat":41.7739942,"lng":0.9519708},{"id":32743,"name":"Bellpuig","lat":41.62595,"lng":1.01144},{"id":32745,"name":"Bellver de Cerdanya","lat":42.36667,"lng":1.78333},{"id":32746,"name":"Bellvís","lat":41.67269,"lng":0.81768},{"id":151758,"name":"Benavent de Segrià","lat":41.697298,"lng":0.6328539},{"id":151759,"name":"Biosca","lat":41.8914698,"lng":1.3855161},{"id":151761,"name":"Bòrdes Es","lat":42.7386916,"lng":0.7235077},{"id":151763,"name":"Bossòst","lat":42.7855045,"lng":0.6921325},{"id":151760,"name":"Bovera","lat":41.32613,"lng":0.6387778},{"id":151764,"name":"Cabanabona","lat":41.8508626,"lng":1.2166383},{"id":151765,"name":"Cabó","lat":42.2388889,"lng":1.2471427},{"id":33163,"name":"Camarasa","lat":41.87486,"lng":0.87814},{"id":151766,"name":"Canejan","lat":42.8122428,"lng":0.8008388},{"id":151884,"name":"Castell de Mur","lat":42.1046566,"lng":0.8579818},{"id":151767,"name":"Castellar de la Ribera","lat":42.0223125,"lng":1.4155391},{"id":151768,"name":"Castelldans","lat":41.4974858,"lng":0.7663538},{"id":33429,"name":"Castellnou de Seana","lat":41.64802,"lng":0.97093},{"id":151769,"name":"Castelló de Farfanya","lat":41.8174163,"lng":0.7265542},{"id":33434,"name":"Castellserà","lat":41.75,"lng":1.0},{"id":151770,"name":"Cava","lat":42.3252871,"lng":1.6055202},{"id":33595,"name":"Cervera","lat":41.67003,"lng":1.2721},{"id":151771,"name":"Cervià de les Garrigues","lat":41.4274049,"lng":0.8609602},{"id":33700,"name":"Ciutadilla","lat":41.56113,"lng":1.13935},{"id":151772,"name":"Clariana de Cardener","lat":41.9331297,"lng":1.626142},{"id":33730,"name":"Coll de Nargó","lat":42.17473,"lng":1.31694},{"id":151820,"name":"Conca de Dalt","lat":42.2121579,"lng":1.0011902},{"id":33777,"name":"Corbins","lat":41.68333,"lng":0.7},{"id":33848,"name":"Cubells","lat":41.85062,"lng":0.959},{"id":151773,"name":"El Cogul","lat":41.4673371,"lng":0.6897597},{"id":151819,"name":"El Palau d'Anglesola","lat":41.6501468,"lng":0.8812324},{"id":151826,"name":"El Poal","lat":41.678418,"lng":0.8561949},{"id":151742,"name":"El Pont de Bar","lat":42.3720357,"lng":1.605217},{"id":151830,"name":"El Pont de Suert","lat":42.4080464,"lng":0.7408063},{"id":151854,"name":"El Soleràs","lat":41.4135907,"lng":0.6802698},{"id":151879,"name":"El Vilosell","lat":41.3825979,"lng":0.9471299},{"id":151774,"name":"Espluga Calba L","lat":41.4950371,"lng":1.004179},{"id":34132,"name":"Espot","lat":42.57838,"lng":1.08666},{"id":151778,"name":"Estamariu","lat":42.3731557,"lng":1.5228293},{"id":151775,"name":"Estaràs","lat":41.6975038,"lng":1.3903425},{"id":151776,"name":"Esterri d'Àneu","lat":42.6269227,"lng":1.1227106},{"id":151777,"name":"Esterri de Cardós","lat":42.5927358,"lng":1.2617265},{"id":34166,"name":"Farrera","lat":42.49654,"lng":1.27216},{"id":151888,"name":"Fígols i Alinyà","lat":42.1981887,"lng":1.3951694},{"id":151780,"name":"Fondarella","lat":41.634355,"lng":0.8740871},{"id":151781,"name":"Foradada","lat":41.8768861,"lng":1.0129973},{"id":34364,"name":"Fulleda","lat":41.46334,"lng":1.02395},{"id":151783,"name":"Gavet de la Conca","lat":42.122861,"lng":0.9210213},{"id":151892,"name":"Gimenells i el Pla de la Font","lat":41.6603639,"lng":0.3936722},{"id":34479,"name":"Golmés","lat":41.63354,"lng":0.93125},{"id":34565,"name":"Gósol","lat":42.23697,"lng":1.6601},{"id":151786,"name":"Granyanella","lat":41.6480072,"lng":1.2232482},{"id":151788,"name":"Granyena de les Garrigues","lat":41.432857,"lng":0.6491468},{"id":151787,"name":"Granyena de Segarra","lat":41.6237612,"lng":1.2463911},{"id":34549,"name":"Guimerà","lat":41.5645,"lng":1.18528},{"id":151789,"name":"Guissona","lat":41.784519,"lng":1.2903074},{"id":151790,"name":"Guixers","lat":42.1374541,"lng":1.6422975},{"id":151793,"name":"Isona i Conca Dellà","lat":42.1184861,"lng":1.0465938},{"id":151792,"name":"Ivars d'Urgell","lat":41.6804785,"lng":0.9880419},{"id":151791,"name":"Ivars de Noguera","lat":41.8498111,"lng":0.5865375},{"id":34777,"name":"Ivorra","lat":41.76667,"lng":1.4},{"id":151890,"name":"Josa i Tuixén","lat":42.2545949,"lng":1.6080974},{"id":34831,"name":"Juncosa","lat":41.37033,"lng":0.7765},{"id":34832,"name":"Juneda","lat":41.54847,"lng":0.82451},{"id":151750,"name":"La Baronia de Rialb","lat":42.0126088,"lng":1.1929114},{"id":151821,"name":"La Coma i la Pedra","lat":42.175938,"lng":1.5886966},{"id":151779,"name":"La Floresta","lat":41.5107312,"lng":0.9205739},{"id":151782,"name":"La Fuliola","lat":41.7114576,"lng":1.0059724},{"id":151784,"name":"La Granadella","lat":41.3548062,"lng":0.6660391},{"id":151785,"name":"La Granja d'Escarp","lat":41.4188099,"lng":0.3530666},{"id":151883,"name":"La Guingueta d'Àneu","lat":42.5945468,"lng":1.131854},{"id":151804,"name":"La Molsosa","lat":41.7803369,"lng":1.5305465},{"id":151827,"name":"La Pobla de Cérvoles","lat":41.3669665,"lng":0.9155523},{"id":151829,"name":"La Pobla de Segur","lat":42.2477193,"lng":0.9675847},{"id":151831,"name":"La Portella","lat":41.7395861,"lng":0.6399627},{"id":151746,"name":"La Sentiu de Sió","lat":41.8051712,"lng":0.8788352},{"id":151853,"name":"La Seu d'Urgell","lat":42.3575784,"lng":1.4555525},{"id":151866,"name":"La Torre de Cabdella","lat":42.4487836,"lng":0.9629523},{"id":151751,"name":"La Vall de Boí","lat":42.5282162,"lng":0.8484524},{"id":151889,"name":"La Vansa i Fórnols","lat":42.2461755,"lng":1.5015009},{"id":35034,"name":"Les","lat":42.81076,"lng":0.7105},{"id":151747,"name":"Les Avellanes i Santa Linya","lat":41.9366402,"lng":0.810357},{"id":151762,"name":"Les Borges Blanques","lat":41.5223705,"lng":0.8735607},{"id":151815,"name":"Les Oluges","lat":41.6972928,"lng":1.3199536},{"id":151886,"name":"Les Valls d'Aguilar","lat":42.2888095,"lng":1.2313618},{"id":151870,"name":"Les Valls de Valira","lat":42.4042042,"lng":1.4628042},{"id":35056,"name":"Linyola","lat":41.7,"lng":0.91667},{"id":151794,"name":"Lladorre","lat":42.6810417,"lng":1.2698475},{"id":151795,"name":"Lladurs","lat":42.0443899,"lng":1.5066874},{"id":151796,"name":"Llardecans","lat":41.3742112,"lng":0.5500109},{"id":151797,"name":"Llavorsí","lat":42.495852,"lng":1.2100295},{"id":35074,"name":"Lleida","lat":41.61674,"lng":0.62218},{"id":35078,"name":"Lles de Cerdanya","lat":42.39025,"lng":1.68692},{"id":35079,"name":"Llimiana","lat":42.07476,"lng":0.91621},{"id":151798,"name":"Llobera","lat":41.9497629,"lng":1.472324},{"id":151802,"name":"Maials","lat":41.3637747,"lng":0.5033397},{"id":151799,"name":"Maldà","lat":41.5503729,"lng":1.0386088},{"id":151800,"name":"Massalcoreig","lat":41.4569554,"lng":0.3595372},{"id":151801,"name":"Massoteres","lat":41.7973476,"lng":1.310175},{"id":151803,"name":"Menàrguens","lat":41.7279365,"lng":0.7424595},{"id":35444,"name":"Miralcamp","lat":41.60516,"lng":0.87987},{"id":35486,"name":"Mollerussa","lat":41.63333,"lng":0.9},{"id":151806,"name":"Montellà i Martinet","lat":42.3542129,"lng":1.7045499},{"id":151807,"name":"Montferrer i Castellbò","lat":42.3662806,"lng":1.3469247},{"id":151805,"name":"Montgai","lat":41.7997352,"lng":0.9607869},{"id":151809,"name":"Montoliu de Lleida","lat":41.5609907,"lng":0.5884523},{"id":151808,"name":"Montoliu de Segarra","lat":41.5901296,"lng":1.2707499},{"id":151810,"name":"Montornès de Segarra","lat":41.6011643,"lng":1.2310613},{"id":151811,"name":"Nalec","lat":41.5602211,"lng":1.1155172},{"id":151741,"name":"Naut Aran","lat":42.7428241,"lng":0.9438468},{"id":151812,"name":"Navès","lat":42.0470275,"lng":1.6178011},{"id":151813,"name":"Odèn","lat":42.1327713,"lng":1.4547922},{"id":35880,"name":"Oliana","lat":42.06895,"lng":1.31353},{"id":151814,"name":"Oliola","lat":41.8761283,"lng":1.1745998},{"id":35883,"name":"Olius","lat":42.01035,"lng":1.5646},{"id":151816,"name":"Omellons Els","lat":41.5016625,"lng":0.9599665},{"id":151817,"name":"Omells de na Gaia Els","lat":41.5006395,"lng":1.0759758},{"id":151818,"name":"Organyà","lat":42.211946,"lng":1.3278062},{"id":35968,"name":"Os de Balaguer","lat":41.87314,"lng":0.72017},{"id":35974,"name":"Ossó de Sió","lat":41.75485,"lng":1.159},{"id":151822,"name":"Penelles","lat":41.7572239,"lng":0.9659384},{"id":151823,"name":"Peramola","lat":42.0618588,"lng":1.2728243},{"id":151824,"name":"Pinell de Solsonès","lat":41.9707994,"lng":1.4001478},{"id":151825,"name":"Pinós","lat":41.8272543,"lng":1.5418977},{"id":151891,"name":"Plans de Sió Els","lat":41.7444247,"lng":1.2025207},{"id":36275,"name":"Ponts","lat":41.91607,"lng":1.18515},{"id":151832,"name":"Prats i Sansor","lat":42.3644228,"lng":1.83671},{"id":151833,"name":"Preixana","lat":41.607738,"lng":1.0382669},{"id":151834,"name":"Preixens","lat":41.7939095,"lng":1.0505472},{"id":151835,"name":"Prullans","lat":42.378856,"lng":1.738673},{"id":151836,"name":"Puiggròs","lat":41.5628676,"lng":0.8818151},{"id":151837,"name":"Puigverd d'Agramunt","lat":41.7769591,"lng":1.1215116},{"id":151838,"name":"Puigverd de Lleida","lat":41.5433639,"lng":0.7329377},{"id":151839,"name":"Rialp","lat":42.4429196,"lng":1.1347024},{"id":151885,"name":"Ribera d'Ondara","lat":41.6235887,"lng":1.3180042},{"id":151840,"name":"Ribera d'Urgellet","lat":42.2865854,"lng":1.4241426},{"id":151841,"name":"Riner","lat":41.9413535,"lng":1.5637763},{"id":151893,"name":"Riu de Cerdanya","lat":42.3451094,"lng":1.8259132},{"id":151842,"name":"Rosselló","lat":41.6938394,"lng":0.5949571},{"id":151843,"name":"Salàs de Pallars","lat":42.2130504,"lng":0.9316119},{"id":151844,"name":"Sanaüja","lat":41.875609,"lng":1.3095351},{"id":151848,"name":"Sant Esteve de la Sarga","lat":42.0797879,"lng":0.764211},{"id":151845,"name":"Sant Guim de Freixenet","lat":41.6560285,"lng":1.4205199},{"id":151849,"name":"Sant Guim de la Plana","lat":41.7626828,"lng":1.3243289},{"id":151846,"name":"Sant Llorenç de Morunys","lat":42.1358217,"lng":1.5880904},{"id":151882,"name":"Sant Martí de Riucorb","lat":41.5662864,"lng":1.0681918},{"id":151847,"name":"Sant Ramon","lat":41.7258237,"lng":1.364407},{"id":151851,"name":"Sarroca de Bellera","lat":42.3600301,"lng":0.8809211},{"id":151850,"name":"Sarroca de Lleida","lat":41.4592812,"lng":0.5606525},{"id":151852,"name":"Senterada","lat":42.3243687,"lng":0.9365927},{"id":37227,"name":"Seròs","lat":41.46667,"lng":0.41667},{"id":37242,"name":"Sidamon","lat":41.63333,"lng":0.83333},{"id":37285,"name":"Solsona","lat":41.99395,"lng":1.51706},{"id":151855,"name":"Soriguera","lat":42.3704086,"lng":1.181053},{"id":37304,"name":"Sort","lat":42.41319,"lng":1.13045},{"id":37308,"name":"Soses","lat":41.53333,"lng":0.48333},{"id":151856,"name":"Sudanell","lat":41.5561031,"lng":0.5671571},{"id":151857,"name":"Sunyer","lat":41.5235105,"lng":0.5908192},{"id":151858,"name":"Talarn","lat":42.1861584,"lng":0.8999973},{"id":151859,"name":"Talavera","lat":41.5818876,"lng":1.3375836},{"id":37661,"name":"Tàrrega","lat":41.64704,"lng":1.13957},{"id":151860,"name":"Tarrés","lat":41.422673,"lng":1.0194254},{"id":151861,"name":"Tarroja de Segarra","lat":41.731501,"lng":1.2761649},{"id":37665,"name":"Térmens","lat":41.71667,"lng":0.76667},{"id":151862,"name":"Tírvia","lat":42.5197977,"lng":1.2361706},{"id":37432,"name":"Tiurana","lat":41.97527,"lng":1.25608},{"id":151863,"name":"Torà","lat":41.81054,"lng":1.4036179},{"id":151864,"name":"Torms Els","lat":41.3942541,"lng":0.7203205},{"id":37472,"name":"Tornabous","lat":41.70117,"lng":1.05384},{"id":151869,"name":"Torre-serona","lat":41.6717741,"lng":0.6293675},{"id":151865,"name":"Torrebesses","lat":41.4265847,"lng":0.5937779},{"id":37531,"name":"Torrefarrera","lat":41.67318,"lng":0.60671},{"id":151887,"name":"Torrefeta i Florejacs","lat":41.7637122,"lng":1.2602228},{"id":151867,"name":"Torregrossa","lat":41.5803917,"lng":0.8292647},{"id":151868,"name":"Torrelameu","lat":41.7043576,"lng":0.7039987},{"id":37576,"name":"Torres de Segre","lat":41.53399,"lng":0.5142},{"id":37628,"name":"Tremp","lat":42.16703,"lng":0.89487},{"id":151881,"name":"Vall de Cardós","lat":42.5624409,"lng":1.2260973},{"id":37840,"name":"Vallbona de les Monges","lat":41.52631,"lng":1.08872},{"id":37858,"name":"Vallfogona de Balaguer","lat":41.75211,"lng":0.81385},{"id":37950,"name":"Verdú","lat":41.61057,"lng":1.14284},{"id":151871,"name":"Vielha e Mijaran","lat":42.7245643,"lng":0.7722974},{"id":151878,"name":"Vila-sana","lat":41.6633202,"lng":0.9282789},{"id":151872,"name":"Vilagrassa","lat":41.64888,"lng":1.105928},{"id":151873,"name":"Vilaller","lat":42.4769739,"lng":0.7170556},{"id":151874,"name":"Vilamòs","lat":42.7476961,"lng":0.7263609},{"id":37995,"name":"Vilanova de Bellpuig","lat":41.61379,"lng":0.96432},{"id":151880,"name":"Vilanova de la Barca","lat":41.6898845,"lng":0.7283354},{"id":151875,"name":"Vilanova de lAguda","lat":41.9100546,"lng":1.2521036},{"id":151876,"name":"Vilanova de Meià","lat":41.9938401,"lng":1.0197244},{"id":151877,"name":"Vilanova de Segrià","lat":41.7123804,"lng":0.6167922},{"id":38389,"name":"Vinaixa","lat":41.43333,"lng":0.98333}]