[{"id":31941,"name":"Adsubia","lat":38.84819,"lng":-0.15324},{"id":31947,"name":"Agost","lat":38.44003,"lng":-0.63836},{"id":31949,"name":"Agres","lat":38.78333,"lng":-0.51667},{"id":152154,"name":"Aigües","lat":38.5159556,"lng":-0.3654204},{"id":32032,"name":"Albatera","lat":38.17902,"lng":-0.87059},{"id":32067,"name":"Alcalalí","lat":38.75038,"lng":-0.04013},{"id":32099,"name":"Alcocer de Planes","lat":38.79501,"lng":-0.40244},{"id":152155,"name":"Alcoleja","lat":38.6751226,"lng":-0.3316038},{"id":152156,"name":"Alcoy/Alcoi","lat":38.6987066,"lng":-0.4810937},{"id":32190,"name":"Alfafara","lat":38.77339,"lng":-0.55551},{"id":152157,"name":"Alfàs del Pi l","lat":38.578552,"lng":-0.099664},{"id":32226,"name":"Algorfa","lat":38.08636,"lng":-0.79646},{"id":32230,"name":"Algueña","lat":38.33905,"lng":-1.00433},{"id":152158,"name":"Alicante/Alacant","lat":38.3457685,"lng":-0.4909444},{"id":32306,"name":"Almoradí","lat":38.10879,"lng":-0.79197},{"id":32310,"name":"Almudaina","lat":38.75999,"lng":-0.35149},{"id":152159,"name":"Alqueria d'Asnar l","lat":38.7733431,"lng":-0.4260691},{"id":32340,"name":"Altea","lat":38.59885,"lng":-0.05139},{"id":32537,"name":"Aspe","lat":38.34511,"lng":-0.76721},{"id":32626,"name":"Balones","lat":38.73726,"lng":-0.34324},{"id":152160,"name":"Banyeres de Mariola","lat":38.7153272,"lng":-0.6595184},{"id":32776,"name":"Benasau","lat":38.69047,"lng":-0.34278},{"id":32785,"name":"Beneixama","lat":38.7,"lng":-0.76667},{"id":32787,"name":"Benejúzar","lat":38.07728,"lng":-0.83942},{"id":32789,"name":"Benferri","lat":38.14129,"lng":-0.96212},{"id":32790,"name":"Beniarbeig","lat":38.82232,"lng":-0.0021},{"id":32791,"name":"Beniardá","lat":38.68433,"lng":-0.21629},{"id":32793,"name":"Beniarrés","lat":38.82019,"lng":-0.37741},{"id":32798,"name":"Benidoleig","lat":38.79278,"lng":-0.02992},{"id":32799,"name":"Benidorm","lat":38.53816,"lng":-0.13098},{"id":32804,"name":"Benifallim","lat":38.66259,"lng":-0.39994},{"id":152162,"name":"Benifato","lat":38.6734023,"lng":-0.2288633},{"id":152161,"name":"Benigembla","lat":38.7549275,"lng":-0.1087987},{"id":32807,"name":"Benijofar","lat":38.07785,"lng":-0.7368},{"id":32808,"name":"Benilloba","lat":38.70012,"lng":-0.38998},{"id":32809,"name":"Benillup","lat":38.75397,"lng":-0.37991},{"id":32810,"name":"Benimantell","lat":38.67709,"lng":-0.21057},{"id":32811,"name":"Benimarfull","lat":38.7759,"lng":-0.39079},{"id":32812,"name":"Benimassot","lat":38.75,"lng":-0.28333},{"id":32813,"name":"Benimeli","lat":38.82362,"lng":-0.04221},{"id":32819,"name":"Benissa","lat":38.71492,"lng":0.04849},{"id":32885,"name":"Biar","lat":38.63117,"lng":-0.76458},{"id":32892,"name":"Bigastro","lat":38.06237,"lng":-0.89841},{"id":32941,"name":"Bolulla","lat":38.67529,"lng":-0.11184},{"id":33035,"name":"Busot","lat":38.48206,"lng":-0.41918},{"id":152164,"name":"Callosa d'En Sarrià","lat":38.6507684,"lng":-0.1216181},{"id":33146,"name":"Callosa de Segura","lat":38.12497,"lng":-0.87822},{"id":33151,"name":"Calp","lat":38.6447,"lng":0.0445},{"id":152167,"name":"Cañada","lat":38.6867794,"lng":-0.8246386},{"id":33396,"name":"Castalla","lat":38.59694,"lng":-0.67207},{"id":33411,"name":"Castell de Castells","lat":38.72555,"lng":-0.19242},{"id":33516,"name":"Catral","lat":38.16061,"lng":-0.80209},{"id":33716,"name":"Cocentaina","lat":38.73975,"lng":-0.43976},{"id":33757,"name":"Confrides","lat":38.68451,"lng":-0.2689},{"id":33829,"name":"Cox","lat":38.14164,"lng":-0.88736},{"id":152168,"name":"Crevillent","lat":38.2446844,"lng":-0.8113636},{"id":33915,"name":"Daya Nueva","lat":38.11313,"lng":-0.76028},{"id":33916,"name":"Daya Vieja","lat":38.1048,"lng":-0.73804},{"id":33926,"name":"Denia","lat":38.84078,"lng":0.10574},{"id":33936,"name":"Dolores","lat":38.14002,"lng":-0.77088},{"id":152163,"name":"El Benitachell/Poble Nou de Benitatxell","lat":38.7313014,"lng":0.1435672},{"id":152165,"name":"El Campello","lat":38.4289804,"lng":-0.397816},{"id":152166,"name":"El Campo de Mirra/Camp de Mirra","lat":38.6877471,"lng":-0.7788363},{"id":152173,"name":"El Castell de Guadalest","lat":38.6769639,"lng":-0.1983236},{"id":152187,"name":"El Ràfol d'Almúnia","lat":38.8204311,"lng":-0.0528992},{"id":152198,"name":"El Verger","lat":38.8466878,"lng":-0.004663},{"id":152170,"name":"Elche/Elx","lat":38.2691827,"lng":-0.7114243},{"id":34033,"name":"Elda","lat":38.47783,"lng":-0.79157},{"id":34156,"name":"Facheca","lat":38.73501,"lng":-0.26766},{"id":34160,"name":"Famorca","lat":38.73101,"lng":-0.24726},{"id":34189,"name":"Finestrat","lat":38.56737,"lng":-0.21235},{"id":152174,"name":"Fondó de les Neus el/Hondón de las Nieves","lat":38.3083971,"lng":-0.8525868},{"id":152171,"name":"Formentera del Segura","lat":38.0852505,"lng":-0.7455581},{"id":152172,"name":"Gaianes","lat":38.8126395,"lng":-0.4095728},{"id":34435,"name":"Gata de Gorgos","lat":38.77443,"lng":0.08538},{"id":34487,"name":"Gorga","lat":38.71896,"lng":-0.35589},{"id":34501,"name":"Granja de Rocamora","lat":38.15157,"lng":-0.8917},{"id":34535,"name":"Guardamar del Segura","lat":38.09031,"lng":-0.65556},{"id":34635,"name":"Hondón de los Frailes","lat":38.2739,"lng":-0.92938},{"id":34727,"name":"Ibi","lat":38.62533,"lng":-0.57225},{"id":34788,"name":"Jacarilla","lat":38.06247,"lng":-0.86822},{"id":152176,"name":"Jávea/Xàbia","lat":38.7889132,"lng":0.1660573},{"id":152177,"name":"Jijona/Xixona","lat":38.5469467,"lng":-0.5068824},{"id":152182,"name":"La Nucia","lat":38.6057121,"lng":-0.1261013},{"id":152188,"name":"La Romana","lat":38.3671462,"lng":-0.8973142},{"id":152193,"name":"La Torremanzanas/Torre de les Maçanes","lat":38.6079809,"lng":-0.4198822},{"id":152194,"name":"La Vall d'Alcalà","lat":38.3638381,"lng":-0.4805924},{"id":152195,"name":"La Vall d'Ebo","lat":38.8053856,"lng":-0.1593958},{"id":152197,"name":"La Vall de Laguar","lat":38.7733843,"lng":-0.1354586},{"id":152199,"name":"La Villajoyosa/Vila Joiosa","lat":38.5124744,"lng":-0.232687},{"id":152179,"name":"Llíber","lat":38.7427091,"lng":0.0064118},{"id":152178,"name":"Lorcha/Orxa l","lat":38.8443159,"lng":-0.3107403},{"id":35433,"name":"Millena","lat":38.73082,"lng":-0.36274},{"id":35516,"name":"Monforte del Cid","lat":38.38027,"lng":-0.7285},{"id":152180,"name":"Monóvar/Monòver","lat":38.4182514,"lng":-0.9247501},{"id":152201,"name":"Montesinos Los","lat":38.0277269,"lng":-0.744964},{"id":35680,"name":"Murla","lat":38.76037,"lng":-0.08208},{"id":152181,"name":"Muro de Alcoy","lat":38.7805406,"lng":-0.4372114},{"id":35691,"name":"Mutxamel","lat":38.4158,"lng":-0.44529},{"id":35828,"name":"Novelda","lat":38.38479,"lng":-0.76773},{"id":35923,"name":"Ondara","lat":38.82817,"lng":0.0172},{"id":35925,"name":"Onil","lat":38.62606,"lng":-0.67313},{"id":35932,"name":"Orba","lat":38.78041,"lng":-0.06278},{"id":35950,"name":"Orihuela","lat":38.08483,"lng":-0.94401},{"id":152183,"name":"Orxeta","lat":38.5628423,"lng":-0.262591},{"id":36062,"name":"Parcent","lat":38.74502,"lng":-0.06446},{"id":36095,"name":"Pedreguer","lat":38.79312,"lng":0.03411},{"id":36115,"name":"Pego","lat":38.84305,"lng":-0.11707},{"id":152184,"name":"Penàguila","lat":38.6797065,"lng":-0.3595393},{"id":152185,"name":"Petrer","lat":38.4807948,"lng":-0.7719244},{"id":36187,"name":"Pilar de la Horadada","lat":37.86591,"lng":-0.79256},{"id":152186,"name":"Pinós el/Pinoso","lat":38.4035164,"lng":-1.0411107},{"id":36234,"name":"Planes","lat":38.78524,"lng":-0.34271},{"id":152200,"name":"Poblets els","lat":38.854788,"lng":0.0172741},{"id":36264,"name":"Polop","lat":38.62258,"lng":-0.1309},{"id":152169,"name":"Quatretondeta","lat":38.7236278,"lng":-0.3163224},{"id":36539,"name":"Rafal","lat":38.10458,"lng":-0.84904},{"id":36562,"name":"Redován","lat":38.11619,"lng":-0.90981},{"id":36571,"name":"Relleu","lat":38.58725,"lng":-0.31157},{"id":36665,"name":"Rojales","lat":38.08799,"lng":-0.72544},{"id":36737,"name":"Sagra","lat":38.81102,"lng":-0.06559},{"id":36763,"name":"Salinas","lat":38.52025,"lng":-0.91202},{"id":152189,"name":"San Fulgencio","lat":38.1119997,"lng":-0.7192428},{"id":36839,"name":"San Isidro","lat":28.07617,"lng":-16.558},{"id":36883,"name":"San Miguel de Salinas","lat":37.97972,"lng":-0.78904},{"id":152191,"name":"San Vicente del Raspeig/Sant Vicent del Raspeig","lat":38.3984212,"lng":-0.5233507},{"id":36942,"name":"Sanet y Negrals","lat":38.81967,"lng":-0.03406},{"id":152190,"name":"Sant Joan d'Alacant","lat":38.401717,"lng":-0.4356604},{"id":37098,"name":"Santa Pola","lat":38.19165,"lng":-0.5658},{"id":37181,"name":"Sax","lat":38.53729,"lng":-0.81779},{"id":37203,"name":"Sella","lat":38.60926,"lng":-0.27305},{"id":37210,"name":"Senija","lat":38.72804,"lng":0.04176},{"id":152192,"name":"Tàrbena","lat":38.6939973,"lng":-0.1020902},{"id":37418,"name":"Teulada","lat":38.7294,"lng":0.10383},{"id":37420,"name":"Tibi","lat":38.53072,"lng":-0.57776},{"id":37444,"name":"Tollos","lat":38.75629,"lng":-0.27466},{"id":37470,"name":"Tormos","lat":38.80143,"lng":-0.0716},{"id":37584,"name":"Torrevieja","lat":37.97872,"lng":-0.68222},{"id":152196,"name":"Vall de Gallinera","lat":38.8307706,"lng":-0.2338473},{"id":38369,"name":"Villena","lat":38.6373,"lng":-0.86568},{"id":152175,"name":"Xaló","lat":38.7406537,"lng":-0.0110143}]