[{"id":152370,"name":"Aín","lat":39.9001543,"lng":-0.3410107},{"id":32047,"name":"Albocàsser","lat":40.35,"lng":0.03333},{"id":32068,"name":"Alcalà de Xivert","lat":40.3,"lng":0.23333},{"id":152371,"name":"Alcora l","lat":40.0746462,"lng":-0.2139151},{"id":32131,"name":"Alcudia de Veo","lat":39.91667,"lng":-0.35},{"id":32203,"name":"Alfondeguilla","lat":39.83333,"lng":-0.26667},{"id":32221,"name":"Algimia de Almonacid","lat":39.91667,"lng":-0.43333},{"id":152372,"name":"Almazora/Almassora","lat":39.9452757,"lng":-0.0606637},{"id":32278,"name":"Almedíjar","lat":39.86667,"lng":-0.4},{"id":32282,"name":"Almenara","lat":39.75,"lng":-0.21667},{"id":32333,"name":"Alquerías del Niño Perdido","lat":39.89466,"lng":-0.12943},{"id":32342,"name":"Altura","lat":39.85,"lng":-0.51667},{"id":32420,"name":"Arañuel","lat":40.06667,"lng":-0.48333},{"id":152373,"name":"Ares del Maestrat","lat":40.4563558,"lng":-0.1317823},{"id":32469,"name":"Argelita","lat":40.05,"lng":-0.35},{"id":32520,"name":"Artana","lat":39.89104,"lng":-0.25758},{"id":152369,"name":"Atzeneta del Maestrat","lat":40.2163493,"lng":-0.1708686},{"id":32579,"name":"Ayódar","lat":40.0,"lng":-0.36667},{"id":32593,"name":"Azuébar","lat":39.83333,"lng":-0.36667},{"id":32667,"name":"Barracas","lat":40.01667,"lng":-0.68333},{"id":152374,"name":"Bejís","lat":39.9098511,"lng":-0.7069702},{"id":152375,"name":"Benafer","lat":39.9355133,"lng":-0.5772118},{"id":32759,"name":"Benafigos","lat":40.27641,"lng":-0.20772},{"id":152376,"name":"Benasal","lat":40.3797068,"lng":-0.141951},{"id":32795,"name":"Benicarló","lat":40.4165,"lng":0.42709},{"id":152377,"name":"Benicasim/Benicàssim","lat":40.0553841,"lng":0.0640455},{"id":32825,"name":"Benlloch","lat":40.21075,"lng":0.02717},{"id":32882,"name":"Betxí","lat":39.93333,"lng":-0.2},{"id":152378,"name":"Borriana/Burriana","lat":39.8895925,"lng":-0.084834},{"id":32962,"name":"Borriol","lat":40.04249,"lng":-0.07025},{"id":33067,"name":"Cabanes","lat":40.156,"lng":0.04325},{"id":33889,"name":"Càlig","lat":40.46262,"lng":0.35521},{"id":33235,"name":"Canet lo Roig","lat":40.55142,"lng":0.24308},{"id":33410,"name":"Castell de Cabres","lat":40.66058,"lng":0.04217},{"id":33428,"name":"Castellfort","lat":40.50208,"lng":-0.19133},{"id":33430,"name":"Castellnovo","lat":39.86667,"lng":-0.45},{"id":152379,"name":"Castellón de la Plana/Castelló de la Plana","lat":40.0017505,"lng":-0.0559939},{"id":33465,"name":"Castillo de Villamalefa","lat":40.13333,"lng":-0.38333},{"id":33517,"name":"Catí","lat":40.47156,"lng":0.02275},{"id":152380,"name":"Caudiel","lat":39.9484008,"lng":-0.5677485},{"id":33601,"name":"Cervera del Maestre","lat":40.45366,"lng":0.27659},{"id":33628,"name":"Chert/Xert","lat":40.51944,"lng":0.15831},{"id":152382,"name":"Chilches/Xilxes","lat":39.780565,"lng":-0.1822792},{"id":152383,"name":"Chodos/Xodos","lat":40.2449792,"lng":-0.2869518},{"id":33654,"name":"Chóvar","lat":39.85,"lng":-0.31667},{"id":33678,"name":"Cinctorres","lat":40.58333,"lng":-0.21667},{"id":33681,"name":"Cirat","lat":40.05,"lng":-0.45},{"id":33809,"name":"Cortes de Arenoso","lat":40.18812,"lng":-0.54195},{"id":33822,"name":"Costur","lat":40.11971,"lng":-0.17385},{"id":33880,"name":"Culla","lat":40.3365,"lng":-0.16569},{"id":152400,"name":"El Toro","lat":39.9821084,"lng":-0.7494427},{"id":34100,"name":"Eslida","lat":39.88333,"lng":-0.3},{"id":34103,"name":"Espadilla","lat":40.03333,"lng":-0.35},{"id":34161,"name":"Fanzara","lat":40.01667,"lng":-0.31667},{"id":34185,"name":"Figueroles","lat":40.11667,"lng":-0.23333},{"id":34220,"name":"Forcall","lat":40.64542,"lng":-0.19992},{"id":34305,"name":"Fuente la Reina","lat":40.06667,"lng":-0.6},{"id":34339,"name":"Fuentes de Ayódar","lat":40.03333,"lng":-0.41667},{"id":34370,"name":"Gaibiel","lat":39.93333,"lng":-0.48333},{"id":34445,"name":"Geldo","lat":39.83333,"lng":-0.46667},{"id":34579,"name":"Herbés","lat":40.721,"lng":-0.00441},{"id":34615,"name":"Higueras","lat":39.98333,"lng":-0.5},{"id":34837,"name":"Jérica","lat":39.91667,"lng":-0.56667},{"id":152384,"name":"La Jana","lat":40.5118045,"lng":0.2520297},{"id":152385,"name":"La Llosa","lat":39.7702163,"lng":-0.2103988},{"id":152386,"name":"La Mata de Morella","lat":39.9855905,"lng":-0.0496388},{"id":152389,"name":"La Pobla de Benifassà","lat":40.6564686,"lng":0.1568135},{"id":152390,"name":"La Pobla Tornesa","lat":40.099944,"lng":0.000595},{"id":152392,"name":"La Salzadella","lat":40.4209838,"lng":0.1401381},{"id":152401,"name":"La Torre d'En Besora","lat":40.3267683,"lng":-0.0793244},{"id":152402,"name":"La Torre den Doménec","lat":40.2705393,"lng":0.0723408},{"id":152406,"name":"La Vall d'Uixó","lat":39.8242386,"lng":-0.2315018},{"id":152411,"name":"La Vilavella","lat":39.8588423,"lng":-0.1844892},{"id":152381,"name":"Les Coves de Vinromà","lat":40.3292059,"lng":0.1307797},{"id":152403,"name":"Les Useras/Useres","lat":40.1585889,"lng":-0.1676417},{"id":35151,"name":"Lucena del Cid","lat":40.13333,"lng":-0.28333},{"id":35155,"name":"Ludiente","lat":40.08333,"lng":-0.36667},{"id":35341,"name":"Matet","lat":39.93333,"lng":-0.46667},{"id":35502,"name":"Moncofa","lat":39.80907,"lng":-0.14701},{"id":35587,"name":"Montán","lat":40.03333,"lng":-0.55},{"id":35536,"name":"Montanejos","lat":40.06667,"lng":-0.51667},{"id":35624,"name":"Morella","lat":40.61966,"lng":-0.09892},{"id":35738,"name":"Navajas","lat":39.88333,"lng":-0.5},{"id":35837,"name":"Nules","lat":39.85362,"lng":-0.15643},{"id":35909,"name":"Olocau del Rey","lat":40.63775,"lng":-0.34041},{"id":35922,"name":"Onda","lat":39.96495,"lng":-0.26041},{"id":152387,"name":"Oropesa del Mar/Orpesa","lat":40.1144658,"lng":0.1401381},{"id":36016,"name":"Palanques","lat":40.718,"lng":-0.17941},{"id":36084,"name":"Pavías","lat":39.96667,"lng":-0.48333},{"id":152388,"name":"Peníscola/Peñíscola","lat":40.3668829,"lng":0.3913172},{"id":36191,"name":"Pina de Montalgrao","lat":40.01667,"lng":-0.65},{"id":36288,"name":"Portell de Morella","lat":40.53267,"lng":-0.26249},{"id":36412,"name":"Puebla de Arenoso","lat":40.1,"lng":-0.58333},{"id":36618,"name":"Ribesalbes","lat":40.01667,"lng":-0.26667},{"id":152391,"name":"Rossell","lat":40.6141193,"lng":0.2432307},{"id":36726,"name":"Sacañet","lat":39.86667,"lng":-0.71667},{"id":152395,"name":"San Rafael del Río","lat":40.6061087,"lng":0.3470531},{"id":152412,"name":"Sant Joan de Moró","lat":40.0593823,"lng":-0.1389682},{"id":152393,"name":"Sant Jordi/San Jorge","lat":40.5095107,"lng":0.3321829},{"id":152394,"name":"Sant Mateu","lat":40.4654987,"lng":0.1787657},{"id":37063,"name":"Santa Magdalena de Pulpis","lat":40.35625,"lng":0.30258},{"id":37166,"name":"Sarratella","lat":40.31284,"lng":0.0315},{"id":37191,"name":"Segorbe","lat":39.85,"lng":-0.48333},{"id":152396,"name":"Sierra Engarcerán","lat":40.2694151,"lng":-0.0191338},{"id":37293,"name":"Soneja","lat":39.81667,"lng":-0.41667},{"id":37310,"name":"Sot de Ferrer","lat":39.8,"lng":-0.4},{"id":152397,"name":"Sueras/Suera","lat":39.9528406,"lng":-0.3327795},{"id":37361,"name":"Tales","lat":39.94844,"lng":-0.30719},{"id":152398,"name":"Teresa","lat":39.8919645,"lng":-0.6725609},{"id":152399,"name":"Tírig","lat":40.4229533,"lng":0.0775967},{"id":37440,"name":"Todolella","lat":40.64675,"lng":-0.24675},{"id":37441,"name":"Toga","lat":40.05,"lng":-0.36667},{"id":37601,"name":"Torás","lat":39.91667,"lng":-0.68333},{"id":37485,"name":"Torralba del Pinar","lat":39.98333,"lng":-0.43333},{"id":37510,"name":"Torreblanca","lat":40.22033,"lng":0.1965},{"id":37514,"name":"Torrechiva","lat":40.05,"lng":-0.4},{"id":37615,"name":"Traiguera","lat":40.52511,"lng":0.29023},{"id":152405,"name":"Vall d'Alba","lat":40.1746959,"lng":-0.0361533},{"id":37833,"name":"Vall de Almonacid","lat":39.9,"lng":-0.45},{"id":152404,"name":"Vallat","lat":40.0371984,"lng":-0.3324856},{"id":37860,"name":"Vallibona","lat":40.603,"lng":0.04642},{"id":37972,"name":"Vila-real","lat":39.9383,"lng":-0.10087},{"id":152407,"name":"Vilafamés","lat":40.1138985,"lng":-0.0519082},{"id":152409,"name":"Vilanova d'Alcolea","lat":40.2315585,"lng":0.0727328},{"id":152410,"name":"Vilar de Canes","lat":40.3582789,"lng":-0.0662099},{"id":152408,"name":"Villafranca del Cid/Vilafranca","lat":40.4297868,"lng":-0.2576419},{"id":38084,"name":"Villahermosa del Río","lat":40.20268,"lng":-0.4199},{"id":38128,"name":"Villamalur","lat":39.96667,"lng":-0.4},{"id":38195,"name":"Villanueva de Viver","lat":40.05,"lng":-0.65},{"id":38373,"name":"Villores","lat":40.67478,"lng":-0.20023},{"id":38391,"name":"Vinaròs","lat":40.47033,"lng":0.47559},{"id":38400,"name":"Vistabella del Maestrazgo","lat":40.29617,"lng":-0.29435},{"id":38405,"name":"Viver","lat":39.91667,"lng":-0.6},{"id":38498,"name":"Zorita del Maestrazgo","lat":40.72817,"lng":-0.16667},{"id":38503,"name":"Zucaina","lat":40.11667,"lng":-0.41667}]