[{"id":31931,"name":"Adeje","lat":28.12271,"lng":-16.726},{"id":31969,"name":"Agulo","lat":28.18778,"lng":-17.19678},{"id":31993,"name":"Alajeró","lat":28.06205,"lng":-17.24073},{"id":32400,"name":"Arafo","lat":28.33971,"lng":-16.42244},{"id":152448,"name":"Arico","lat":28.4667186,"lng":-16.2797173},{"id":32497,"name":"Arona","lat":28.09962,"lng":-16.68102},{"id":32666,"name":"Barlovento","lat":28.82708,"lng":-17.80377},{"id":32980,"name":"Breña Alta","lat":28.65,"lng":-17.78333},{"id":32981,"name":"Breña Baja","lat":28.63011,"lng":-17.78953},{"id":33005,"name":"Buenavista del Norte","lat":28.37458,"lng":-16.86098},{"id":33226,"name":"Candelaria","lat":28.3548,"lng":-16.37268},{"id":152454,"name":"El Paso","lat":28.6517656,"lng":-17.8799902},{"id":152465,"name":"El Pinar de El Hierro","lat":27.6930974,"lng":-18.0124469},{"id":152456,"name":"El Rosario","lat":28.4636296,"lng":-16.2518467},{"id":152458,"name":"El Sauzal","lat":28.4794147,"lng":-16.4365399},{"id":152460,"name":"El Tanque","lat":28.3570248,"lng":-16.7802309},{"id":34167,"name":"Fasnia","lat":28.23638,"lng":-16.43886},{"id":34268,"name":"Frontera","lat":27.75404,"lng":-18.00367},{"id":34276,"name":"Fuencaliente de la Palma","lat":28.49236,"lng":-17.84529},{"id":34405,"name":"Garachico","lat":28.37365,"lng":-16.76342},{"id":34406,"name":"Garafía","lat":28.81667,"lng":-17.93333},{"id":34498,"name":"Granadilla de Abona","lat":28.11882,"lng":-16.57599},{"id":34557,"name":"Guía de Isora","lat":28.21154,"lng":-16.77947},{"id":34569,"name":"Güimar","lat":28.31122,"lng":-16.41276},{"id":34586,"name":"Hermigua","lat":28.16766,"lng":-17.19051},{"id":34732,"name":"Icod de los Vinos","lat":28.37241,"lng":-16.71188},{"id":152449,"name":"La Guancha","lat":28.4674191,"lng":-16.2801611},{"id":152452,"name":"La Matanza de Acentejo","lat":28.4481483,"lng":-16.4579661},{"id":152453,"name":"La Orotava","lat":28.3890004,"lng":-16.5238802},{"id":152463,"name":"La Victoria de Acentejo","lat":28.4340344,"lng":-16.4709368},{"id":152451,"name":"Llanos de Aridane Los","lat":28.6183515,"lng":-17.8998566},{"id":36454,"name":"Puerto de la Cruz","lat":28.41397,"lng":-16.54867},{"id":36472,"name":"Puntagorda","lat":28.7749,"lng":-17.97741},{"id":36473,"name":"Puntallana","lat":28.73333,"lng":-17.73333},{"id":152455,"name":"Realejos Los","lat":28.3852127,"lng":-16.5841046},{"id":152457,"name":"San Andrés y Sauces","lat":28.7842218,"lng":-17.7991545},{"id":152450,"name":"San Cristóbal de La Laguna","lat":28.4874009,"lng":-16.3159061},{"id":36848,"name":"San Juan de la Rambla","lat":28.39276,"lng":-16.65015},{"id":36879,"name":"San Miguel De Abona","lat":28.09826,"lng":-16.61708},{"id":36920,"name":"San Sebastián de la Gomera","lat":28.09163,"lng":-17.11331},{"id":37038,"name":"Santa Cruz de la Palma","lat":28.68351,"lng":-17.76421},{"id":37036,"name":"Santa Cruz de Tenerife","lat":28.46824,"lng":-16.25462},{"id":37102,"name":"Santa Úrsula","lat":28.42613,"lng":-16.48876},{"id":37119,"name":"Santiago del Teide","lat":28.294,"lng":-16.81618},{"id":152459,"name":"Silos Los","lat":28.3662614,"lng":-16.8179185},{"id":37347,"name":"Tacoronte","lat":28.47688,"lng":-16.41016},{"id":37389,"name":"Tazacorte","lat":28.64186,"lng":-17.93394},{"id":37391,"name":"Tegueste","lat":28.51667,"lng":-16.31667},{"id":37425,"name":"Tijarafe","lat":28.7,"lng":-17.95},{"id":152461,"name":"Valle Gran Rey","lat":28.0849625,"lng":-17.3338839},{"id":152462,"name":"Vallehermoso","lat":28.1801991,"lng":-17.2659008},{"id":37881,"name":"Valverde","lat":27.80628,"lng":-17.91578},{"id":37982,"name":"Vilaflor","lat":28.15623,"lng":-16.63592},{"id":152464,"name":"Villa de Mazo","lat":28.6220712,"lng":-17.7806753}]