[{"id":153970,"name":"ad-Dhahiriya","lat":31.4096725,"lng":34.9549083},{"id":153980,"name":"as-Samu","lat":31.3986445,"lng":35.0446883},{"id":153971,"name":"Bani Na'im","lat":31.5149005,"lng":35.1447403},{"id":153972,"name":"Beit 'Awwa","lat":31.5067524,"lng":34.9295613},{"id":153973,"name":"Beit Ula","lat":31.5984564,"lng":35.0057753},{"id":153974,"name":"Beit Ummar","lat":31.6228464,"lng":35.0815993},{"id":153975,"name":"Deir Sammit","lat":31.5199634,"lng":34.9520713},{"id":153966,"name":"Dura","lat":31.5051274,"lng":35.0069273},{"id":153967,"name":"Halhul","lat":31.5799242,"lng":35.0793045},{"id":153968,"name":"Hebron","lat":31.5326035,"lng":35.0792263},{"id":153976,"name":"Idhna","lat":31.5572864,"lng":34.9586433},{"id":153977,"name":"Kharas","lat":31.6122524,"lng":35.0236513},{"id":153978,"name":"Nuba","lat":31.6138208,"lng":35.005792},{"id":153979,"name":"Sa'ir","lat":31.5824895,"lng":35.1231763},{"id":153981,"name":"Surif","lat":31.6495864,"lng":35.0441123},{"id":153983,"name":"Taffuh","lat":31.5384825,"lng":35.0303733},{"id":153982,"name":"Tarqumiya","lat":31.5773644,"lng":34.9935743},{"id":153969,"name":"Yatta","lat":31.4441845,"lng":35.0695053}]