[{"id":154012,"name":"Abasan al-Kabira","lat":31.3231605,"lng":34.3234253},{"id":154015,"name":"Abasan al-Saghira","lat":31.3397435,"lng":34.3260333},{"id":154017,"name":"Al-Qarara","lat":31.3713465,"lng":34.3146603},{"id":154013,"name":"Bani Suheila","lat":31.3421385,"lng":34.3046543},{"id":154014,"name":"Khan Yunis","lat":31.3462351,"lng":34.2833989},{"id":154016,"name":"Khuzaʽa","lat":31.3070566,"lng":34.3394473}]