[{"id":52157,"name":"Apam","lat":5.28483,"lng":-0.73711},{"id":52168,"name":"Cape Coast","lat":5.10535,"lng":-1.2466},{"id":52171,"name":"Dunkwa","lat":5.95996,"lng":-1.77792},{"id":52173,"name":"Elmina","lat":5.0847,"lng":-1.35093},{"id":52174,"name":"Foso","lat":5.70119,"lng":-1.28657},{"id":52179,"name":"Kasoa","lat":5.53449,"lng":-0.41679},{"id":52192,"name":"Mumford","lat":5.26176,"lng":-0.75897},{"id":52199,"name":"Saltpond","lat":5.20913,"lng":-1.06058},{"id":52205,"name":"Swedru","lat":5.53711,"lng":-0.69984},{"id":52215,"name":"Winneba","lat":5.35113,"lng":-0.62313}]