[{"id":153634,"name":"Bourail","lat":-21.5701,"lng":165.4804},{"id":153632,"name":"Dumbéa","lat":-22.15,"lng":166.45},{"id":153631,"name":"Le Mont-Dore","lat":-22.2157,"lng":166.4665},{"id":153630,"name":"Nouméa","lat":-22.2758,"lng":166.458},{"id":153633,"name":"Païta","lat":-22.1337,"lng":166.3505}]