[{"id":56395,"name":"Deiyai","lat":-3.94737,"lng":135.95032},{"id":56399,"name":"Dogiyai","lat":-4.03186,"lng":135.43945},{"id":56427,"name":"Intan Jaya","lat":-3.41016,"lng":136.70837},{"id":56551,"name":"Kabupaten Nabire","lat":-3.54016,"lng":135.55511},{"id":56535,"name":"Mimika","lat":-4.54357,"lng":136.56555},{"id":56882,"name":"Nabire","lat":-3.35989,"lng":135.50074},{"id":56577,"name":"Paniai","lat":-3.9,"lng":136.6},{"id":56604,"name":"Puncak","lat":-3.67241,"lng":137.43896},{"id":153774,"name":"Puncak Jaya","lat":-3.5106944,"lng":137.86611111}]