[{"id":154133,"name":"Cueillette de Grantez","lat":49.2312397,"lng":-2.2233903},{"id":154136,"name":"Cueillette de Léoville","lat":49.2380324,"lng":-2.2263487},{"id":154134,"name":"Cueillette de Millais","lat":49.2408537,"lng":-2.2433042},{"id":154135,"name":"Cueillette de Vinchelez","lat":49.244478,"lng":-2.2390543},{"id":154132,"name":"Grande Cueillette","lat":49.22331,"lng":-2.2160988},{"id":154131,"name":"Petite Cueillette","lat":49.2245677,"lng":-2.1965655}]