[{"id":160181,"name":"Dubova (Driloni)","lat":42.71194,"lng":20.36972},{"id":160182,"name":"Istok","lat":42.78083,"lng":20.4875},{"id":160183,"name":"Klina","lat":42.62167,"lng":20.57778},{"id":160184,"name":"Kosuriq","lat":42.57028,"lng":20.46472},{"id":160185,"name":"Pejë","lat":42.65913,"lng":20.28828}]