[{"id":161629,"name":"Caloocan","lat":14.65288,"lng":120.9698},{"id":161630,"name":"Las Piñas","lat":14.4497,"lng":120.9831},{"id":161631,"name":"Makati","lat":14.5549,"lng":121.014},{"id":161632,"name":"Mandaluyong","lat":14.5797,"lng":121.0407},{"id":161633,"name":"Manila","lat":14.5995,"lng":120.9842},{"id":161634,"name":"Marikina","lat":14.6504,"lng":121.1031},{"id":161635,"name":"Muntinlupa","lat":14.4079,"lng":121.0414},{"id":161636,"name":"Parañaque","lat":14.4791,"lng":121.0198},{"id":161637,"name":"Pasig","lat":14.5865,"lng":121.0605},{"id":161638,"name":"Pateros","lat":14.545,"lng":121.0667},{"id":161639,"name":"Quezon City","lat":14.676,"lng":121.0437},{"id":161640,"name":"Taguig","lat":14.5243,"lng":121.0796},{"id":161641,"name":"Valenzuela","lat":14.7,"lng":120.9833}]