[{"id":154867,"name":"Raivavae","lat":-23.8694633,"lng":-147.7324472},{"id":154868,"name":"Rapa","lat":-27.6082239,"lng":-144.3842777},{"id":154869,"name":"Rimatara","lat":-22.6438254,"lng":-152.8312052},{"id":154870,"name":"Rurutu","lat":-22.4695869,"lng":-151.3911371},{"id":154871,"name":"Tubuai","lat":-23.3685043,"lng":-149.5449648}]