[{"id":154885,"name":"Anaa","lat":-17.4119439,"lng":-145.6628499},{"id":154886,"name":"Arutua","lat":-15.3120334,"lng":-146.9126285},{"id":154887,"name":"Fakarava","lat":-16.2984516,"lng":-145.9221889},{"id":154888,"name":"Fangatau","lat":-15.8209788,"lng":-140.908106},{"id":154889,"name":"Gambier","lat":-23.1008844,"lng":-135.0792255},{"id":154890,"name":"Hao","lat":-18.7453293,"lng":-145.3338385},{"id":154891,"name":"Hikueru","lat":-17.5876748,"lng":-142.6912059},{"id":154892,"name":"Makemo","lat":-16.5933442,"lng":-144.0175628},{"id":154893,"name":"Manihi","lat":-14.3975781,"lng":-146.1221707},{"id":154894,"name":"Napuka","lat":-14.1734231,"lng":-141.3067669},{"id":154895,"name":"Nukutavake","lat":-18.9780866,"lng":-139.2928452},{"id":154896,"name":"Puka-Puka","lat":-14.8190251,"lng":-138.8610087},{"id":154897,"name":"Rangiroa","lat":-15.1228292,"lng":-147.9114015},{"id":154898,"name":"Reao","lat":-18.519465,"lng":-136.460885},{"id":154899,"name":"Takaroa","lat":-14.6726394,"lng":-145.2268041},{"id":154900,"name":"Tatakoto","lat":-17.3417316,"lng":-138.4758463},{"id":154901,"name":"Tureia","lat":-20.8280318,"lng":-138.581639}]