[{"id":154902,"name":"Arue","lat":-17.2773894,"lng":-149.8719943},{"id":154903,"name":"Faaa","lat":-17.5839194,"lng":-149.6460926},{"id":154904,"name":"Hitiaa O Te Ra","lat":-17.5914258,"lng":-149.4732481},{"id":154905,"name":"Mahina","lat":-17.5574742,"lng":-149.5164782},{"id":154906,"name":"Moorea-Maiao","lat":-17.5756653,"lng":-150.8618877},{"id":154907,"name":"Paea","lat":-17.6961698,"lng":-149.5896966},{"id":154908,"name":"Papara","lat":-17.7118763,"lng":-149.5904295},{"id":154909,"name":"Papeete","lat":-17.5571387,"lng":-149.5966009},{"id":154910,"name":"Pirae","lat":-17.5698638,"lng":-149.563528},{"id":154911,"name":"Punaauia","lat":-17.6179696,"lng":-149.6310224},{"id":154912,"name":"Taiarapu-Est","lat":-17.7555128,"lng":-149.3953396},{"id":154913,"name":"Taiarapu-Ouest","lat":-17.8100452,"lng":-149.3270052},{"id":154914,"name":"Teva I Uta","lat":-17.7225008,"lng":-149.4819615}]