[{"id":154920,"name":"Ituʻau","lat":-14.3061643,"lng":-170.8069144},{"id":154921,"name":"Maʻoputasi","lat":-14.2521685,"lng":-170.7418767},{"id":154924,"name":"Saʻole","lat":-14.299957,"lng":-170.6176337},{"id":154923,"name":"Sua","lat":-14.2771088,"lng":-170.7144263},{"id":154922,"name":"Vaifanua","lat":-14.2557804,"lng":-170.7630181}]