[{"id":154948,"name":"Baie-Mahault","lat":16.2497607,"lng":-61.6775072},{"id":154949,"name":"Baillif","lat":16.0497331,"lng":-61.7570591},{"id":154950,"name":"Basse-Terre","lat":15.9991631,"lng":-61.749981},{"id":154951,"name":"Bouillante","lat":16.1386937,"lng":-61.7989897},{"id":154952,"name":"Capesterre-Belle-Eau","lat":16.0485402,"lng":-61.7021045},{"id":154953,"name":"Deshaies","lat":16.3193605,"lng":-61.8242578},{"id":154954,"name":"Gourbeyre","lat":16.0056595,"lng":-61.7302387},{"id":154955,"name":"Goyave","lat":16.1231077,"lng":-61.6974021},{"id":154956,"name":"Lamentin","lat":16.2443132,"lng":-61.7519194},{"id":154957,"name":"Petit-Bourg","lat":16.1694881,"lng":-61.7404331},{"id":154958,"name":"Pointe-Noire","lat":16.2270277,"lng":-61.8063122},{"id":154959,"name":"Saint-Claude","lat":16.0405744,"lng":-61.7364873},{"id":154960,"name":"Sainte-Rose","lat":16.2937252,"lng":-61.7659576},{"id":154961,"name":"Terre-de-Bas","lat":15.8554196,"lng":-61.653292},{"id":154962,"name":"Terre-de-Haut","lat":15.8580376,"lng":-61.6096098},{"id":154963,"name":"Trois-Rivières","lat":15.9931362,"lng":-61.6905296},{"id":154964,"name":"Vieux-Fort","lat":15.9607038,"lng":-61.7135177},{"id":154965,"name":"Vieux-Habitants","lat":16.0846618,"lng":-61.7993923}]