[{"id":8069,"name":"Ceyranbatan","lat":40.54194,"lng":49.66073},{"id":8073,"name":"Digah","lat":40.49257,"lng":49.87477},{"id":8085,"name":"Gyuzdek","lat":40.37444,"lng":49.68194},{"id":8099,"name":"Khirdalan","lat":40.44808,"lng":49.75502},{"id":8148,"name":"Qobu","lat":40.40472,"lng":49.71306},{"id":8169,"name":"Saray","lat":40.53299,"lng":49.71681}]