[{"id":160292,"name":"Combani","lat":-12.8,"lng":45.16667},{"id":160290,"name":"Kaouéni","lat":-12.77121,"lng":45.22419},{"id":160289,"name":"Kavani","lat":-12.78447,"lng":45.22299},{"id":160291,"name":"Majikavo Lamir","lat":-12.75572,"lng":45.22968},{"id":160293,"name":"Mamoudzou","lat":-12.78234,"lng":45.22878},{"id":160288,"name":"Mtsapéré","lat":-12.78636,"lng":45.21732},{"id":160294,"name":"Passamainty","lat":-12.80201,"lng":45.20818},{"id":160287,"name":"Tsoundzou 1","lat":-12.80615,"lng":45.2023},{"id":160286,"name":"Tsoundzou 2","lat":-12.81845,"lng":45.1972},{"id":160285,"name":"Vahibé","lat":-12.79024,"lng":45.17707}]