[{"id":160299,"name":"Dembeni","lat":-12.8436,"lng":45.18436},{"id":160295,"name":"Hajangoua","lat":-12.86607,"lng":45.19857},{"id":160296,"name":"Iloni","lat":-12.84553,"lng":45.19037},{"id":160297,"name":"Ongojou","lat":-12.83883,"lng":45.16012},{"id":160298,"name":"Tsararano","lat":-12.83528,"lng":45.17355}]