[{"id":155014,"name":"Bras-Panon","lat":-21.0315816,"lng":55.5441634},{"id":155015,"name":"La Plaine-des-Palmistes","lat":-21.1529507,"lng":55.5618014},{"id":155016,"name":"Saint-André","lat":-20.9567727,"lng":55.5548674},{"id":155017,"name":"Saint-Benoît","lat":-21.0885946,"lng":55.4664076},{"id":155018,"name":"Sainte-Rose","lat":-21.1778289,"lng":55.6593981},{"id":155019,"name":"Salazie","lat":-21.0524097,"lng":55.4321337}]