[{"id":157060,"name":"Chaki Wardak","lat":34.29,"lng":68.58},{"id":157064,"name":"Day Mirdad","lat":34.5,"lng":69.0},{"id":157065,"name":"Hisa-i-Awali Bihsud","lat":34.65,"lng":68.18},{"id":157067,"name":"Jaghatu","lat":34.08,"lng":68.45},{"id":157061,"name":"Jalrez","lat":34.52,"lng":68.78},{"id":157059,"name":"Maidan Shahr","lat":34.38,"lng":68.54},{"id":157066,"name":"Markaz-i-Bihsud","lat":34.55,"lng":67.8},{"id":157062,"name":"Nerkh","lat":34.49,"lng":68.51},{"id":157063,"name":"Sayed Abad","lat":34.0,"lng":68.63}]