[{"id":157070,"name":"Bibala","lat":-14.9333,"lng":13.6833},{"id":157072,"name":"Camucuio","lat":-15.45,"lng":12.8833},{"id":157068,"name":"Namibe","lat":-15.1967,"lng":12.1522},{"id":157069,"name":"Tombua","lat":-15.7833,"lng":11.8667},{"id":157071,"name":"Virei","lat":-14.4667,"lng":13.2667}]