[{"id":135168,"name":"Breiðdalshreppur","lat":64.83333,"lng":-14.25},{"id":135172,"name":"Egilsstaðir","lat":65.26687,"lng":-14.39485},{"id":135173,"name":"Eskifjörður","lat":65.07306,"lng":-14.01525},{"id":135177,"name":"Fjarðabyggð","lat":65.08333,"lng":-14.0},{"id":135203,"name":"Neskaupstaður","lat":65.14819,"lng":-13.68368},{"id":135207,"name":"Reyðarfjörður","lat":65.03164,"lng":-14.21832}]