[{"id":160102,"name":"Barranco","lat":-12.1454,"lng":-77.0207},{"id":160106,"name":"Jesús María","lat":-12.0729,"lng":-77.0416},{"id":160103,"name":"La Molina","lat":-12.0807,"lng":-76.9351},{"id":160108,"name":"Lince","lat":-12.0821,"lng":-77.0303},{"id":160107,"name":"Magdalena del Mar","lat":-12.0916,"lng":-77.0732},{"id":160101,"name":"Miraflores","lat":-12.1194,"lng":-77.0282},{"id":160105,"name":"Pueblo Libre","lat":-12.0757,"lng":-77.0634},{"id":160104,"name":"San Borja","lat":-12.1015,"lng":-76.9967},{"id":80945,"name":"San Isidro","lat":-12.0956,"lng":-77.0349},{"id":80967,"name":"Santiago de Surco","lat":-12.1478,"lng":-76.9937}]