[{"id":156,"name":"Bashkia Devoll","lat":40.60078,"lng":20.93814},{"id":166,"name":"Bashkia Kolonjë","lat":40.3142,"lng":20.61482},{"id":173,"name":"Bashkia Maliq","lat":40.75508,"lng":20.60748},{"id":192,"name":"Bilisht","lat":40.6275,"lng":20.99},{"id":157050,"name":"Devoll","lat":40.589983,"lng":20.7481313},{"id":199,"name":"Ersekë","lat":40.33778,"lng":20.67889},{"id":157054,"name":"Kolonjë","lat":40.2830545,"lng":20.4564726},{"id":212,"name":"Korçë","lat":40.61861,"lng":20.78083},{"id":223,"name":"Leskovik","lat":40.15139,"lng":20.59722},{"id":226,"name":"Libonik","lat":40.70444,"lng":20.70861},{"id":228,"name":"Maliq","lat":40.70583,"lng":20.69972},{"id":230,"name":"Mborje","lat":40.60333,"lng":20.80306},{"id":237,"name":"Pogradec","lat":40.9025,"lng":20.6525},{"id":182,"name":"Pustec","lat":40.83591,"lng":20.89405},{"id":245,"name":"Rrethi i Devollit","lat":40.58333,"lng":20.91667},{"id":249,"name":"Rrethi i Kolonjës","lat":40.25,"lng":20.66667},{"id":275,"name":"Velçan","lat":40.95472,"lng":20.46222},{"id":278,"name":"Voskopojë","lat":40.63306,"lng":20.58889}]