[{"id":67491,"name":"Nerašte","lat":42.10711,"lng":21.1081},{"id":67500,"name":"Orashac","lat":42.0625,"lng":21.79972},{"id":67511,"name":"Pršovce","lat":42.08336,"lng":21.05994},{"id":67527,"name":"Slatino","lat":42.06784,"lng":21.03902},{"id":67542,"name":"Tearce","lat":42.07666,"lng":21.0531}]