[{"id":67415,"name":"Dobrošte","lat":42.10333,"lng":21.07778},{"id":67425,"name":"Džepčište","lat":42.03287,"lng":20.99817},{"id":67429,"name":"Golema Rečica","lat":41.98803,"lng":20.94517},{"id":67505,"name":"Pirok","lat":41.91083,"lng":20.91056},{"id":67508,"name":"Poroj","lat":42.02913,"lng":20.99266},{"id":67524,"name":"Selce","lat":42.03482,"lng":20.94035},{"id":67570,"name":"Šipkovica","lat":42.035,"lng":20.91556},{"id":67543,"name":"Tetovo","lat":42.00973,"lng":20.97155}]