[{"id":67440,"name":"Ilinden","lat":41.99451,"lng":21.58002},{"id":67446,"name":"Kadino","lat":41.96889,"lng":21.60139},{"id":67478,"name":"Marino","lat":41.98776,"lng":21.59148},{"id":67482,"name":"Miladinovci","lat":41.98029,"lng":21.64982},{"id":67575,"name":"Идризово","lat":41.96083,"lng":21.57556},{"id":67573,"name":"Јурумлери","lat":41.96722,"lng":21.55694}]