[{"id":76675,"name":"Agadez","lat":16.97333,"lng":7.99111},{"id":76677,"name":"Alaghsas","lat":17.0187,"lng":8.0168},{"id":76678,"name":"Arlit","lat":18.83409,"lng":7.43327},{"id":76681,"name":"Bilma","lat":18.68532,"lng":12.91643},{"id":76690,"name":"Département de Bilma","lat":20.5,"lng":13.25},{"id":76711,"name":"Département de Tchirozérine","lat":17.43293,"lng":7.89321}]