[{"id":54392,"name":"Belica","lat":46.40417,"lng":16.51833},{"id":55015,"name":"Čakovec","lat":46.38444,"lng":16.43389},{"id":54451,"name":"Dekanovec","lat":46.44861,"lng":16.58472},{"id":54455,"name":"Domašinec","lat":46.4325,"lng":16.6},{"id":54493,"name":"Goričan","lat":46.38417,"lng":16.68083},{"id":54570,"name":"Grad Čakovec","lat":46.38583,"lng":16.43333},{"id":54595,"name":"Hodošan","lat":46.39528,"lng":16.64389},{"id":54606,"name":"Ivanovec","lat":46.36833,"lng":16.47667},{"id":54663,"name":"Kotoriba","lat":46.355,"lng":16.81806},{"id":54675,"name":"Kuršanec","lat":46.33028,"lng":16.40167},{"id":54697,"name":"Lopatinec","lat":46.43333,"lng":16.38333},{"id":54726,"name":"Mačkovec","lat":46.42417,"lng":16.43361},{"id":54711,"name":"Mala Subotica","lat":46.37616,"lng":16.52893},{"id":54730,"name":"Mihovljan","lat":46.40861,"lng":16.44806},{"id":54744,"name":"Mursko Središće","lat":46.50944,"lng":16.44111},{"id":54749,"name":"Nedelišće","lat":46.37583,"lng":16.3875},{"id":54764,"name":"Novo Selo Rok","lat":46.42839,"lng":16.46215},{"id":54788,"name":"Orehovica","lat":46.33167,"lng":16.50694},{"id":54801,"name":"Peklenica","lat":46.49528,"lng":16.47611},{"id":54818,"name":"Podturen","lat":46.46472,"lng":16.54306},{"id":54834,"name":"Prelog","lat":46.335,"lng":16.61556},{"id":54836,"name":"Pribislavec","lat":46.3925,"lng":16.4825},{"id":55029,"name":"Šenkovec","lat":46.40889,"lng":16.42167},{"id":54915,"name":"Strahoninec","lat":46.36889,"lng":16.415},{"id":54929,"name":"Sveti Juraj na Bregu","lat":46.42853,"lng":16.38525},{"id":54988,"name":"Vratišinec","lat":46.47806,"lng":16.45778}]