[{"id":54437,"name":"Cavtat","lat":42.58111,"lng":18.21806},{"id":55022,"name":"Čibača","lat":42.62889,"lng":18.17111},{"id":54471,"name":"Dubrovačko primorje","lat":42.78988,"lng":17.8624},{"id":54513,"name":"Grad Dubrovnik","lat":42.64861,"lng":18.09397},{"id":54525,"name":"Grad Korčula","lat":42.95693,"lng":17.13181},{"id":54544,"name":"Grad Ploče","lat":43.06667,"lng":17.43333},{"id":54653,"name":"Komin","lat":43.04083,"lng":17.53694},{"id":54656,"name":"Konavle","lat":42.5401,"lng":18.33944},{"id":54662,"name":"Korčula","lat":42.96038,"lng":17.13525},{"id":54684,"name":"Lastovo","lat":42.76757,"lng":16.89708},{"id":54704,"name":"Lumbarda","lat":42.92278,"lng":17.16722},{"id":54728,"name":"Metković","lat":43.05417,"lng":17.64833},{"id":54736,"name":"Mljet","lat":42.74439,"lng":17.53645},{"id":54737,"name":"Mokošica","lat":42.67556,"lng":18.09028},{"id":54785,"name":"Općina Lastovo","lat":42.75,"lng":16.9},{"id":54780,"name":"Opuzen","lat":43.01528,"lng":17.56556},{"id":54787,"name":"Orebić","lat":42.98556,"lng":17.17472},{"id":54813,"name":"Podgora","lat":42.84861,"lng":17.83639},{"id":54821,"name":"Pojezerje","lat":43.15741,"lng":17.45152},{"id":54898,"name":"Slivno","lat":42.95864,"lng":17.54431},{"id":54900,"name":"Smokvica","lat":42.93056,"lng":16.89639},{"id":54914,"name":"Ston","lat":42.83861,"lng":17.69639},{"id":54954,"name":"Vela Luka","lat":42.96333,"lng":16.7225},{"id":55007,"name":"Zažablje","lat":43.01113,"lng":17.65683},{"id":55041,"name":"Žrnovo","lat":42.95111,"lng":17.11417},{"id":55042,"name":"Župa dubrovačka","lat":42.62683,"lng":18.19475}]