[{"id":54396,"name":"Bestovje","lat":45.80833,"lng":15.81667},{"id":54401,"name":"Bistra","lat":45.90657,"lng":15.85087},{"id":54411,"name":"Brckovljani","lat":45.83333,"lng":16.3},{"id":54412,"name":"Brdovec","lat":45.86666,"lng":15.77102},{"id":54413,"name":"Bregana","lat":45.84013,"lng":15.68792},{"id":54419,"name":"Brezovica","lat":45.72919,"lng":15.91069},{"id":54438,"name":"Centar","lat":45.81313,"lng":15.97753},{"id":54456,"name":"Donja Bistra","lat":45.90778,"lng":15.85444},{"id":54457,"name":"Donja Lomnica","lat":45.71194,"lng":16.02694},{"id":54458,"name":"Donja Zdenčina","lat":45.66667,"lng":15.76667},{"id":54462,"name":"Donji Stupnik","lat":45.73971,"lng":15.85975},{"id":54470,"name":"Dubrava","lat":45.83361,"lng":16.06361},{"id":54478,"name":"Farkaševac","lat":45.87899,"lng":16.63467},{"id":54495,"name":"Gornja Bistra","lat":45.91667,"lng":15.9},{"id":54583,"name":"Gračec","lat":45.83333,"lng":16.31667},{"id":54514,"name":"Grad Dugo Selo","lat":45.809,"lng":16.24123},{"id":54522,"name":"Grad Jastrebarsko","lat":45.66667,"lng":15.66667},{"id":54547,"name":"Grad Samobor","lat":45.8,"lng":15.7},{"id":54554,"name":"Grad Sveti Ivan Zelina","lat":45.96667,"lng":16.25},{"id":54558,"name":"Grad Velika Gorica","lat":45.7,"lng":16.08333},{"id":54562,"name":"Grad Vrbovec","lat":45.86667,"lng":16.43333},{"id":54567,"name":"Grad Zaprešić","lat":45.86667,"lng":15.8},{"id":54575,"name":"Gradec","lat":45.91111,"lng":16.48278},{"id":54577,"name":"Gradići","lat":45.7,"lng":16.05},{"id":54579,"name":"Gradska četvrt Donji grad","lat":45.80834,"lng":15.96949},{"id":54580,"name":"Gradska četvrt Gornji Grad - Medvescak","lat":45.8282,"lng":15.97938},{"id":54581,"name":"Gradska četvrt Podsljeme","lat":45.86097,"lng":15.97996},{"id":54596,"name":"Horvati","lat":45.7,"lng":15.81667},{"id":54608,"name":"Jablanovec","lat":45.87583,"lng":15.85361},{"id":54611,"name":"Jakovlje","lat":45.93611,"lng":15.85559},{"id":54615,"name":"Jankomir","lat":45.79167,"lng":15.9},{"id":54618,"name":"Jastrebarsko","lat":45.66833,"lng":15.64861},{"id":54623,"name":"Ježdovec","lat":45.78333,"lng":15.85},{"id":54636,"name":"Kašina","lat":45.91134,"lng":16.12436},{"id":54645,"name":"Kerestinec","lat":45.7701,"lng":15.80864},{"id":54669,"name":"Križ","lat":45.665,"lng":16.52333},{"id":54679,"name":"Kuče","lat":45.67694,"lng":16.145},{"id":54695,"name":"Lonjica","lat":45.855,"lng":16.33},{"id":54707,"name":"Lučko","lat":45.76111,"lng":15.87028},{"id":54702,"name":"Luka","lat":45.95795,"lng":15.81954},{"id":54703,"name":"Lukavec","lat":45.70444,"lng":15.99},{"id":54705,"name":"Lupoglav","lat":45.79639,"lng":16.34639},{"id":54735,"name":"Mičevec","lat":45.75,"lng":16.06667},{"id":54741,"name":"Mraclin","lat":45.66667,"lng":16.09556},{"id":54760,"name":"Novi Zagreb","lat":45.78333,"lng":15.98333},{"id":54766,"name":"Novo Čiče","lat":45.7,"lng":16.11667},{"id":54767,"name":"Novoselec","lat":45.6525,"lng":16.53639},{"id":54771,"name":"Odra","lat":45.72979,"lng":15.9924},{"id":54781,"name":"Općina Dubrava","lat":45.83759,"lng":16.53683},{"id":54789,"name":"Orešje","lat":45.81618,"lng":15.80246},{"id":54820,"name":"Pojatno","lat":45.905,"lng":15.80056},{"id":54835,"name":"Preseka","lat":45.97456,"lng":16.38697},{"id":54838,"name":"Prigorje Brdovečko","lat":45.87944,"lng":15.73806},{"id":54848,"name":"Pušća","lat":45.91567,"lng":15.78049},{"id":54852,"name":"Rakitje","lat":45.79389,"lng":15.82222},{"id":54853,"name":"Rakov Potok","lat":45.73806,"lng":15.79722},{"id":54871,"name":"Rude","lat":45.76667,"lng":15.66667},{"id":54876,"name":"Samobor","lat":45.80306,"lng":15.71806},{"id":54885,"name":"Sesvete","lat":45.83333,"lng":16.13333},{"id":54912,"name":"Stenjevec","lat":45.80846,"lng":15.88245},{"id":54917,"name":"Strmec","lat":45.70843,"lng":15.91674},{"id":54919,"name":"Stupnik","lat":45.75314,"lng":15.84078},{"id":54926,"name":"Sveta Nedelja","lat":45.79617,"lng":15.77971},{"id":54927,"name":"Sveta Nedjelja","lat":45.79833,"lng":15.78056},{"id":54956,"name":"Velika Gorica","lat":45.7125,"lng":16.07556},{"id":54958,"name":"Velika Mlaka","lat":45.73639,"lng":16.03111},{"id":54959,"name":"Velika Ostrna","lat":45.78752,"lng":16.28139},{"id":54991,"name":"Vrbovec","lat":45.88333,"lng":16.42167},{"id":55003,"name":"Zadvorsko","lat":45.71978,"lng":15.9088},{"id":55004,"name":"Zagreb","lat":45.81444,"lng":15.97798},{"id":55006,"name":"Zaprešić","lat":45.85639,"lng":15.80778},{"id":55009,"name":"Zdenci Brdovečki","lat":45.86667,"lng":15.75}]