[{"id":54469,"name":"Drnje","lat":46.20694,"lng":16.91694},{"id":55024,"name":"Đelekovec","lat":46.24989,"lng":16.87011},{"id":55027,"name":"Đurđevac","lat":46.03972,"lng":17.07168},{"id":54481,"name":"Ferdinandovac","lat":46.05,"lng":17.2},{"id":54492,"name":"Gola","lat":46.19583,"lng":17.05806},{"id":54496,"name":"Gornja Rijeka","lat":46.10977,"lng":16.39079},{"id":54524,"name":"Grad Koprivnica","lat":46.16667,"lng":16.83333},{"id":54527,"name":"Grad Križevci","lat":46.03333,"lng":16.56667},{"id":54594,"name":"Hlebine","lat":46.15694,"lng":16.96278},{"id":54626,"name":"Kalinovac","lat":46.02944,"lng":17.11556},{"id":54659,"name":"Koprivnica","lat":46.16278,"lng":16.8275},{"id":54660,"name":"Koprivnički Ivanec","lat":46.19907,"lng":16.81629},{"id":54670,"name":"Križevci","lat":46.02194,"lng":16.5425},{"id":54685,"name":"Legrad","lat":46.2975,"lng":16.85667},{"id":54738,"name":"Molve","lat":46.10917,"lng":17.03167},{"id":54765,"name":"Novo Virje","lat":46.09834,"lng":17.15215},{"id":54803,"name":"Peteranec","lat":46.19222,"lng":16.89167},{"id":54854,"name":"Rasinja","lat":46.18389,"lng":16.70667},{"id":54857,"name":"Reka","lat":46.13028,"lng":16.76694},{"id":54888,"name":"Sigetec","lat":46.18833,"lng":16.93583},{"id":54972,"name":"Virje","lat":46.06722,"lng":16.99}]