[{"id":22103,"name":"Ágios Tomás","lat":34.71158,"lng":32.73129},{"id":22104,"name":"Ágios Týchon","lat":34.72606,"lng":33.13872},{"id":22028,"name":"Erími","lat":34.67766,"lng":32.91815},{"id":22031,"name":"Germasógeia","lat":34.72207,"lng":33.08254},{"id":22044,"name":"Kyperoúnta","lat":34.93815,"lng":32.97551},{"id":22053,"name":"Lemesós","lat":34.69218,"lng":33.02854},{"id":22055,"name":"Limassol","lat":34.68406,"lng":33.03794},{"id":22065,"name":"Mouttagiáka","lat":34.72022,"lng":33.10066},{"id":22082,"name":"Páchna","lat":34.77874,"lng":32.79355},{"id":22084,"name":"Páno Polemídia","lat":34.70559,"lng":32.99269},{"id":22073,"name":"Parekklisha","lat":34.74583,"lng":33.15833},{"id":22074,"name":"Peléndri","lat":34.89597,"lng":32.96817},{"id":22077,"name":"Pissoúri","lat":34.66942,"lng":32.70132},{"id":22081,"name":"Pyrgos","lat":34.74167,"lng":33.18333},{"id":22091,"name":"Sotíra","lat":34.71189,"lng":32.8634},{"id":22092,"name":"Soúni-Zanakiá","lat":34.7357,"lng":32.88437},{"id":22105,"name":"Ýpsonas","lat":34.68797,"lng":32.96191}]