[{"id":63215,"name":"Adachi Ku","lat":35.7788,"lng":139.79509},{"id":63231,"name":"Akiruno-shi","lat":35.73285,"lng":139.22525},{"id":63232,"name":"Akishima-shi","lat":35.70782,"lng":139.36418},{"id":63252,"name":"Arakawa Ku","lat":35.73993,"lng":139.7813},{"id":63289,"name":"Bunkyō-ku","lat":35.71745,"lng":139.74729},{"id":63311,"name":"Chiyoda-ku","lat":35.69402,"lng":139.75363},{"id":63312,"name":"Chōfu","lat":35.65924,"lng":139.54837},{"id":63313,"name":"Chōfu-shi","lat":35.65,"lng":139.55},{"id":63315,"name":"Chūō Ku","lat":35.66993,"lng":139.77705},{"id":63330,"name":"Edogawa Ku","lat":35.69242,"lng":139.87567},{"id":63336,"name":"Fuchū-shi","lat":35.66667,"lng":139.5},{"id":63380,"name":"Fussa","lat":35.73667,"lng":139.32361},{"id":63410,"name":"Hachiōji","lat":35.65583,"lng":139.32389},{"id":63429,"name":"Hamura-shi","lat":35.76351,"lng":139.31411},{"id":63458,"name":"Higashi-murayama-shi","lat":35.75529,"lng":139.46972},{"id":63461,"name":"Higashikurume-shi","lat":35.75821,"lng":139.52954},{"id":63465,"name":"Higashimurayama","lat":35.75459,"lng":139.46852},{"id":63468,"name":"Higashiyamato","lat":35.76298,"lng":139.44575},{"id":63469,"name":"Higashiyamato-shi","lat":35.75031,"lng":139.4266},{"id":63483,"name":"Hino","lat":35.67306,"lng":139.40028},{"id":63484,"name":"Hino-shi","lat":35.66333,"lng":139.39865},{"id":63569,"name":"Inagi-shi","lat":35.6329,"lng":139.49291},{"id":63605,"name":"Itabashi-ku","lat":35.75118,"lng":139.70927},{"id":63615,"name":"Itsukaichi","lat":35.72528,"lng":139.21778},{"id":63697,"name":"Kamirenjaku","lat":35.69423,"lng":139.55495},{"id":63758,"name":"Katsushika Ku","lat":35.75324,"lng":139.85567},{"id":63797,"name":"Kita-ku","lat":35.75264,"lng":139.73348},{"id":63815,"name":"Kiyose-shi","lat":35.78551,"lng":139.52628},{"id":63821,"name":"Kodaira-shi","lat":35.72738,"lng":139.48173},{"id":63827,"name":"Koganei-shi","lat":35.70108,"lng":139.51104},{"id":63830,"name":"Kokubunji","lat":35.70222,"lng":139.47556},{"id":63831,"name":"Kokubunji-shi","lat":35.70552,"lng":139.46125},{"id":63832,"name":"Komae-shi","lat":35.63487,"lng":139.57723},{"id":63903,"name":"Kōtō-ku","lat":35.66667,"lng":139.81667},{"id":63864,"name":"Kunitachi-shi","lat":35.68634,"lng":139.43878},{"id":63905,"name":"Machida","lat":35.54028,"lng":139.45083},{"id":63906,"name":"Machida-shi","lat":35.57626,"lng":139.42998},{"id":63943,"name":"Meguro-ku","lat":35.64146,"lng":139.69817},{"id":63974,"name":"Minato-ku","lat":35.65,"lng":139.73333},{"id":63988,"name":"Mitaka-shi","lat":35.68351,"lng":139.55963},{"id":64051,"name":"Musashimurayama-shi","lat":35.75037,"lng":139.38391},{"id":64052,"name":"Musashino","lat":35.70611,"lng":139.55944},{"id":64053,"name":"Musashino-shi","lat":35.71771,"lng":139.566},{"id":64087,"name":"Nakano-ku","lat":35.71091,"lng":139.66248},{"id":64122,"name":"Nerima-ku","lat":35.73551,"lng":139.65168},{"id":64146,"name":"Nishi-Tokyo-shi","lat":35.72526,"lng":139.5383},{"id":64155,"name":"Nishitōkyō-shi","lat":35.73485,"lng":139.54624},{"id":64738,"name":"Ōme","lat":35.78389,"lng":139.24306},{"id":64739,"name":"Ōme-shi","lat":35.78814,"lng":139.27501},{"id":64758,"name":"Ōta-ku","lat":35.56126,"lng":139.71605},{"id":64302,"name":"Setagaya-ku","lat":35.64657,"lng":139.65325},{"id":64316,"name":"Shibuya-ku","lat":35.66404,"lng":139.69821},{"id":64338,"name":"Shinagawa-ku","lat":35.60902,"lng":139.73017},{"id":64342,"name":"Shinjuku-ku","lat":35.69384,"lng":139.70355},{"id":64376,"name":"Suginami-ku","lat":35.69951,"lng":139.63641},{"id":64383,"name":"Sumida-ku","lat":35.71072,"lng":139.8015},{"id":64405,"name":"Tachikawa-shi","lat":35.71447,"lng":139.40453},{"id":64414,"name":"Taitō-ku","lat":35.71261,"lng":139.78},{"id":64455,"name":"Tama-shi","lat":35.63054,"lng":139.43976},{"id":64465,"name":"Tanashichō","lat":35.72922,"lng":139.53813},{"id":64500,"name":"Tokyo","lat":35.6895,"lng":139.69171},{"id":64517,"name":"Toshima-ku","lat":35.73246,"lng":139.7154},{"id":64597,"name":"Urayasu","lat":35.67056,"lng":139.88861}]