[{"id":63223,"name":"Aisai-shi","lat":35.17234,"lng":136.69478},{"id":63237,"name":"Ama-gun","lat":35.17174,"lng":136.82308},{"id":63246,"name":"Anjō-shi","lat":34.94341,"lng":137.07165},{"id":63305,"name":"Chiryū","lat":35.0,"lng":137.03333},{"id":63306,"name":"Chiryū-shi","lat":34.99862,"lng":137.05},{"id":63307,"name":"Chita","lat":35.00267,"lng":136.8642},{"id":63308,"name":"Chita-shi","lat":34.97048,"lng":136.8649},{"id":63382,"name":"Gamagōri","lat":34.83333,"lng":137.23333},{"id":63383,"name":"Gamagōri-shi","lat":34.82759,"lng":137.22752},{"id":63433,"name":"Handa","lat":34.88333,"lng":136.93333},{"id":63434,"name":"Handa-shi","lat":34.89903,"lng":136.9266},{"id":63453,"name":"Hekinan","lat":34.88333,"lng":136.98333},{"id":63454,"name":"Hekinan-shi","lat":34.87955,"lng":136.99155},{"id":63542,"name":"Ichinomiya","lat":35.3,"lng":136.8},{"id":63543,"name":"Ichinomiya-shi","lat":35.31037,"lng":136.79237},{"id":63573,"name":"Inazawa","lat":35.25,"lng":136.78333},{"id":63574,"name":"Inazawa-shi","lat":35.24814,"lng":136.77979},{"id":63576,"name":"Inuyama","lat":35.37995,"lng":136.94295},{"id":63577,"name":"Inuyama-shi","lat":35.36232,"lng":136.98072},{"id":63598,"name":"Ishiki","lat":34.8,"lng":137.01667},{"id":63624,"name":"Iwakura","lat":35.28333,"lng":136.86667},{"id":63625,"name":"Iwakura-shi","lat":35.27927,"lng":136.86885},{"id":63711,"name":"Kanie","lat":35.13333,"lng":136.8},{"id":63723,"name":"Kariya","lat":34.98333,"lng":136.98333},{"id":63725,"name":"Kariya-shi","lat":35.01098,"lng":137.00166},{"id":63745,"name":"Kasugai","lat":35.24762,"lng":136.97229},{"id":63746,"name":"Kasugai-shi","lat":35.24762,"lng":136.97226},{"id":63811,"name":"Kitanagoya","lat":35.24702,"lng":136.87832},{"id":63812,"name":"Kitanagoya-shi","lat":35.2464,"lng":136.87293},{"id":63816,"name":"Kiyosu-shi","lat":35.21325,"lng":136.84771},{"id":63835,"name":"Komaki","lat":35.28333,"lng":136.91667},{"id":63836,"name":"Komaki-shi","lat":35.29103,"lng":136.91196},{"id":63896,"name":"Kōnan","lat":35.33165,"lng":136.87042},{"id":63897,"name":"Kōnan-shi","lat":35.33137,"lng":136.87077},{"id":63850,"name":"Kozakai-chō","lat":34.8,"lng":137.35889},{"id":63875,"name":"Kuroda","lat":35.35,"lng":136.78333},{"id":64017,"name":"Miyoshi-shi","lat":35.0948,"lng":137.0887},{"id":64063,"name":"Nagakute-shi","lat":35.18335,"lng":137.04895},{"id":64078,"name":"Nagoya","lat":35.18147,"lng":136.90641},{"id":64152,"name":"Nishio","lat":34.86667,"lng":137.05},{"id":64153,"name":"Nishio-shi","lat":34.86223,"lng":137.05433},{"id":64158,"name":"Nisshin-shi","lat":35.13114,"lng":137.03934},{"id":64715,"name":"Ōbu","lat":35.01756,"lng":136.94947},{"id":64716,"name":"Ōbu-shi","lat":35.0192,"lng":136.95424},{"id":64197,"name":"Okazaki-shi","lat":34.95245,"lng":137.25783},{"id":64218,"name":"Owariasahi-shi","lat":35.21652,"lng":137.03542},{"id":64304,"name":"Seto","lat":35.23333,"lng":137.1},{"id":64305,"name":"Seto-shi","lat":35.2234,"lng":137.08414},{"id":64345,"name":"Shinshiro","lat":34.9,"lng":137.5},{"id":64346,"name":"Shinshiro-shi","lat":34.96073,"lng":137.5436},{"id":64372,"name":"Sobue","lat":35.25,"lng":136.71667},{"id":64410,"name":"Tahara","lat":34.66667,"lng":137.26667},{"id":64411,"name":"Tahara-shi","lat":34.6414,"lng":137.18314},{"id":64420,"name":"Takahama","lat":34.91667,"lng":136.98333},{"id":64421,"name":"Takahama-shi","lat":34.93337,"lng":136.9949},{"id":64450,"name":"Taketoyo","lat":34.85,"lng":136.91667},{"id":64568,"name":"Tōkai-shi","lat":35.02676,"lng":136.89846},{"id":64493,"name":"Tokoname","lat":34.88333,"lng":136.85},{"id":64494,"name":"Tokoname-shi","lat":34.88929,"lng":136.85299},{"id":64522,"name":"Toyoake","lat":35.038,"lng":136.99931},{"id":64523,"name":"Toyoake-shi","lat":35.06248,"lng":137.00887},{"id":64524,"name":"Toyohama","lat":34.70933,"lng":136.93425},{"id":64525,"name":"Toyohashi","lat":34.76667,"lng":137.38333},{"id":64526,"name":"Toyohashi-shi","lat":34.7405,"lng":137.40714},{"id":64527,"name":"Toyokawa","lat":34.81667,"lng":137.4},{"id":64528,"name":"Toyokawa-shi","lat":34.85032,"lng":137.36175},{"id":64534,"name":"Toyota-shi","lat":35.087,"lng":137.15},{"id":64560,"name":"Tsushima","lat":35.16667,"lng":136.71667},{"id":64562,"name":"Tsushima-shi","lat":35.17718,"lng":136.74168},{"id":64662,"name":"Yatomi-shi","lat":35.10938,"lng":136.72451}]