[{"id":63420,"name":"Hakui","lat":36.88333,"lng":136.78333},{"id":63421,"name":"Hakui Shi","lat":36.91136,"lng":136.81626},{"id":63422,"name":"Hakusan Shi","lat":36.27558,"lng":136.66966},{"id":63657,"name":"Kaga Shi","lat":36.25503,"lng":136.37963},{"id":63660,"name":"Kahoku Shi","lat":36.74365,"lng":136.73273},{"id":63706,"name":"Kanazawa","lat":36.6,"lng":136.61667},{"id":63707,"name":"Kanazawa-shi","lat":36.51919,"lng":136.70836},{"id":63837,"name":"Komatsu","lat":36.40263,"lng":136.45088},{"id":63938,"name":"Matsutō","lat":36.51667,"lng":136.56667},{"id":64099,"name":"Nanao Shi","lat":37.07844,"lng":136.9286},{"id":64165,"name":"Nomi Shi","lat":36.43593,"lng":136.54456},{"id":64166,"name":"Nonoichi","lat":36.53333,"lng":136.61667},{"id":64167,"name":"Nonoichi-shi","lat":36.52288,"lng":136.60589},{"id":64394,"name":"Suzu","lat":37.43459,"lng":137.26009},{"id":64395,"name":"Suzu Shi","lat":37.45533,"lng":137.22587},{"id":64539,"name":"Tsubata","lat":36.67012,"lng":136.7403},{"id":64556,"name":"Tsurugi-asahimachi","lat":36.45,"lng":136.63333},{"id":64615,"name":"Wajima Shi","lat":37.33753,"lng":136.88757}]