[{"id":63316,"name":"Chūō-shi","lat":35.58418,"lng":138.5411},{"id":63334,"name":"Enzan","lat":35.7,"lng":138.73333},{"id":63339,"name":"Fuefuki-shi","lat":35.59955,"lng":138.68067},{"id":63341,"name":"Fuji-yoshida Shi","lat":35.43915,"lng":138.79368},{"id":63344,"name":"Fujikawaguchiko","lat":35.48933,"lng":138.68832},{"id":63355,"name":"Fujiyoshida","lat":35.44032,"lng":138.79586},{"id":63517,"name":"Hokuto","lat":35.83458,"lng":138.39606},{"id":63518,"name":"Hokuto-shi","lat":35.83717,"lng":138.39375},{"id":63583,"name":"Isawa","lat":35.65,"lng":138.63333},{"id":63661,"name":"Kai-shi","lat":35.71627,"lng":138.51871},{"id":63893,"name":"Kōfu","lat":35.66667,"lng":138.56667},{"id":63894,"name":"Kōfu-shi","lat":35.69606,"lng":138.61261},{"id":63902,"name":"Kōshū-shi","lat":35.72649,"lng":138.79178},{"id":63961,"name":"Minami Alps-shi","lat":35.65065,"lng":138.35413},{"id":64143,"name":"Nirasaki","lat":35.7,"lng":138.45},{"id":64144,"name":"Nirasaki-shi","lat":35.71772,"lng":138.412},{"id":64766,"name":"Ōtsuki","lat":35.61851,"lng":138.97396},{"id":64767,"name":"Ōtsuki-shi","lat":35.64285,"lng":138.91993},{"id":64235,"name":"Ryūō","lat":35.65,"lng":138.5},{"id":64552,"name":"Tsuru-shi","lat":35.5366,"lng":138.91489},{"id":64582,"name":"Uenohara","lat":35.61667,"lng":139.11667},{"id":64583,"name":"Uenohara-shi","lat":35.65,"lng":139.05},{"id":64643,"name":"Yamanashi-shi","lat":35.79691,"lng":138.69743}]