[{"id":63328,"name":"Ebino-shi","lat":32.01667,"lng":130.8},{"id":63527,"name":"Hyūga-shi","lat":32.3771,"lng":131.52275},{"id":63818,"name":"Kobayashi","lat":31.98333,"lng":130.98333},{"id":63819,"name":"Kobayashi Shi","lat":32.04556,"lng":131.02762},{"id":63884,"name":"Kushima","lat":31.48621,"lng":131.2421},{"id":63885,"name":"Kushima Shi","lat":31.48571,"lng":131.26485},{"id":64003,"name":"Miyakonojō","lat":31.73333,"lng":131.06667},{"id":64004,"name":"Miyakonojō Shi","lat":31.8092,"lng":131.07904},{"id":64009,"name":"Miyazaki","lat":31.91667,"lng":131.41667},{"id":64010,"name":"Miyazaki-shi","lat":31.96192,"lng":131.38455},{"id":64125,"name":"Nichinan","lat":31.6,"lng":131.36667},{"id":64126,"name":"Nichinan Shi","lat":31.63737,"lng":131.33409},{"id":64159,"name":"Nobeoka","lat":32.58333,"lng":131.66667},{"id":64160,"name":"Nobeoka-shi","lat":32.67238,"lng":131.64311},{"id":64252,"name":"Saito-shi","lat":32.17288,"lng":131.31543},{"id":64429,"name":"Takanabe","lat":32.13333,"lng":131.5},{"id":64551,"name":"Tsuma","lat":32.1,"lng":131.4}]