[{"id":63332,"name":"Ena-shi","lat":35.44722,"lng":137.4181},{"id":63384,"name":"Gero","lat":35.8,"lng":137.23333},{"id":63385,"name":"Gero-shi","lat":35.75,"lng":137.25},{"id":63386,"name":"Gifu-shi","lat":35.44826,"lng":136.7647},{"id":63402,"name":"Gōdo","lat":35.41667,"lng":136.6},{"id":63398,"name":"Gujō","lat":35.73691,"lng":136.95852},{"id":63399,"name":"Gujō-shi","lat":35.83298,"lng":136.94561},{"id":63442,"name":"Hashima","lat":35.329,"lng":136.68051},{"id":63443,"name":"Hashima-shi","lat":35.3074,"lng":136.70161},{"id":63455,"name":"Hida","lat":36.24483,"lng":137.17323},{"id":63456,"name":"Hida Shi","lat":36.33272,"lng":137.20568},{"id":63664,"name":"Kaizu-shi","lat":35.21381,"lng":136.62443},{"id":63668,"name":"Kakamigahara-shi","lat":35.40283,"lng":136.87829},{"id":63710,"name":"Kani-shi","lat":35.40589,"lng":137.06602},{"id":63729,"name":"Kasamatsuchō","lat":35.36667,"lng":136.76667},{"id":63977,"name":"Mino","lat":35.53333,"lng":136.91667},{"id":63978,"name":"Mino-shi","lat":35.57892,"lng":136.9012},{"id":63979,"name":"Minokamo","lat":35.48199,"lng":137.02166},{"id":63980,"name":"Minokamo-shi","lat":35.48386,"lng":137.02658},{"id":63989,"name":"Mitake","lat":35.41667,"lng":137.13333},{"id":64018,"name":"Mizuho-shi","lat":35.39663,"lng":136.67022},{"id":64019,"name":"Mizunami","lat":35.36667,"lng":137.25},{"id":64020,"name":"Mizunami-shi","lat":35.38935,"lng":137.2736},{"id":64041,"name":"Motosu-shi","lat":35.65553,"lng":136.61991},{"id":64091,"name":"Nakatsugawa","lat":35.48333,"lng":137.5},{"id":64092,"name":"Nakatsugawa-shi","lat":35.56656,"lng":137.47433},{"id":64723,"name":"Ōgaki-shi","lat":35.36485,"lng":136.60189},{"id":64298,"name":"Seki-shi","lat":35.48333,"lng":136.91667},{"id":64415,"name":"Tajimi","lat":35.31667,"lng":137.13333},{"id":64416,"name":"Tajimi-shi","lat":35.33401,"lng":137.11258},{"id":64442,"name":"Takayama Shi","lat":36.13181,"lng":137.28585},{"id":64469,"name":"Tarui","lat":35.36667,"lng":136.53333},{"id":64491,"name":"Toki","lat":35.35,"lng":137.18333},{"id":64492,"name":"Toki-shi","lat":35.32418,"lng":137.20748},{"id":64640,"name":"Yamagata-shi","lat":35.59892,"lng":136.74311}]