[{"id":63562,"name":"Imari Shi","lat":33.30409,"lng":129.88598},{"id":63563,"name":"Imarichō-kō","lat":33.27362,"lng":129.87877},{"id":63717,"name":"Kanzaki Shi","lat":33.34446,"lng":130.35883},{"id":63721,"name":"Karatsu","lat":33.4425,"lng":129.96972},{"id":63722,"name":"Karatsu Shi","lat":33.41802,"lng":129.99775},{"id":63736,"name":"Kashima","lat":33.10611,"lng":130.09056},{"id":63737,"name":"Kashima Shi","lat":33.06203,"lng":130.09396},{"id":63999,"name":"Miyaki-gun","lat":33.35298,"lng":130.45711},{"id":64188,"name":"Ogi-shi","lat":33.26667,"lng":130.2},{"id":64239,"name":"Saga","lat":33.23333,"lng":130.3},{"id":64240,"name":"Saga Shi","lat":33.32558,"lng":130.2643},{"id":64447,"name":"Takeo Shi","lat":33.20413,"lng":129.99775},{"id":64448,"name":"Takeochō-takeo","lat":33.19009,"lng":130.02084},{"id":64454,"name":"Taku Shi","lat":33.27829,"lng":130.10523},{"id":64518,"name":"Tosu Shi","lat":33.37825,"lng":130.49001},{"id":64599,"name":"Ureshino Shi","lat":33.09558,"lng":130.01495}]