[{"id":63460,"name":"Higashikagawa Shi","lat":34.21158,"lng":134.3335},{"id":63718,"name":"Kan’onji Shi","lat":34.08457,"lng":133.67448},{"id":63719,"name":"Kan’onjichō","lat":34.1276,"lng":133.64598},{"id":63921,"name":"Marugame","lat":34.28333,"lng":133.78333},{"id":63922,"name":"Marugame Shi","lat":34.2856,"lng":133.81535},{"id":63992,"name":"Mitoyo Shi","lat":34.16176,"lng":133.72282},{"id":64260,"name":"Sakaide Shi","lat":34.32403,"lng":133.89222},{"id":64261,"name":"Sakaidechō","lat":34.32278,"lng":133.8356},{"id":64283,"name":"Sanuki-shi","lat":34.26615,"lng":134.20941},{"id":64317,"name":"Shido","lat":34.32333,"lng":134.17333},{"id":64406,"name":"Tadotsu","lat":34.275,"lng":133.75},{"id":64427,"name":"Takamatsu","lat":34.33333,"lng":134.05},{"id":64428,"name":"Takamatsu Shi","lat":34.26852,"lng":134.0545},{"id":64514,"name":"Tonoshō","lat":34.48047,"lng":134.17017},{"id":64710,"name":"Zentsūji Shi","lat":34.22581,"lng":133.77692}]