[{"id":16152,"name":"Ajax","lat":43.85012,"lng":-79.03288},{"id":16157,"name":"Algoma","lat":47.88364,"lng":-84.42406},{"id":16158,"name":"Alliston","lat":44.15011,"lng":-79.86635},{"id":16162,"name":"Amherstburg","lat":42.10009,"lng":-83.09985},{"id":16163,"name":"Amigo Beach","lat":44.70011,"lng":-79.39963},{"id":16166,"name":"Ancaster","lat":43.21806,"lng":-79.98716},{"id":16168,"name":"Angus","lat":44.31681,"lng":-79.88295},{"id":16174,"name":"Arnprior","lat":45.43341,"lng":-76.34939},{"id":16179,"name":"Atikokan","lat":48.75667,"lng":-91.62409},{"id":16180,"name":"Attawapiskat","lat":52.92774,"lng":-82.41669},{"id":16181,"name":"Aurora","lat":43.99973,"lng":-79.467545},{"id":16182,"name":"Aylmer","lat":42.76679,"lng":-80.98302},{"id":16183,"name":"Azilda","lat":46.55008,"lng":-81.09975},{"id":16188,"name":"Ballantrae","lat":44.03342,"lng":-79.2996},{"id":16189,"name":"Bancroft","lat":45.05752,"lng":-77.85702},{"id":16193,"name":"Barrie","lat":44.40011,"lng":-79.66634},{"id":16197,"name":"Bath","lat":44.18342,"lng":-76.78273},{"id":16211,"name":"Belleville","lat":44.16682,"lng":-77.38277},{"id":16212,"name":"Bells Corners","lat":45.31588,"lng":-75.83012},{"id":16213,"name":"Belmont","lat":42.88339,"lng":-81.08303},{"id":16218,"name":"Binbrook","lat":43.12135,"lng":-79.81104},{"id":16222,"name":"Bluewater","lat":43.46679,"lng":-81.59977},{"id":16233,"name":"Bourget","lat":45.4334,"lng":-75.1493},{"id":16236,"name":"Bracebridge","lat":45.03341,"lng":-79.31633},{"id":16237,"name":"Brampton","lat":43.68341,"lng":-79.76633},{"id":16239,"name":"Brant","lat":43.1334,"lng":-80.34967},{"id":16240,"name":"Brantford","lat":43.1334,"lng":-80.26636},{"id":16243,"name":"Brockville","lat":44.59132,"lng":-75.68705},{"id":16248,"name":"Brussels","lat":43.73339,"lng":-81.24975},{"id":16250,"name":"Burford","lat":43.10292,"lng":-80.42869},{"id":16252,"name":"Burlington","lat":43.38621,"lng":-79.83713},{"id":16261,"name":"Cambridge","lat":43.3601,"lng":-80.31269},{"id":16262,"name":"Camlachie","lat":43.03596,"lng":-82.1616},{"id":16274,"name":"Capreol","lat":46.70626,"lng":-80.92109},{"id":16280,"name":"Carleton Place","lat":45.13341,"lng":-76.14938},{"id":16285,"name":"Casselman","lat":45.3168,"lng":-75.0826},{"id":16299,"name":"Chatham","lat":42.41224,"lng":-82.18494},{"id":16300,"name":"Chatham-Kent","lat":42.40009,"lng":-82.1831},{"id":16312,"name":"Clarence-Rockland","lat":45.5501,"lng":-75.29101},{"id":16319,"name":"Cobourg","lat":43.95977,"lng":-78.16515},{"id":16321,"name":"Cochrane","lat":50.00022,"lng":-82.99979},{"id":16325,"name":"Collingwood","lat":44.4834,"lng":-80.21638},{"id":16328,"name":"Concord","lat":43.80011,"lng":-79.48291},{"id":16329,"name":"Constance Bay","lat":45.50011,"lng":-76.08267},{"id":16333,"name":"Cookstown","lat":44.18341,"lng":-79.69964},{"id":16337,"name":"Cornwall","lat":45.01809,"lng":-74.72815},{"id":16339,"name":"Corunna","lat":42.88338,"lng":-82.43313},{"id":16361,"name":"Deep River","lat":46.10012,"lng":-77.49949},{"id":16363,"name":"Delaware","lat":42.91679,"lng":-81.41646},{"id":16369,"name":"Deseronto","lat":44.20012,"lng":-77.04944},{"id":16380,"name":"Dorchester","lat":42.98339,"lng":-81.06643},{"id":16382,"name":"Dowling","lat":46.59111,"lng":-81.33917},{"id":16385,"name":"Dryden","lat":49.78334,"lng":-92.75032},{"id":16389,"name":"Durham","lat":44.20012,"lng":-78.99957},{"id":16390,"name":"Ear Falls","lat":50.63955,"lng":-93.23526},{"id":16393,"name":"East Gwillimbury","lat":44.10087,"lng":-79.43785},{"id":16395,"name":"East York","lat":43.69053,"lng":-79.32794},{"id":16401,"name":"Elliot Lake","lat":46.38336,"lng":-82.63315},{"id":16403,"name":"Elmvale","lat":44.5834,"lng":-79.86636},{"id":16405,"name":"Englehart","lat":47.81686,"lng":-79.8664},{"id":16408,"name":"Espanola","lat":46.25837,"lng":-81.76649},{"id":16409,"name":"Essex","lat":42.17509,"lng":-82.82483},{"id":16412,"name":"Etobicoke","lat":43.65421,"lng":-79.56711},{"id":153520,"name":"Exeter","lat":43.3435863,"lng":-81.4972602},{"id":16427,"name":"Fort Erie","lat":42.90012,"lng":-78.93286},{"id":16428,"name":"Fort Frances","lat":48.61667,"lng":-93.4003},{"id":16446,"name":"Gananoque","lat":44.33342,"lng":-76.16607},{"id":16455,"name":"Glencoe","lat":42.75009,"lng":-81.71648},{"id":16457,"name":"Goderich","lat":43.74171,"lng":-81.71339},{"id":16459,"name":"Golden","lat":51.05917,"lng":-93.73568},{"id":16470,"name":"Gravenhurst","lat":44.91681,"lng":-79.36633},{"id":16472,"name":"Greater Napanee","lat":44.2473883,"lng":-76.9505543},{"id":16473,"name":"Greater Sudbury","lat":46.49,"lng":-80.99001},{"id":16474,"name":"Greenstone","lat":49.73343,"lng":-87.16668},{"id":16478,"name":"Guelph","lat":43.54594,"lng":-80.25599},{"id":16480,"name":"Haldimand","lat":42.98341,"lng":-79.86633},{"id":16481,"name":"Haliburton Village","lat":45.05154,"lng":-78.52245},{"id":16483,"name":"Halton","lat":43.50011,"lng":-79.88294},{"id":16484,"name":"Hamilton","lat":43.25011,"lng":-79.84963},{"id":16489,"name":"Hanover","lat":44.15009,"lng":-81.03303},{"id":16494,"name":"Harriston","lat":43.90009,"lng":-80.88302},{"id":16497,"name":"Hawkesbury","lat":45.60009,"lng":-74.61595},{"id":16501,"name":"Hearst","lat":49.68351,"lng":-83.66654},{"id":16509,"name":"Hornepayne","lat":49.21451,"lng":-84.77617},{"id":16515,"name":"Huntsville","lat":45.33341,"lng":-79.21632},{"id":16516,"name":"Huron East","lat":43.61679,"lng":-81.29975},{"id":16520,"name":"Ingersoll","lat":43.03339,"lng":-80.88302},{"id":16521,"name":"Innisfil","lat":44.30011,"lng":-79.64964},{"id":16525,"name":"Iroquois Falls","lat":48.76688,"lng":-80.68307},{"id":16527,"name":"Jarvis","lat":42.88341,"lng":-80.09965},{"id":16533,"name":"Kanata","lat":45.3001,"lng":-75.91606},{"id":16534,"name":"Kapuskasing","lat":49.41694,"lng":-82.43308},{"id":16535,"name":"Kawartha Lakes","lat":44.58342,"lng":-78.83288},{"id":16537,"name":"Kenora","lat":49.76741,"lng":-94.48985},{"id":16541,"name":"Keswick","lat":44.25011,"lng":-79.46632},{"id":16546,"name":"Kincardine","lat":44.18339,"lng":-81.63307},{"id":16548,"name":"King","lat":43.96514,"lng":-79.59011},{"id":16550,"name":"Kingston","lat":44.22976,"lng":-76.48098},{"id":16552,"name":"Kirkland Lake","lat":48.14461,"lng":-80.03767},{"id":16553,"name":"Kitchener","lat":43.42537,"lng":-80.5112},{"id":16560,"name":"L'Orignal","lat":45.6198,"lng":-74.6915},{"id":16590,"name":"Lakefield","lat":44.43342,"lng":-78.26623},{"id":16591,"name":"Lambton Shores","lat":43.16678,"lng":-81.93309},{"id":16601,"name":"Lappe","lat":48.5668,"lng":-89.35013},{"id":16607,"name":"Leamington","lat":42.05009,"lng":-82.59981},{"id":16617,"name":"Limoges","lat":45.3334,"lng":-75.24931},{"id":16619,"name":"Lindsay","lat":44.35012,"lng":-78.73286},{"id":16622,"name":"Listowel","lat":43.7334,"lng":-80.94973},{"id":16623,"name":"Little Current","lat":45.97927,"lng":-81.9248},{"id":16624,"name":"Lively","lat":46.43338,"lng":-81.14975},{"id":16627,"name":"London","lat":42.98339,"lng":-81.23304},{"id":16633,"name":"Lucan","lat":43.18339,"lng":-81.39976},{"id":16643,"name":"Madoc","lat":44.50842,"lng":-77.47448},{"id":16650,"name":"Manitoulin","lat":45.75007,"lng":-82.49985},{"id":16651,"name":"Manitouwadge","lat":49.12152,"lng":-85.8403},{"id":16658,"name":"Marathon","lat":48.7501,"lng":-86.43322},{"id":16661,"name":"Markdale","lat":44.3168,"lng":-80.64971},{"id":16662,"name":"Markham","lat":43.86682,"lng":-79.2663},{"id":16669,"name":"Mattawa","lat":46.31681,"lng":-78.69957},{"id":16674,"name":"Meaford","lat":44.60725,"lng":-80.61081},{"id":16683,"name":"Metcalfe","lat":45.2334,"lng":-75.46603},{"id":16687,"name":"Midland","lat":44.7501,"lng":-79.88296},{"id":16688,"name":"Mildmay","lat":44.05009,"lng":-81.11644},{"id":16690,"name":"Millbrook","lat":44.15012,"lng":-78.44954},{"id":16692,"name":"Milton","lat":43.51681,"lng":-79.88294},{"id":16697,"name":"Mississauga","lat":43.5789,"lng":-79.6583},{"id":16698,"name":"Mississauga Beach","lat":43.26682,"lng":-79.08287},{"id":16712,"name":"Moose Factory","lat":51.26689,"lng":-80.61624},{"id":16716,"name":"Moosonee","lat":51.27931,"lng":-80.6345},{"id":16721,"name":"Morrisburg","lat":44.9001,"lng":-75.18261},{"id":16722,"name":"Mount Albert","lat":44.13341,"lng":-79.3163},{"id":16723,"name":"Mount Brydges","lat":42.90009,"lng":-81.48306},{"id":16731,"name":"Napanee Downtown","lat":44.24832,"lng":-76.95069},{"id":16733,"name":"Neebing","lat":48.1668,"lng":-89.41683},{"id":16736,"name":"Nepean","lat":45.35215,"lng":-75.73975},{"id":16740,"name":"New Hamburg","lat":43.38339,"lng":-80.6997},{"id":16744,"name":"Newmarket","lat":44.05011,"lng":-79.46631},{"id":16745,"name":"Niagara Falls","lat":43.10012,"lng":-79.06627},{"id":16748,"name":"Nipissing","lat":46.0001,"lng":-78.99959},{"id":16752,"name":"Norfolk County","lat":42.8334,"lng":-80.38297},{"id":16756,"name":"North Bay","lat":46.3168,"lng":-79.46633},{"id":16759,"name":"North Perth","lat":43.7251,"lng":-80.96723},{"id":16762,"name":"North York","lat":43.76681,"lng":-79.4163},{"id":16763,"name":"Norwood","lat":44.38342,"lng":-77.98281},{"id":16770,"name":"Oakville","lat":43.45011,"lng":-79.68292},{"id":16777,"name":"Omemee","lat":44.29897,"lng":-78.55989},{"id":16778,"name":"Orangeville","lat":43.9168,"lng":-80.09967},{"id":16779,"name":"Orillia","lat":44.60868,"lng":-79.42068},{"id":16782,"name":"Osgoode","lat":45.14887,"lng":-75.59778},{"id":16783,"name":"Oshawa","lat":43.90012,"lng":-78.84957},{"id":16785,"name":"Ottawa","lat":45.41117,"lng":-75.69812},{"id":16789,"name":"Owen Sound","lat":44.56717,"lng":-80.94349},{"id":16792,"name":"Paisley","lat":44.30641,"lng":-81.27265},{"id":16796,"name":"Paris","lat":43.2,"lng":-80.38333},{"id":16797,"name":"Parkhill","lat":43.15993,"lng":-81.68464},{"id":16800,"name":"Parry Sound","lat":45.34732,"lng":-80.03527},{"id":16801,"name":"Parry Sound District","lat":45.75011,"lng":-79.83297},{"id":16806,"name":"Peel","lat":43.75011,"lng":-79.78293},{"id":16809,"name":"Pembroke","lat":45.81681,"lng":-77.11616},{"id":16812,"name":"Perth","lat":44.90011,"lng":-76.24939},{"id":16813,"name":"Petawawa","lat":45.89452,"lng":-77.28007},{"id":16814,"name":"Peterborough","lat":44.30012,"lng":-78.31623},{"id":16815,"name":"Petrolia","lat":42.86678,"lng":-82.14981},{"id":16816,"name":"Pickering","lat":43.90012,"lng":-79.13289},{"id":16817,"name":"Picton","lat":44.00012,"lng":-77.13275},{"id":16827,"name":"Plantagenet","lat":45.5326,"lng":-74.99369},{"id":16828,"name":"Plattsville","lat":43.3001,"lng":-80.61639},{"id":16838,"name":"Port Colborne","lat":42.90012,"lng":-79.23288},{"id":16841,"name":"Port Hope","lat":44.01682,"lng":-78.39953},{"id":16844,"name":"Port Rowan","lat":42.6168,"lng":-80.46638},{"id":16845,"name":"Port Stanley","lat":42.66679,"lng":-81.21644},{"id":16850,"name":"Powassan","lat":46.0334,"lng":-79.34961},{"id":16853,"name":"Prescott","lat":44.71681,"lng":-75.51604},{"id":16855,"name":"Prince Edward","lat":44.00012,"lng":-77.24946},{"id":16864,"name":"Queenswood Heights","lat":45.47083,"lng":-75.50556},{"id":16866,"name":"Quinte West","lat":44.18342,"lng":-77.56618},{"id":16868,"name":"Rainy River","lat":48.49981,"lng":-92.50031},{"id":16872,"name":"Rayside-Balfour","lat":46.60873,"lng":-81.20763},{"id":16874,"name":"Red Lake","lat":51.01678,"lng":-93.82736},{"id":16879,"name":"Regional Municipality of Waterloo","lat":43.5001,"lng":-80.49969},{"id":16880,"name":"Renfrew","lat":45.46681,"lng":-76.68272},{"id":16887,"name":"Richmond","lat":45.1834,"lng":-75.83266},{"id":16888,"name":"Richmond Hill","lat":43.87111,"lng":-79.43725},{"id":16890,"name":"Ridgetown","lat":42.43339,"lng":-81.89978},{"id":16900,"name":"Rockwood","lat":43.61899,"lng":-80.14441},{"id":16909,"name":"Russell","lat":45.2501,"lng":-75.36602},{"id":17020,"name":"Sarnia","lat":42.97866,"lng":-82.40407},{"id":17022,"name":"Sault Ste. Marie","lat":46.51677,"lng":-84.33325},{"id":17023,"name":"Scarborough","lat":43.77223,"lng":-79.25666},{"id":17024,"name":"Seaforth","lat":43.55009,"lng":-81.39976},{"id":17036,"name":"Shelburne","lat":44.0787,"lng":-80.20408},{"id":17045,"name":"Simcoe","lat":42.8334,"lng":-80.29967},{"id":17046,"name":"Sioux Lookout","lat":50.06676,"lng":-91.98358},{"id":17048,"name":"Skatepark","lat":44.25122,"lng":-76.94424},{"id":17051,"name":"Smiths Falls","lat":44.90452,"lng":-76.02333},{"id":17057,"name":"South Huron","lat":43.31679,"lng":-81.51647},{"id":17059,"name":"South River","lat":45.8334,"lng":-79.38293},{"id":17070,"name":"St. Catharines","lat":43.17126,"lng":-79.24267},{"id":17071,"name":"St. George","lat":43.24495,"lng":-80.25144},{"id":17073,"name":"St. Thomas","lat":42.77361,"lng":-81.18038},{"id":17079,"name":"Stirling","lat":44.30012,"lng":-77.54948},{"id":17081,"name":"Stoney Point","lat":44.26681,"lng":-79.53292},{"id":17083,"name":"Stratford","lat":43.36679,"lng":-80.94972},{"id":17085,"name":"Sudbury","lat":47.16679,"lng":-81.9998},{"id":17100,"name":"Tavistock","lat":43.31679,"lng":-80.83302},{"id":17101,"name":"Temiskaming Shores","lat":47.49376,"lng":-79.71529},{"id":17106,"name":"Thessalon","lat":46.25006,"lng":-83.5666},{"id":149581,"name":"Thornhill","lat":43.8170848,"lng":-79.4501194},{"id":17109,"name":"Thorold","lat":43.11682,"lng":-79.19958},{"id":17111,"name":"Thunder Bay","lat":48.38202,"lng":-89.25018},{"id":17112,"name":"Thunder Bay District","lat":49.50011,"lng":-88.50004},{"id":17114,"name":"Timiskaming","lat":47.75016,"lng":-80.33303},{"id":17115,"name":"Timmins","lat":48.46686,"lng":-81.33312},{"id":17117,"name":"Tobermory","lat":45.25007,"lng":-81.66647},{"id":17121,"name":"Toronto","lat":43.70011,"lng":-79.4163},{"id":17122,"name":"Toronto county","lat":43.69655,"lng":-79.42909},{"id":17123,"name":"Tottenham","lat":44.02437,"lng":-79.80553},{"id":17130,"name":"Tweed","lat":44.47512,"lng":-77.31616},{"id":17136,"name":"Uxbridge","lat":44.10012,"lng":-79.11628},{"id":17142,"name":"Valley East","lat":46.66773,"lng":-81.00028},{"id":17147,"name":"Vanier","lat":45.4399,"lng":-75.66498},{"id":17150,"name":"Vaughan","lat":43.8361,"lng":-79.49827},{"id":17160,"name":"Vineland","lat":43.15012,"lng":-79.3996},{"id":17162,"name":"Virgil","lat":43.21682,"lng":-79.13288},{"id":17169,"name":"Walpole Island","lat":42.6152,"lng":-82.51398},{"id":17172,"name":"Wasaga Beach","lat":44.5168,"lng":-80.01637},{"id":17175,"name":"Waterford","lat":42.9334,"lng":-80.28296},{"id":17176,"name":"Waterloo","lat":43.4668,"lng":-80.51639},{"id":17178,"name":"Watford","lat":42.95008,"lng":-81.88309},{"id":17181,"name":"Wawa","lat":47.98877,"lng":-84.77411},{"id":17184,"name":"Welland","lat":42.98342,"lng":-79.24958},{"id":17185,"name":"Wellesley","lat":43.47691,"lng":-80.76209},{"id":17188,"name":"Wendover","lat":45.57275,"lng":-75.12757},{"id":17191,"name":"West Lorne","lat":42.60009,"lng":-81.59976},{"id":17208,"name":"Willowdale","lat":43.76672,"lng":-79.39909},{"id":17209,"name":"Winchester","lat":45.0834,"lng":-75.34933},{"id":17212,"name":"Windsor","lat":42.30008,"lng":-83.01654},{"id":17213,"name":"Wingham","lat":43.88793,"lng":-81.31145},{"id":17217,"name":"Woodstock","lat":43.13339,"lng":-80.7497},{"id":17222,"name":"York","lat":44.0007518,"lng":-79.4372217}]