[{"id":16160,"name":"Altona","lat":49.10469,"lng":-97.55961},{"id":16206,"name":"Beausejour","lat":50.0622,"lng":-96.51669},{"id":16225,"name":"Boissevain","lat":49.23062,"lng":-100.05586},{"id":16238,"name":"Brandon","lat":49.84692,"lng":-99.95306},{"id":16275,"name":"Carberry","lat":49.86893,"lng":-99.36021},{"id":16283,"name":"Carman","lat":49.4992,"lng":-98.00156},{"id":16348,"name":"Cross Lake 19A","lat":54.65135,"lng":-97.76848},{"id":16356,"name":"Dauphin","lat":51.14941,"lng":-100.05023},{"id":16360,"name":"De Salaberry","lat":49.39999,"lng":-97.00894},{"id":16364,"name":"Deloraine","lat":49.19082,"lng":-100.49477},{"id":16422,"name":"Flin Flon","lat":54.76703,"lng":-101.87433},{"id":16452,"name":"Gimli","lat":50.63362,"lng":-96.99066},{"id":16477,"name":"Grunthal","lat":49.40668,"lng":-96.85873},{"id":16500,"name":"Headingley","lat":49.8753,"lng":-97.40896},{"id":16518,"name":"Ile des Chênes","lat":49.7106,"lng":-96.98893},{"id":16544,"name":"Killarney","lat":49.18332,"lng":-99.66364},{"id":16563,"name":"La Broquerie","lat":49.51688,"lng":-96.50029},{"id":16576,"name":"Lac du Bonnet","lat":50.2536,"lng":-96.06116},{"id":16593,"name":"Landmark","lat":49.67169,"lng":-96.82232},{"id":16629,"name":"Lorette","lat":49.73919,"lng":-96.87232},{"id":16677,"name":"Melita","lat":49.26811,"lng":-100.99669},{"id":16693,"name":"Minnedosa","lat":50.24532,"lng":-99.84364},{"id":16714,"name":"Moose Lake","lat":49.20559,"lng":-95.30629},{"id":16717,"name":"Morden","lat":49.1919,"lng":-98.10136},{"id":16720,"name":"Morris","lat":49.35499,"lng":-97.36567},{"id":16734,"name":"Neepawa","lat":50.22892,"lng":-99.46642},{"id":16749,"name":"Niverville","lat":49.60559,"lng":-97.04234},{"id":16848,"name":"Portage la Prairie","lat":49.97282,"lng":-98.29263},{"id":16894,"name":"Rivers","lat":50.03081,"lng":-100.24029},{"id":16898,"name":"Roblin","lat":51.22999,"lng":-101.3565},{"id":17026,"name":"Selkirk","lat":50.1436,"lng":-96.88452},{"id":17041,"name":"Shilo","lat":49.80509,"lng":-99.63175},{"id":17056,"name":"Souris","lat":49.6172,"lng":-100.2612},{"id":17067,"name":"St. Adolphe","lat":49.6744,"lng":-97.11124},{"id":17075,"name":"Steinbach","lat":49.52579,"lng":-96.68451},{"id":17080,"name":"Stonewall","lat":50.13441,"lng":-97.32676},{"id":17093,"name":"Swan River","lat":52.1058,"lng":-101.26759},{"id":17105,"name":"The Pas","lat":53.82509,"lng":-101.25413},{"id":17108,"name":"Thompson","lat":55.7435,"lng":-97.85579},{"id":17161,"name":"Virden","lat":49.8508,"lng":-100.93262},{"id":17192,"name":"West St. Paul","lat":49.9994,"lng":-97.16284},{"id":17214,"name":"Winkler","lat":49.1817,"lng":-97.94104},{"id":17215,"name":"Winnipeg","lat":49.8844,"lng":-97.14704}]