[{"id":16177,"name":"Assiniboia","lat":49.63336,"lng":-105.98446},{"id":16217,"name":"Biggar","lat":52.0668,"lng":-108.00135},{"id":16268,"name":"Canora","lat":51.63328,"lng":-102.43425},{"id":16282,"name":"Carlyle","lat":49.63334,"lng":-102.26765},{"id":16353,"name":"Dalmeny","lat":52.33339,"lng":-106.76792},{"id":16410,"name":"Esterhazy","lat":50.65001,"lng":-102.08426},{"id":16411,"name":"Estevan","lat":49.13337,"lng":-102.98422},{"id":16424,"name":"Foam Lake","lat":51.65001,"lng":-103.53431},{"id":16469,"name":"Gravelbourg","lat":49.88336,"lng":-106.55122},{"id":16512,"name":"Hudson Bay","lat":52.85003,"lng":-102.38425},{"id":16513,"name":"Humboldt","lat":52.20005,"lng":-105.1255},{"id":16519,"name":"Indian Head","lat":50.53336,"lng":-103.66775},{"id":16532,"name":"Kamsack","lat":51.56668,"lng":-101.90093},{"id":16540,"name":"Kerrobert","lat":51.91682,"lng":-109.13479},{"id":16547,"name":"Kindersley","lat":51.46681,"lng":-109.16818},{"id":16570,"name":"La Ronge","lat":55.10013,"lng":-105.28422},{"id":16594,"name":"Langenburg","lat":50.84999,"lng":-101.71763},{"id":16596,"name":"Langham","lat":52.3668,"lng":-106.96793},{"id":16598,"name":"Lanigan","lat":51.85006,"lng":-105.03443},{"id":16636,"name":"Lumsden","lat":50.65009,"lng":-104.86783},{"id":16642,"name":"Macklin","lat":52.33344,"lng":-109.93484},{"id":16655,"name":"Maple Creek","lat":49.91678,"lng":-109.48481},{"id":16663,"name":"Martensville","lat":52.28339,"lng":-106.66792},{"id":16673,"name":"Meadow Lake","lat":54.13348,"lng":-108.43471},{"id":16676,"name":"Melfort","lat":52.86673,"lng":-104.61768},{"id":16679,"name":"Melville","lat":50.91671,"lng":-102.80099},{"id":16713,"name":"Moose Jaw","lat":50.40005,"lng":-105.53445},{"id":16715,"name":"Moosomin","lat":50.13332,"lng":-101.66766},{"id":16747,"name":"Nipawin","lat":53.36678,"lng":-104.00092},{"id":16755,"name":"North Battleford","lat":52.77972,"lng":-108.2967},{"id":16788,"name":"Outlook","lat":51.50008,"lng":-107.05128},{"id":16790,"name":"Oxbow","lat":49.23335,"lng":-102.1676},{"id":16807,"name":"Pelican Narrows","lat":55.16685,"lng":-102.9341},{"id":16823,"name":"Pilot Butte","lat":50.46678,"lng":-104.41778},{"id":16852,"name":"Preeceville","lat":51.94998,"lng":-102.66766},{"id":16854,"name":"Prince Albert","lat":53.20008,"lng":-105.76772},{"id":16875,"name":"Regina","lat":50.45008,"lng":-104.6178},{"id":16876,"name":"Regina Beach","lat":50.78338,"lng":-105.00112},{"id":16903,"name":"Rosetown","lat":51.5501,"lng":-108.00136},{"id":16905,"name":"Rosthern","lat":52.66679,"lng":-106.33446},{"id":17021,"name":"Saskatoon","lat":52.13238,"lng":-106.66892},{"id":17031,"name":"Shaunavon","lat":49.65005,"lng":-108.4181},{"id":17038,"name":"Shellbrook","lat":53.21679,"lng":-106.40109},{"id":17094,"name":"Swift Current","lat":50.28337,"lng":-107.80135},{"id":17116,"name":"Tisdale","lat":52.85002,"lng":-104.05096},{"id":17134,"name":"Unity","lat":52.45014,"lng":-109.16816},{"id":17165,"name":"Wadena","lat":51.94999,"lng":-103.80102},{"id":17170,"name":"Warman","lat":52.31679,"lng":-106.56791},{"id":17179,"name":"Watrous","lat":51.66677,"lng":-105.46788},{"id":17198,"name":"Weyburn","lat":49.66675,"lng":-103.85109},{"id":17201,"name":"White City","lat":50.43338,"lng":-104.36778},{"id":17206,"name":"Wilkie","lat":52.41683,"lng":-108.70142},{"id":17218,"name":"Wynyard","lat":51.76674,"lng":-104.18436},{"id":17223,"name":"Yorkton","lat":51.2167,"lng":-102.46766}]