[{"id":16154,"name":"Alberton","lat":46.81685,"lng":-64.06542},{"id":16210,"name":"Belfast","lat":46.08341,"lng":-62.88197},{"id":16297,"name":"Charlottetown","lat":46.23899,"lng":-63.13414},{"id":16338,"name":"Cornwall","lat":46.22652,"lng":-63.21809},{"id":16417,"name":"Fallingbrook","lat":45.47558,"lng":-75.48401},{"id":16538,"name":"Kensington","lat":46.43343,"lng":-63.64871},{"id":16707,"name":"Montague","lat":46.16681,"lng":-62.64866},{"id":17055,"name":"Souris","lat":46.3501,"lng":-62.24862},{"id":17087,"name":"Summerside","lat":46.39593,"lng":-63.78762}]