[{"id":16315,"name":"Clyde River","lat":70.47233,"lng":-68.58987},{"id":16453,"name":"Gjoa Haven","lat":68.62602,"lng":-95.87836},{"id":16524,"name":"Iqaluit","lat":63.74697,"lng":-68.51727},{"id":16555,"name":"Kugluktuk","lat":67.82743,"lng":-115.09649},{"id":16793,"name":"Pangnirtung","lat":66.14642,"lng":-65.69996},{"id":16869,"name":"Rankin Inlet","lat":62.80906,"lng":-92.08534}]