[{"id":16199,"name":"Bay Roberts","lat":47.59989,"lng":-53.26478},{"id":16200,"name":"Bay St. George South","lat":48.22781,"lng":-58.84162},{"id":16228,"name":"Bonavista","lat":48.64989,"lng":-53.11474},{"id":16230,"name":"Botwood","lat":49.14994,"lng":-55.34819},{"id":16251,"name":"Burgeo","lat":47.61668,"lng":-57.61516},{"id":16276,"name":"Carbonear","lat":47.73319,"lng":-53.21478},{"id":16287,"name":"Catalina","lat":48.51659,"lng":-53.08135},{"id":16294,"name":"Channel-Port aux Basques","lat":47.57286,"lng":-59.13808},{"id":16313,"name":"Clarenville-Shoal Harbour","lat":48.1805,"lng":-53.96982},{"id":16327,"name":"Conception Bay South","lat":47.49989,"lng":-52.99806},{"id":16336,"name":"Corner Brook","lat":48.95001,"lng":-57.95202},{"id":16362,"name":"Deer Lake","lat":49.16671,"lng":-57.43163},{"id":16425,"name":"Fogo Island","lat":49.71649,"lng":-54.16981},{"id":16445,"name":"Gambo","lat":48.7832,"lng":-54.21482},{"id":16460,"name":"Goulds","lat":47.45532,"lng":-52.77552},{"id":16462,"name":"Grand Bank","lat":47.09995,"lng":-55.76504},{"id":16464,"name":"Grand Falls-Windsor","lat":48.93324,"lng":-55.66492},{"id":16491,"name":"Happy Valley-Goose Bay","lat":53.3038,"lng":-60.32576},{"id":16492,"name":"Harbour Breton","lat":47.48325,"lng":-55.79833},{"id":16574,"name":"Labrador City","lat":52.94626,"lng":-66.91137},{"id":16615,"name":"Lewisporte","lat":49.24993,"lng":-55.04816},{"id":16664,"name":"Marystown","lat":47.16663,"lng":-55.14829},{"id":16724,"name":"Mount Pearl","lat":47.51659,"lng":-52.78135},{"id":16802,"name":"Pasadena","lat":49.01671,"lng":-57.59837},{"id":17063,"name":"Springdale","lat":49.49995,"lng":-56.06492},{"id":17069,"name":"St. Anthony","lat":51.37039,"lng":-55.59743},{"id":17072,"name":"St. John's","lat":47.56494,"lng":-52.70931},{"id":17076,"name":"Stephenville","lat":48.55001,"lng":-58.5818},{"id":17077,"name":"Stephenville Crossing","lat":48.50001,"lng":-58.4318},{"id":17120,"name":"Torbay","lat":47.66659,"lng":-52.73135},{"id":17135,"name":"Upper Island Cove","lat":47.64989,"lng":-53.21478},{"id":17164,"name":"Wabana","lat":47.63319,"lng":-52.94806}]