[{"id":102921,"name":"Al Hasaheisa","lat":14.75264,"lng":33.29836},{"id":102922,"name":"Al Hilāliyya","lat":14.9398,"lng":33.234},{"id":102924,"name":"Al Kiremit al ‘Arakiyyīn","lat":14.3476,"lng":32.9437},{"id":102926,"name":"Al Manāqil","lat":14.2459,"lng":32.9891},{"id":102927,"name":"Al Masallamiyya","lat":14.5748,"lng":33.3373},{"id":102980,"name":"Wad Medani","lat":14.40118,"lng":33.51989},{"id":102981,"name":"Wad Rāwah","lat":15.16028,"lng":33.13972}]