[{"id":102938,"name":"Atbara","lat":17.70217,"lng":33.98638},{"id":102939,"name":"Berber","lat":18.02158,"lng":33.98299},{"id":102944,"name":"Ed Damer","lat":17.59898,"lng":33.97205},{"id":102945,"name":"El Bauga","lat":18.26197,"lng":33.90812},{"id":102948,"name":"El Matama","lat":16.7095,"lng":33.3565},{"id":102971,"name":"Shendi","lat":16.6915,"lng":33.4341}]