[{"id":52038,"name":"Agara","lat":42.03761,"lng":43.82382},{"id":52070,"name":"Gori","lat":41.98422,"lng":44.11578},{"id":52071,"name":"Goris Munitsip’alit’et’i","lat":42.06667,"lng":44.11667},{"id":52077,"name":"Kaspi","lat":41.9252,"lng":44.42568},{"id":52080,"name":"Khashuri","lat":41.99414,"lng":43.59994},{"id":52125,"name":"Surami","lat":42.02431,"lng":43.55556},{"id":52139,"name":"Ts’khinvali","lat":42.22764,"lng":43.96861}]