[{"id":52055,"name":"Bolnisi","lat":41.44794,"lng":44.53838},{"id":52056,"name":"Bolnisis Munitsip’alit’et’i","lat":41.36667,"lng":44.51667},{"id":52060,"name":"Didi Lilo","lat":41.73611,"lng":44.96472},{"id":52062,"name":"Dmanisis Munitsip’alit’et’i","lat":41.35,"lng":44.13333},{"id":52068,"name":"Gardabani","lat":41.46054,"lng":45.09283},{"id":52069,"name":"Gardabnis Munitsip’alit’et’i","lat":41.61667,"lng":45.0},{"id":52094,"name":"Manglisi","lat":41.69698,"lng":44.38448},{"id":52095,"name":"Marneuli","lat":41.47588,"lng":44.80895},{"id":52096,"name":"Marneulis Munitsip’alit’et’i","lat":41.38333,"lng":44.85},{"id":52101,"name":"Naghvarevi","lat":41.35272,"lng":44.76178},{"id":52113,"name":"Rust’avi","lat":41.54949,"lng":44.99323},{"id":52140,"name":"T’et’ri Tsqaro","lat":41.54448,"lng":44.46153},{"id":52128,"name":"Tetrits’q’alos Munitsip’alit’et’i","lat":41.6,"lng":44.5},{"id":52138,"name":"Ts’alk’is Munitsip’alit’et’i","lat":41.63333,"lng":43.96667},{"id":52133,"name":"Tsalka","lat":41.5946,"lng":44.08909}]