[{"id":131029,"name":"Barkly West","lat":-28.53537,"lng":24.52151},{"id":131047,"name":"Brandvlei","lat":-30.46532,"lng":20.48659},{"id":131058,"name":"Calvinia","lat":-31.47069,"lng":19.77601},{"id":131063,"name":"Carnarvon","lat":-30.96827,"lng":22.13303},{"id":131076,"name":"Colesberg","lat":-30.71999,"lng":25.09718},{"id":131080,"name":"Daniëlskuil","lat":-28.18873,"lng":23.53951},{"id":131081,"name":"De Aar","lat":-30.64966,"lng":24.0123},{"id":131110,"name":"Frances Baard","lat":-28.30003,"lng":24.38188},{"id":131112,"name":"Fraserburg","lat":-31.91566,"lng":21.51335},{"id":131137,"name":"John Taolo Gaetsewe","lat":-27.04549,"lng":23.04706},{"id":131138,"name":"Kathu","lat":-27.69569,"lng":23.04929},{"id":131139,"name":"Kenhardt","lat":-29.34574,"lng":21.15786},{"id":131140,"name":"Kimberley","lat":-28.73226,"lng":24.76232},{"id":131153,"name":"Kuruman","lat":-27.4524,"lng":23.43246},{"id":131195,"name":"Namakwa","lat":-30.53561,"lng":19.42892},{"id":131205,"name":"Noupoort","lat":-31.18736,"lng":24.94991},{"id":131208,"name":"Orania","lat":-29.81381,"lng":24.41205},{"id":131213,"name":"Pampierstad","lat":-27.78324,"lng":24.68768},{"id":131220,"name":"Pixley ka Seme","lat":-30.2892,"lng":23.25818},{"id":131222,"name":"Pofadder","lat":-29.1283,"lng":19.39492},{"id":131228,"name":"Postmasburg","lat":-28.33392,"lng":23.06541},{"id":131231,"name":"Prieska","lat":-29.66803,"lng":22.74251},{"id":131241,"name":"Ritchie","lat":-29.03801,"lng":24.60278},{"id":131258,"name":"Siyanda","lat":-28.00013,"lng":21.18459},{"id":131261,"name":"Springbok","lat":-29.66434,"lng":17.8865},{"id":131281,"name":"Upington","lat":-28.44776,"lng":21.25612},{"id":131283,"name":"Van Wyksvlei","lat":-30.35101,"lng":21.82498},{"id":131299,"name":"Warrenton","lat":-28.11396,"lng":24.84753}]