[{"id":77159,"name":"Boaco","lat":12.47224,"lng":-85.6586},{"id":77163,"name":"Camoapa","lat":12.38383,"lng":-85.51277},{"id":77260,"name":"San José de los Remates","lat":12.5975,"lng":-85.76174},{"id":77265,"name":"San Lorenzo","lat":12.3783,"lng":-85.66646},{"id":77273,"name":"Santa Lucía","lat":12.53262,"lng":-85.71074},{"id":77285,"name":"Teustepe","lat":12.4203,"lng":-85.79798}]