[{"id":77180,"name":"El Almendro","lat":11.67859,"lng":-84.70269},{"id":77193,"name":"Greytown","lat":10.94684,"lng":-83.73467},{"id":77219,"name":"Morrito","lat":11.62118,"lng":-85.08052},{"id":77255,"name":"San Carlos","lat":11.1236,"lng":-84.77795},{"id":77268,"name":"San Miguelito","lat":11.40255,"lng":-84.89991}]