[{"id":77165,"name":"Chichigalpa","lat":12.57758,"lng":-87.02705},{"id":77166,"name":"Chinandega","lat":12.62937,"lng":-87.13105},{"id":77167,"name":"Cinco Pinos","lat":13.22956,"lng":-86.86808},{"id":77172,"name":"Corinto","lat":12.4825,"lng":-87.17304},{"id":77186,"name":"El Realejo","lat":12.54333,"lng":-87.16517},{"id":77190,"name":"El Viejo","lat":12.66348,"lng":-87.16663},{"id":77196,"name":"Jiquilillo","lat":12.74593,"lng":-87.4516},{"id":77232,"name":"Municipio de San Francisco del Norte","lat":13.21187,"lng":-86.77107},{"id":77246,"name":"Posoltega","lat":12.54422,"lng":-86.97982},{"id":77251,"name":"Puerto Morazán","lat":12.85042,"lng":-87.17167},{"id":77278,"name":"Santo Tomás del Norte","lat":13.1861,"lng":-86.92267},{"id":77280,"name":"Somotillo","lat":13.04387,"lng":-86.90506}]