[{"id":105088,"name":"Hlatikulu","lat":-26.97917,"lng":31.32444},{"id":105089,"name":"Hluti","lat":-27.21667,"lng":31.61667},{"id":105090,"name":"Kubuta","lat":-26.88333,"lng":31.48333},{"id":105092,"name":"Lavumisa","lat":-27.31005,"lng":31.89198},{"id":105098,"name":"Matsanjeni","lat":-27.21585,"lng":31.72309},{"id":105102,"name":"Ngudzeni","lat":-27.03583,"lng":31.55111},{"id":105104,"name":"Nhlangano","lat":-27.11222,"lng":31.19833},{"id":105106,"name":"Nkwene","lat":-26.89778,"lng":31.24972},{"id":105111,"name":"Sigwe Inkhundla","lat":-27.05821,"lng":31.64543},{"id":105115,"name":"Zombodze Ikhundla","lat":-27.22746,"lng":31.33799}]