[{"id":65569,"name":"Abu Al Hasaniya","lat":29.19076,"lng":48.11355},{"id":65570,"name":"Abu Fatira","lat":29.19746,"lng":48.10278},{"id":65576,"name":"Al Funayţīs","lat":29.22528,"lng":48.10167},{"id":65581,"name":"Al-Masayel","lat":29.2393,"lng":48.08862},{"id":65592,"name":"Şabāḩ as Sālim","lat":29.25722,"lng":48.05722}]