[{"id":65571,"name":"Ad Dasmah","lat":29.365,"lng":48.00139},{"id":65584,"name":"Ar Rābiyah","lat":29.295,"lng":47.93306},{"id":65586,"name":"Ash Shāmīyah","lat":29.34722,"lng":47.96167},{"id":65587,"name":"Az Zawr","lat":29.4425,"lng":48.27472},{"id":65590,"name":"Kuwait City","lat":29.36972,"lng":47.97833}]