[{"id":65859,"name":"Ban Thatèng","lat":15.43317,"lng":106.38272},{"id":65862,"name":"Lamam","lat":15.41705,"lng":106.69461},{"id":65871,"name":"Muang Dakchung","lat":15.38199,"lng":107.31847},{"id":65873,"name":"Muang Khaleum","lat":15.79886,"lng":107.04529},{"id":65877,"name":"Muang Laman","lat":15.41273,"lng":106.81706},{"id":65906,"name":"Muang Thatèng","lat":15.42745,"lng":106.48149}]