[{"id":65860,"name":"Champasak","lat":14.89204,"lng":105.87787},{"id":65868,"name":"Muang Bachiangchaleunsook","lat":15.24426,"lng":105.96716},{"id":65869,"name":"Muang Champasak","lat":14.85704,"lng":105.75334},{"id":65874,"name":"Muang Không","lat":14.14696,"lng":105.95938},{"id":65882,"name":"Muang Mounlapamôk","lat":14.28922,"lng":105.56832},{"id":65887,"name":"Muang Pakxé","lat":15.13139,"lng":105.81612},{"id":65886,"name":"Muang Pakxong","lat":15.0981,"lng":106.43398},{"id":65888,"name":"Muang Pathoumphon","lat":14.68453,"lng":106.06357},{"id":65894,"name":"Muang Phônthong","lat":15.10669,"lng":105.6489},{"id":65901,"name":"Muang Soukhouma","lat":14.6256,"lng":105.6752},{"id":65913,"name":"Muang Xanasômboun","lat":15.34107,"lng":105.73703},{"id":65917,"name":"Pakse","lat":15.12022,"lng":105.79898},{"id":65919,"name":"Pakxong","lat":15.18154,"lng":106.23038}]