[{"id":3396,"name":"Abu Dhabi","iso2":"AZ","type":"emirate","lat":24.453884,"lng":54.3773438},{"id":3395,"name":"Ajman","iso2":"AJ","type":"emirate","lat":25.3936557,"lng":55.4451432},{"id":3391,"name":"Dubai","iso2":"DU","type":"emirate","lat":25.2647227,"lng":55.2924146},{"id":3393,"name":"Fujairah","iso2":"FU","type":"emirate","lat":25.1244604,"lng":56.3355085},{"id":3394,"name":"Ras Al Khaimah","iso2":"RK","type":"emirate","lat":25.7386349,"lng":55.9249224},{"id":3390,"name":"Sharjah","iso2":"SH","type":"emirate","lat":25.3461498,"lng":55.4210633},{"id":3392,"name":"Umm Al Quwain","iso2":"UQ","type":"emirate","lat":25.6112488,"lng":55.6174631}]