[{"id":2062,"name":"Burgenland","iso2":"1","type":"state","lat":47.5000001,"lng":16.4166666},{"id":2057,"name":"Carinthia","iso2":"2","type":"state","lat":46.7500001,"lng":13.8333333},{"id":2065,"name":"Lower Austria","iso2":"3","type":"state","lat":48.2817813,"lng":15.7632457},{"id":2061,"name":"Salzburg","iso2":"5","type":"state","lat":47.7981346,"lng":13.0464806},{"id":2059,"name":"Styria","iso2":"6","type":"state","lat":47.2500001,"lng":15.1666665},{"id":2064,"name":"Tyrol","iso2":"7","type":"state","lat":47.223193,"lng":11.5261028},{"id":2058,"name":"Upper Austria","iso2":"4","type":"state","lat":48.25,"lng":14.0},{"id":2060,"name":"Vienna","iso2":"9","type":"state","lat":48.2081743,"lng":16.3738189},{"id":2063,"name":"Vorarlberg","iso2":"8","type":"state","lat":47.25,"lng":9.9166667}]