[{"id":5298,"name":"Brändö","iso2":"12","type":"municipality","lat":60.4135873,"lng":21.0440498},{"id":5294,"name":"Eckerö","iso2":"08","type":"municipality","lat":60.2231814,"lng":19.5389379},{"id":5289,"name":"Finström","iso2":"03","type":"municipality","lat":60.2310519,"lng":19.9867259},{"id":5295,"name":"Föglö","iso2":"09","type":"municipality","lat":60.0107325,"lng":20.4246997},{"id":5296,"name":"Geta","iso2":"10","type":"municipality","lat":60.3740157,"lng":19.8498128},{"id":5292,"name":"Hammarland","iso2":"06","type":"municipality","lat":60.2196758,"lng":19.7378481},{"id":5288,"name":"Jomala","iso2":"02","type":"municipality","lat":60.1522947,"lng":19.9489144},{"id":5301,"name":"Kökar","iso2":"15","type":"municipality","lat":59.9211709,"lng":20.9103514},{"id":5300,"name":"Kumlinge","iso2":"14","type":"municipality","lat":60.2587693,"lng":20.7782292},{"id":5290,"name":"Lemland","iso2":"04","type":"municipality","lat":60.0690169,"lng":20.0860081},{"id":5299,"name":"Lumparland","iso2":"13","type":"municipality","lat":60.1168385,"lng":20.2610583},{"id":5287,"name":"Mariehamn","iso2":"01","type":"municipality","lat":60.102423,"lng":19.94126},{"id":5291,"name":"Saltvik","iso2":"05","type":"municipality","lat":60.2755756,"lng":20.0612065},{"id":5302,"name":"Sottunga","iso2":"16","type":"municipality","lat":60.1307977,"lng":20.6459821},{"id":5293,"name":"Sund","iso2":"07","type":"municipality","lat":60.2530332,"lng":20.1198637},{"id":5297,"name":"Vårdö","iso2":"11","type":"municipality","lat":60.2421692,"lng":20.3744261}]