[{"id":3160,"name":"Balé","iso2":"BAL","type":"province","lat":11.658145,"lng":-3.0541022},{"id":3155,"name":"Bam","iso2":"BAM","type":"province","lat":13.468115,"lng":-1.5986637},{"id":3120,"name":"Banwa","iso2":"BAN","type":"province","lat":12.2265568,"lng":-4.1913344},{"id":3152,"name":"Bazèga","iso2":"BAZ","type":"province","lat":11.8922276,"lng":-1.4593762},{"id":3138,"name":"Boucle du Mouhoun","iso2":"01","type":"region","lat":12.4777805,"lng":-3.5879571},{"id":3121,"name":"Bougouriba","iso2":"BGR","type":"province","lat":10.8820933,"lng":-3.4306631},{"id":3131,"name":"Boulgou","iso2":"BLG","type":"province","lat":11.464625,"lng":-0.4089101},{"id":5343,"name":"Boulkiemde","iso2":"BLK","type":"province","lat":12.293712,"lng":-2.1041312},{"id":3153,"name":"Cascades","iso2":"02","type":"region","lat":10.3071812,"lng":-4.4351893},{"id":3136,"name":"Centre","iso2":"03","type":"region","lat":12.36732,"lng":-1.5430869},{"id":3162,"name":"Centre-Est","iso2":"04","type":"region","lat":11.734933,"lng":-0.2921056},{"id":3127,"name":"Centre-Nord","iso2":"05","type":"region","lat":13.23871,"lng":-1.0349832},{"id":3115,"name":"Centre-Ouest","iso2":"06","type":"region","lat":11.9067933,"lng":-2.3044801},{"id":3149,"name":"Centre-Sud","iso2":"07","type":"region","lat":11.5833646,"lng":-1.0556301},{"id":3167,"name":"Comoé","iso2":"COM","type":"province","lat":10.2419897,"lng":-4.4268875},{"id":3158,"name":"Est","iso2":"08","type":"region","lat":12.2527495,"lng":0.8736106},{"id":3148,"name":"Ganzourgou","iso2":"GAN","type":"province","lat":12.2899154,"lng":-0.8083429},{"id":3122,"name":"Gnagna","iso2":"GNA","type":"province","lat":12.9154574,"lng":-0.0659562},{"id":3143,"name":"Gourma","iso2":"GOU","type":"province","lat":12.2278267,"lng":0.5472078},{"id":3165,"name":"Hauts-Bassins","iso2":"09","type":"region","lat":11.3890275,"lng":-4.041365},{"id":3129,"name":"Houet","iso2":"HOU","type":"province","lat":11.3851056,"lng":-4.3273643},{"id":3135,"name":"Ioba","iso2":"IOB","type":"province","lat":11.0343187,"lng":-2.9627761},{"id":3168,"name":"Kadiogo","iso2":"KAD","type":"province","lat":12.36732,"lng":-1.5430869},{"id":3112,"name":"Kénédougou","iso2":"KEN","type":"province","lat":11.403998,"lng":-4.9851028},{"id":3132,"name":"Komondjari","iso2":"KMD","type":"province","lat":12.7269113,"lng":0.7047083},{"id":3157,"name":"Kompienga","iso2":"KMP","type":"province","lat":11.4487592,"lng":0.9770378},{"id":3146,"name":"Kossi","iso2":"KOS","type":"province","lat":12.9593346,"lng":-3.8436797},{"id":3133,"name":"Koulpélogo","iso2":"KOP","type":"province","lat":11.4153137,"lng":0.149899},{"id":3161,"name":"Kouritenga","iso2":"KOT","type":"province","lat":12.185035,"lng":-0.244848},{"id":3147,"name":"Kourwéogo","iso2":"KOW","type":"province","lat":12.6004222,"lng":-1.7598561},{"id":3159,"name":"Léraba","iso2":"LER","type":"province","lat":10.6520035,"lng":-5.2116858},{"id":3151,"name":"Loroum","iso2":"LOR","type":"province","lat":13.9463767,"lng":-2.10554},{"id":3123,"name":"Mouhoun","iso2":"MOU","type":"province","lat":12.2367475,"lng":-3.3387562},{"id":3116,"name":"Nahouri","iso2":"NAO","type":"province","lat":11.2545114,"lng":-1.2699821},{"id":3113,"name":"Namentenga","iso2":"NAM","type":"province","lat":13.23672,"lng":-0.4819343},{"id":3142,"name":"Nayala","iso2":"NAY","type":"province","lat":12.6601866,"lng":-2.9891153},{"id":3164,"name":"Nord","iso2":"10","type":"region","lat":13.45911,"lng":-2.2496367},{"id":3156,"name":"Noumbiel","iso2":"NOU","type":"province","lat":9.7967453,"lng":-2.9265543},{"id":3141,"name":"Oubritenga","iso2":"OUB","type":"province","lat":12.59701,"lng":-1.252231},{"id":3144,"name":"Oudalan","iso2":"OUD","type":"province","lat":14.6253063,"lng":-0.3333471},{"id":3117,"name":"Passoré","iso2":"PAS","type":"province","lat":12.8777,"lng":-2.2944905},{"id":3125,"name":"Plateau-Central","iso2":"11","type":"region","lat":12.40414,"lng":-0.886416},{"id":3163,"name":"Poni","iso2":"PON","type":"province","lat":10.3085943,"lng":-3.3016811},{"id":3114,"name":"Sahel","iso2":"12","type":"region","lat":14.0279165,"lng":-0.7717776},{"id":3154,"name":"Sanguié","iso2":"SNG","type":"province","lat":12.2101561,"lng":-2.6421059},{"id":3126,"name":"Sanmatenga","iso2":"SMT","type":"province","lat":13.2405448,"lng":-0.9747023},{"id":3139,"name":"Séno","iso2":"SEN","type":"province","lat":13.99508,"lng":-0.0992076},{"id":3119,"name":"Sissili","iso2":"SIS","type":"province","lat":11.4484064,"lng":-2.3912085},{"id":3166,"name":"Soum","iso2":"SOM","type":"province","lat":14.2861443,"lng":-1.3452326},{"id":3137,"name":"Sourou","iso2":"SOR","type":"province","lat":13.2311675,"lng":-2.962181},{"id":3140,"name":"Sud-Ouest","iso2":"13","type":"region","lat":10.3869208,"lng":-3.2831886},{"id":3128,"name":"Tapoa","iso2":"TAP","type":"province","lat":12.1450627,"lng":1.7603025},{"id":3134,"name":"Tuy","iso2":"TUI","type":"province","lat":11.4495604,"lng":-3.3787653},{"id":3124,"name":"Yagha","iso2":"YAG","type":"province","lat":13.4269445,"lng":0.6161497},{"id":3150,"name":"Yatenga","iso2":"YAT","type":"province","lat":13.5942938,"lng":-2.5249513},{"id":3145,"name":"Ziro","iso2":"ZIR","type":"province","lat":11.675305,"lng":-1.9146626},{"id":3130,"name":"Zondoma","iso2":"ZON","type":"province","lat":13.1975396,"lng":-2.3085276},{"id":3118,"name":"Zoundwéogo","iso2":"ZOU","type":"province","lat":11.5525895,"lng":-1.0308938}]