[{"id":749,"name":"Famagusta (Mağusa)","iso2":"04","type":"district","lat":35.1352137,"lng":33.9239831},{"id":744,"name":"Kyrenia (Keryneia)","iso2":"06","type":"district","lat":35.2951481,"lng":33.2769155},{"id":747,"name":"Larnaca (Larnaka)","iso2":"03","type":"district","lat":34.8697484,"lng":33.6092097},{"id":748,"name":"Limassol (Leymasun)","iso2":"02","type":"district","lat":34.6911485,"lng":33.0078384},{"id":745,"name":"Nicosia (Lefkoşa)","iso2":"01","type":"district","lat":35.1565464,"lng":33.3705626},{"id":746,"name":"Paphos (Pafos)","iso2":"05","type":"district","lat":34.7812978,"lng":32.4214097}]