[{"id":1118,"name":"Adrar","iso2":"01","type":"province","lat":26.4888155,"lng":-1.3582442},{"id":1119,"name":"Aïn Defla","iso2":"44","type":"province","lat":36.2657178,"lng":1.9701347},{"id":1122,"name":"Aïn Témouchent","iso2":"46","type":"province","lat":35.2992698,"lng":-1.1392792},{"id":1144,"name":"Algiers","iso2":"16","type":"province","lat":36.7000509,"lng":3.0291266},{"id":1103,"name":"Annaba","iso2":"23","type":"province","lat":36.8438448,"lng":7.5981738},{"id":1142,"name":"Batna","iso2":"05","type":"province","lat":35.5492346,"lng":6.1160382},{"id":1108,"name":"Béchar","iso2":"08","type":"province","lat":31.6238098,"lng":-2.2162443},{"id":1128,"name":"Béjaïa","iso2":"06","type":"province","lat":36.7515258,"lng":5.0556837},{"id":4909,"name":"Béni Abbès","iso2":"53","type":"province","lat":30.108921,"lng":-2.4622548},{"id":1114,"name":"Biskra","iso2":"07","type":"province","lat":34.8449437,"lng":5.7248567},{"id":1111,"name":"Blida","iso2":"09","type":"province","lat":36.5012595,"lng":2.9517666},{"id":4908,"name":"Bordj Baji Mokhtar","iso2":"52","type":"province","lat":22.6261461,"lng":0.1275817},{"id":1116,"name":"Bordj Bou Arréridj","iso2":"34","type":"province","lat":36.0739925,"lng":4.7630271},{"id":1104,"name":"Bouïra","iso2":"10","type":"province","lat":36.3691846,"lng":3.9006194},{"id":1125,"name":"Boumerdès","iso2":"35","type":"province","lat":36.7358032,"lng":3.6163046},{"id":1105,"name":"Chlef","iso2":"02","type":"province","lat":36.164592,"lng":1.331499},{"id":1121,"name":"Constantine","iso2":"25","type":"province","lat":36.3584165,"lng":6.6671674},{"id":4912,"name":"Djanet","iso2":"56","type":"province","lat":24.071521,"lng":9.6155847},{"id":1098,"name":"Djelfa","iso2":"17","type":"province","lat":34.6703956,"lng":3.2503761},{"id":1129,"name":"El Bayadh","iso2":"32","type":"province","lat":32.570303,"lng":1.1259581},{"id":4905,"name":"El M'ghair","iso2":"49","type":"province","lat":33.95807,"lng":5.7011262},{"id":4906,"name":"El Menia","iso2":"50","type":"province","lat":30.7071885,"lng":3.0480625},{"id":1099,"name":"El Oued","iso2":"39","type":"province","lat":33.3611531,"lng":6.8606693},{"id":1100,"name":"El Tarf","iso2":"36","type":"province","lat":36.7667186,"lng":8.3169418},{"id":1127,"name":"Ghardaïa","iso2":"47","type":"province","lat":32.485855,"lng":3.677104},{"id":1137,"name":"Guelma","iso2":"24","type":"province","lat":36.4627444,"lng":7.4330833},{"id":1112,"name":"Illizi","iso2":"33","type":"province","lat":26.504191,"lng":8.479926},{"id":4914,"name":"In Guezzam","iso2":"58","type":"province","lat":20.42753,"lng":4.676631},{"id":4913,"name":"In Salah","iso2":"57","type":"province","lat":27.1950331,"lng":2.4826132},{"id":1113,"name":"Jijel","iso2":"18","type":"province","lat":36.7292188,"lng":5.9607776},{"id":1126,"name":"Khenchela","iso2":"40","type":"province","lat":35.4269404,"lng":7.1460155},{"id":1138,"name":"Laghouat","iso2":"03","type":"province","lat":33.8063451,"lng":2.8802635},{"id":1134,"name":"M'Sila","iso2":"28","type":"province","lat":35.7087553,"lng":4.5371552},{"id":1124,"name":"Mascara","iso2":"29","type":"province","lat":35.394081,"lng":0.1379568},{"id":1109,"name":"Médéa","iso2":"26","type":"province","lat":36.2637078,"lng":2.7587857},{"id":1132,"name":"Mila","iso2":"43","type":"province","lat":36.2502135,"lng":6.1652163},{"id":1140,"name":"Mostaganem","iso2":"27","type":"province","lat":36.0026915,"lng":0.3686867},{"id":1102,"name":"Naama","iso2":"45","type":"province","lat":33.2667317,"lng":-0.3128659},{"id":1101,"name":"Oran","iso2":"31","type":"province","lat":35.6215861,"lng":-0.7016143},{"id":1139,"name":"Ouargla","iso2":"30","type":"province","lat":31.9444998,"lng":5.3217813},{"id":4907,"name":"Ouled Djellal","iso2":"51","type":"province","lat":34.4254103,"lng":5.0644342},{"id":1136,"name":"Oum El Bouaghi","iso2":"04","type":"province","lat":35.8688789,"lng":7.1108266},{"id":1130,"name":"Relizane","iso2":"48","type":"province","lat":35.7381193,"lng":0.5547673},{"id":1123,"name":"Saïda","iso2":"20","type":"province","lat":34.8302067,"lng":0.1502692},{"id":1141,"name":"Sétif","iso2":"19","type":"province","lat":36.1893494,"lng":5.4046876},{"id":4902,"name":"Sidi Bel Abbès","iso2":"22","type":"province","lat":34.682268,"lng":-0.4357555},{"id":1110,"name":"Skikda","iso2":"21","type":"province","lat":36.7545115,"lng":6.8856255},{"id":1143,"name":"Souk Ahras","iso2":"41","type":"province","lat":36.282865,"lng":7.9537896},{"id":1135,"name":"Tamanghasset","iso2":"11","type":"province","lat":22.7859372,"lng":5.5291395},{"id":1117,"name":"Tébessa","iso2":"12","type":"province","lat":35.124945,"lng":7.9011735},{"id":1106,"name":"Tiaret","iso2":"14","type":"province","lat":35.3708689,"lng":1.3217852},{"id":4910,"name":"Timimoun","iso2":"54","type":"province","lat":30.0244725,"lng":0.8485979},{"id":1120,"name":"Tindouf","iso2":"37","type":"province","lat":27.543907,"lng":-6.2400411},{"id":1115,"name":"Tipasa","iso2":"42","type":"province","lat":36.527157,"lng":2.1672012},{"id":1133,"name":"Tissemsilt","iso2":"38","type":"province","lat":35.6053781,"lng":1.813098},{"id":1131,"name":"Tizi Ouzou","iso2":"15","type":"province","lat":36.6816175,"lng":4.237186},{"id":1107,"name":"Tlemcen","iso2":"13","type":"province","lat":34.667468,"lng":-1.2978132},{"id":4911,"name":"Touggourt","iso2":"55","type":"province","lat":33.1048574,"lng":6.0667276}]