[{"id":901,"name":"Abkhazia","iso2":"AB","type":"autonomous republic","lat":42.9967187,"lng":41.0544741},{"id":900,"name":"Adjara","iso2":"AJ","type":"autonomous republic","lat":41.6731508,"lng":41.9196652},{"id":907,"name":"Guria","iso2":"GU","type":"region","lat":41.9772681,"lng":41.9828262},{"id":905,"name":"Imereti","iso2":"IM","type":"region","lat":42.18756,"lng":42.9521554},{"id":910,"name":"Kakheti","iso2":"KA","type":"region","lat":41.8144317,"lng":45.7174977},{"id":904,"name":"Kvemo Kartli","iso2":"KK","type":"region","lat":41.5124578,"lng":44.5495369},{"id":902,"name":"Mtskheta-Mtianeti","iso2":"MM","type":"region","lat":42.2290312,"lng":44.8569963},{"id":909,"name":"Racha-Lechkhumi and Kvemo Svaneti","iso2":"RL","type":"region","lat":42.668849,"lng":43.125251},{"id":908,"name":"Samegrelo-Zemo Svaneti","iso2":"SZ","type":"region","lat":42.635452,"lng":42.2487138},{"id":906,"name":"Samtskhe-Javakheti","iso2":"SJ","type":"region","lat":41.5296305,"lng":43.2434208},{"id":903,"name":"Shida Kartli","iso2":"SK","type":"region","lat":41.9886836,"lng":43.986125},{"id":899,"name":"Tbilisi","iso2":"TB","type":"city","lat":41.6934591,"lng":44.8014495}]