[{"id":53,"name":"Ahafo","iso2":"AF","type":"region","lat":6.9096645,"lng":-2.2330123},{"id":48,"name":"Ashanti","iso2":"AH","type":"region","lat":6.8003319,"lng":-1.5188142},{"id":4959,"name":"Bono","iso2":"BO","type":"region","lat":7.8035236,"lng":-1.0876492},{"id":4958,"name":"Bono East","iso2":"BE","type":"region","lat":8.2247942,"lng":-0.6544711},{"id":52,"name":"Central","iso2":"CP","type":"region","lat":5.7244148,"lng":-1.3761749},{"id":50,"name":"Eastern","iso2":"EP","type":"region","lat":6.446877,"lng":-0.3770964},{"id":54,"name":"Greater Accra","iso2":"AA","type":"region","lat":5.8101532,"lng":0.0995242},{"id":4960,"name":"North East","iso2":"NE","type":"region","lat":10.5279933,"lng":-0.3698625},{"id":51,"name":"Northern","iso2":"NP","type":"region","lat":9.6600005,"lng":-0.3943799},{"id":4961,"name":"Oti","iso2":"OT","type":"region","lat":6.1064098,"lng":-0.2483786},{"id":4962,"name":"Savannah","iso2":"SV","type":"region","lat":9.1400654,"lng":-1.7111234},{"id":55,"name":"Upper East","iso2":"UE","type":"region","lat":10.7245907,"lng":-0.8196591},{"id":57,"name":"Upper West","iso2":"UW","type":"region","lat":10.3669525,"lng":-2.0921426},{"id":56,"name":"Volta","iso2":"TV","type":"region","lat":6.5348624,"lng":0.4556055},{"id":49,"name":"Western","iso2":"WP","type":"region","lat":5.4261241,"lng":-2.1286574},{"id":4963,"name":"Western North","iso2":"WN","type":"region","lat":6.2064665,"lng":-2.4855092}]