[{"id":2672,"name":"Beyla","iso2":"BE","type":"prefecture","lat":8.909432,"lng":-8.3674755},{"id":2699,"name":"Boffa","iso2":"BF","type":"prefecture","lat":10.1808254,"lng":-14.0391615},{"id":2676,"name":"Boké","iso2":"B","type":"administrative region","lat":11.3406898,"lng":-13.9440724},{"id":2709,"name":"Boké","iso2":"BK","type":"prefecture","lat":11.3406898,"lng":-13.9440724},{"id":2686,"name":"Conakry","iso2":"C","type":"governorate","lat":9.5170602,"lng":-13.6998434},{"id":2705,"name":"Coyah","iso2":"CO","type":"prefecture","lat":9.709041,"lng":-13.388956},{"id":2679,"name":"Dabola","iso2":"DB","type":"prefecture","lat":10.742172,"lng":-11.106486},{"id":2706,"name":"Dalaba","iso2":"DL","type":"prefecture","lat":10.6868176,"lng":-12.2490697},{"id":2688,"name":"Dinguiraye","iso2":"DI","type":"prefecture","lat":11.5325439,"lng":-10.6727268},{"id":2681,"name":"Dubréka","iso2":"DU","type":"prefecture","lat":9.7907348,"lng":-13.5147735},{"id":5344,"name":"Faranah","iso2":"F","type":"administrative region","lat":10.3143203,"lng":-10.890097},{"id":2682,"name":"Faranah","iso2":"FA","type":"prefecture","lat":10.042493,"lng":-10.740824},{"id":2683,"name":"Forécariah","iso2":"FO","type":"prefecture","lat":9.4300088,"lng":-13.0833859},{"id":2675,"name":"Fria","iso2":"FR","type":"prefecture","lat":10.3674543,"lng":-13.5841871},{"id":2685,"name":"Gaoual","iso2":"GA","type":"prefecture","lat":11.7243435,"lng":-13.2477875},{"id":2711,"name":"Guéckédou","iso2":"GU","type":"prefecture","lat":8.5649688,"lng":-10.1311163},{"id":2704,"name":"Kankan","iso2":"KA","type":"prefecture","lat":10.3835169,"lng":-9.3069354},{"id":2697,"name":"Kankan","iso2":"K","type":"administrative region","lat":10.3835169,"lng":-9.3069354},{"id":2710,"name":"Kérouané","iso2":"KE","type":"prefecture","lat":9.2705687,"lng":-9.0076196},{"id":2701,"name":"Kindia","iso2":"D","type":"administrative region","lat":10.0368,"lng":-12.8260215},{"id":2693,"name":"Kindia","iso2":"KD","type":"prefecture","lat":10.0368,"lng":-12.8260215},{"id":2691,"name":"Kissidougou","iso2":"KS","type":"prefecture","lat":9.192389,"lng":-10.098269},{"id":2692,"name":"Koubia","iso2":"KB","type":"prefecture","lat":11.582354,"lng":-11.8920237},{"id":2703,"name":"Koundara","iso2":"KN","type":"prefecture","lat":12.485154,"lng":-13.298509},{"id":2695,"name":"Kouroussa","iso2":"KO","type":"prefecture","lat":10.6489229,"lng":-9.8850586},{"id":2680,"name":"Labé","iso2":"LA","type":"prefecture","lat":11.3541939,"lng":-12.3463875},{"id":2677,"name":"Labé","iso2":"L","type":"administrative region","lat":11.3232042,"lng":-12.2891314},{"id":2690,"name":"Lélouma","iso2":"LE","type":"prefecture","lat":11.4257233,"lng":-12.6828521},{"id":2708,"name":"Lola","iso2":"LO","type":"prefecture","lat":8.0166961,"lng":-8.3078426},{"id":2702,"name":"Macenta","iso2":"MC","type":"prefecture","lat":8.2948292,"lng":-9.2094463},{"id":2700,"name":"Mali","iso2":"ML","type":"prefecture","lat":12.0420493,"lng":-12.2623061},{"id":2698,"name":"Mamou","iso2":"M","type":"administrative region","lat":10.6619269,"lng":-12.1139542},{"id":2689,"name":"Mamou","iso2":"MM","type":"prefecture","lat":10.6619269,"lng":-12.1139542},{"id":2673,"name":"Mandiana","iso2":"MD","type":"prefecture","lat":10.6172827,"lng":-8.6985716},{"id":2684,"name":"Nzérékoré","iso2":"N","type":"administrative region","lat":7.8932884,"lng":-8.8812922},{"id":2678,"name":"Nzérékoré","iso2":"NZ","type":"prefecture","lat":7.8932884,"lng":-8.8812922},{"id":2694,"name":"Pita","iso2":"PI","type":"prefecture","lat":10.8994295,"lng":-12.636091},{"id":2707,"name":"Siguiri","iso2":"SI","type":"prefecture","lat":11.4148113,"lng":-9.1788304},{"id":2687,"name":"Télimélé","iso2":"TE","type":"prefecture","lat":10.9089364,"lng":-13.0299331},{"id":2696,"name":"Tougué","iso2":"TO","type":"prefecture","lat":11.4394566,"lng":-11.6629484},{"id":2674,"name":"Yomou","iso2":"YO","type":"prefecture","lat":7.5696279,"lng":-9.2591571}]