[{"id":3444,"name":"Annobón","iso2":"AN","type":"province","lat":-1.4268782,"lng":5.6352801},{"id":3446,"name":"Bioko Norte","iso2":"BN","type":"province","lat":3.6484594,"lng":8.7851155},{"id":3443,"name":"Bioko Sur","iso2":"BS","type":"province","lat":3.4245254,"lng":8.6646092},{"id":3445,"name":"Centro Sur","iso2":"CS","type":"province","lat":1.3969966,"lng":10.4538528},{"id":5551,"name":"Djibloho","iso2":"DJ","type":"province","lat":1.6,"lng":10.8},{"id":3442,"name":"Insular","iso2":"I","type":"region","lat":3.4986523,"lng":8.7136062},{"id":3439,"name":"Kié-Ntem","iso2":"KN","type":"province","lat":2.0579266,"lng":10.9855916},{"id":3441,"name":"Litoral","iso2":"LI","type":"province","lat":1.6026374,"lng":9.841569},{"id":3438,"name":"Río Muni","iso2":"C","type":"region","lat":1.0570951,"lng":9.6532917},{"id":3440,"name":"Wele-Nzas","iso2":"WN","type":"province","lat":1.4648719,"lng":11.131676}]