[{"id":3671,"name":"Alta Verapaz ","iso2":"16","type":"department","lat":15.5949705,"lng":-90.0918031},{"id":3674,"name":"Baja Verapaz ","iso2":"15","type":"department","lat":15.1170798,"lng":-90.4109616},{"id":3675,"name":"Chimaltenango ","iso2":"04","type":"department","lat":14.6539748,"lng":-90.9272741},{"id":3666,"name":"Chiquimula ","iso2":"20","type":"department","lat":14.8005709,"lng":-89.5459173},{"id":3662,"name":"El Progreso ","iso2":"02","type":"department","lat":14.9100436,"lng":-90.0682728},{"id":3677,"name":"Escuintla ","iso2":"05","type":"department","lat":14.1921287,"lng":-91.0263791},{"id":3672,"name":"Guatemala ","iso2":"01","type":"department","lat":14.6416142,"lng":-90.5132836},{"id":3670,"name":"Huehuetenango ","iso2":"13","type":"department","lat":15.606418,"lng":-91.6442217},{"id":3659,"name":"Izabal ","iso2":"18","type":"department","lat":15.5700584,"lng":-88.9829247},{"id":3658,"name":"Jalapa ","iso2":"21","type":"department","lat":14.6344164,"lng":-89.9897996},{"id":3673,"name":"Jutiapa ","iso2":"22","type":"department","lat":14.1476859,"lng":-89.8872508},{"id":3669,"name":"Petén ","iso2":"17","type":"department","lat":16.8317906,"lng":-90.0450637},{"id":3668,"name":"Quetzaltenango ","iso2":"09","type":"department","lat":14.8594641,"lng":-91.5931586},{"id":3657,"name":"Quiché ","iso2":"14","type":"department","lat":15.4381786,"lng":-91.0075186},{"id":3664,"name":"Retalhuleu ","iso2":"11","type":"department","lat":14.5359621,"lng":-91.6780651},{"id":3676,"name":"Sacatepéquez ","iso2":"03","type":"department","lat":14.5531759,"lng":-90.7547018},{"id":3667,"name":"San Marcos ","iso2":"12","type":"department","lat":14.9533135,"lng":-91.9120444},{"id":3665,"name":"Santa Rosa ","iso2":"06","type":"department","lat":14.1501523,"lng":-90.3508818},{"id":3661,"name":"Sololá ","iso2":"07","type":"department","lat":14.7039412,"lng":-91.282818},{"id":3660,"name":"Suchitepéquez ","iso2":"10","type":"department","lat":14.3740226,"lng":-91.3650139},{"id":3663,"name":"Totonicapán ","iso2":"08","type":"department","lat":14.9173402,"lng":-91.3613923},{"id":5239,"name":"Zacapa","iso2":"19","type":"department","lat":14.9707219,"lng":-89.5297411}]