[{"id":4047,"name":"Atlántida","iso2":"AT","type":"department","lat":15.8172492,"lng":-87.1146935},{"id":4045,"name":"Bay Islands","iso2":"IB","type":"department","lat":16.3217674,"lng":-86.1786833},{"id":4041,"name":"Choluteca","iso2":"CH","type":"department","lat":13.3014081,"lng":-87.1842323},{"id":4051,"name":"Colón","iso2":"CL","type":"department","lat":15.7149552,"lng":-85.7023584},{"id":4042,"name":"Comayagua","iso2":"CM","type":"department","lat":14.5525837,"lng":-87.6903154},{"id":4049,"name":"Copán","iso2":"CP","type":"department","lat":14.8958685,"lng":-88.9255812},{"id":4046,"name":"Cortés","iso2":"CR","type":"department","lat":15.4784073,"lng":-88.0343858},{"id":4043,"name":"El Paraíso","iso2":"EP","type":"department","lat":13.9619941,"lng":-86.5627921},{"id":4052,"name":"Francisco Morazán","iso2":"FM","type":"department","lat":14.3430478,"lng":-87.1141957},{"id":4048,"name":"Gracias a Dios","iso2":"GD","type":"department","lat":15.4333305,"lng":-84.148687},{"id":4044,"name":"Intibucá","iso2":"IN","type":"department","lat":14.3121375,"lng":-88.1780847},{"id":4058,"name":"La Paz","iso2":"LP","type":"department","lat":14.1284089,"lng":-87.9615276},{"id":4054,"name":"Lempira","iso2":"LE","type":"department","lat":14.4556602,"lng":-88.6188558},{"id":4056,"name":"Ocotepeque","iso2":"OC","type":"department","lat":14.4759433,"lng":-89.0365633},{"id":4050,"name":"Olancho","iso2":"OL","type":"department","lat":14.8211028,"lng":-85.9549881},{"id":4053,"name":"Santa Bárbara","iso2":"SB","type":"department","lat":15.0960558,"lng":-88.3673692},{"id":4055,"name":"Valle","iso2":"VA","type":"department","lat":13.5110996,"lng":-87.5472925},{"id":4057,"name":"Yoro","iso2":"YO","type":"department","lat":15.2994474,"lng":-87.2916981}]