[{"id":734,"name":"Bjelovar-Bilogora","iso2":"07","type":"county","lat":45.7462142,"lng":16.9212335},{"id":737,"name":"Brod-Posavina","iso2":"12","type":"county","lat":45.1542669,"lng":18.0117761},{"id":728,"name":"Dubrovnik-Neretva","iso2":"19","type":"county","lat":42.8143166,"lng":17.3746628},{"id":743,"name":"Istria","iso2":"18","type":"county","lat":45.1934345,"lng":13.9150536},{"id":5069,"name":"Karlovac","iso2":"04","type":"county","lat":45.4892522,"lng":15.5486303},{"id":742,"name":"Koprivnica-Križevci","iso2":"06","type":"county","lat":46.1254508,"lng":16.8221278},{"id":729,"name":"Krapina-Zagorje","iso2":"02","type":"county","lat":46.0983218,"lng":15.9377404},{"id":731,"name":"Lika-Senj","iso2":"09","type":"county","lat":44.66818,"lng":15.3324696},{"id":726,"name":"Međimurje","iso2":"20","type":"county","lat":46.4061943,"lng":16.5472278},{"id":740,"name":"Osijek-Baranja","iso2":"14","type":"county","lat":45.541111,"lng":18.4384615},{"id":724,"name":"Požega-Slavonia","iso2":"11","type":"county","lat":45.4381151,"lng":17.5133687},{"id":735,"name":"Primorje-Gorski Kotar","iso2":"08","type":"county","lat":45.4225937,"lng":14.6172032},{"id":730,"name":"Šibenik-Knin","iso2":"15","type":"county","lat":43.9281485,"lng":16.1037694},{"id":733,"name":"Sisak-Moslavina","iso2":"03","type":"county","lat":45.3981666,"lng":16.4955111},{"id":725,"name":"Split-Dalmatia","iso2":"17","type":"county","lat":43.5003407,"lng":16.8156193},{"id":739,"name":"Varaždin","iso2":"05","type":"county","lat":46.3079645,"lng":16.3378198},{"id":732,"name":"Virovitica-Podravina","iso2":"10","type":"county","lat":45.7732751,"lng":17.5789161},{"id":741,"name":"Vukovar-Syrmia","iso2":"16","type":"county","lat":45.1672401,"lng":18.6389898},{"id":727,"name":"Zadar","iso2":"13","type":"county","lat":44.1168594,"lng":15.2353257},{"id":736,"name":"Zagreb","iso2":"01","type":"county","lat":45.8130967,"lng":15.9772795}]