[{"id":1095,"name":"Carlow","iso2":"CW","type":"county","lat":52.6907887,"lng":-6.8251452},{"id":1088,"name":"Cavan","iso2":"CN","type":"county","lat":53.9911042,"lng":-7.3603119},{"id":1091,"name":"Clare","iso2":"CE","type":"county","lat":53.3454937,"lng":-8.9860534},{"id":1087,"name":"Connacht","iso2":"C","type":"province","lat":53.7210278,"lng":-8.925256},{"id":1074,"name":"Cork","iso2":"CO","type":"county","lat":51.8985143,"lng":-8.4756035},{"id":1071,"name":"Donegal","iso2":"DL","type":"county","lat":54.6548993,"lng":-8.1040967},{"id":1072,"name":"Dublin","iso2":"D","type":"county","lat":53.3498053,"lng":-6.2603097},{"id":1079,"name":"Galway","iso2":"G","type":"county","lat":53.2744122,"lng":-9.0490601},{"id":1077,"name":"Kerry","iso2":"KY","type":"county","lat":52.1453345,"lng":-9.5174011},{"id":1082,"name":"Kildare","iso2":"KE","type":"county","lat":53.1543645,"lng":-6.8184423},{"id":1090,"name":"Kilkenny","iso2":"KK","type":"county","lat":52.5687098,"lng":-7.1889831},{"id":1096,"name":"Laois","iso2":"LS","type":"county","lat":52.9984575,"lng":-7.3980338},{"id":1073,"name":"Leinster","iso2":"L","type":"province","lat":53.118465,"lng":-6.9918183},{"id":5345,"name":"Leitrim","iso2":"LM","type":"county","lat":54.1401622,"lng":-8.0524782},{"id":1094,"name":"Limerick","iso2":"LK","type":"county","lat":52.5188316,"lng":-8.7958347},{"id":1076,"name":"Longford","iso2":"LD","type":"county","lat":53.7274982,"lng":-7.7931527},{"id":1083,"name":"Louth","iso2":"LH","type":"county","lat":53.9062848,"lng":-6.5320502},{"id":1084,"name":"Mayo","iso2":"MO","type":"county","lat":53.9087056,"lng":-9.2983049},{"id":1092,"name":"Meath","iso2":"MH","type":"county","lat":53.6497514,"lng":-6.5884245},{"id":1075,"name":"Monaghan","iso2":"MN","type":"county","lat":54.2492046,"lng":-6.9683132},{"id":1080,"name":"Munster","iso2":"M","type":"province","lat":52.3076216,"lng":-8.5708973},{"id":1078,"name":"Offaly","iso2":"OY","type":"county","lat":53.1361722,"lng":-7.8103408},{"id":1081,"name":"Roscommon","iso2":"RN","type":"county","lat":53.6982695,"lng":-8.2182508},{"id":1070,"name":"Sligo","iso2":"SO","type":"county","lat":54.1929861,"lng":-8.7305427},{"id":1069,"name":"Tipperary","iso2":"TA","type":"county","lat":52.4737894,"lng":-8.1618514},{"id":1086,"name":"Ulster","iso2":"U","type":"province","lat":54.0934659,"lng":-7.1989794},{"id":1089,"name":"Waterford","iso2":"WD","type":"county","lat":52.1509131,"lng":-7.6577982},{"id":1097,"name":"Westmeath","iso2":"WH","type":"county","lat":53.5577902,"lng":-7.3478558},{"id":1093,"name":"Wexford","iso2":"WX","type":"county","lat":52.4601874,"lng":-6.6065155},{"id":1085,"name":"Wicklow","iso2":"WW","type":"county","lat":52.9582099,"lng":-6.3814208}]