[{"id":1679,"name":"Abruzzo","iso2":"65","type":"region","lat":42.227681,"lng":13.854983},{"id":1727,"name":"Agrigento","iso2":"AG","type":"free municipal consortium","lat":37.3122991,"lng":13.57465},{"id":1783,"name":"Alessandria","iso2":"AL","type":"province","lat":44.8349533,"lng":8.7450304},{"id":1672,"name":"Ancona","iso2":"AN","type":"province","lat":43.4801189,"lng":13.2187279},{"id":1716,"name":"Aosta Valley","iso2":"23","type":"autonomous region","lat":45.730099,"lng":7.387426},{"id":1688,"name":"Apulia","iso2":"75","type":"region","lat":40.9842539,"lng":16.6210027},{"id":1761,"name":"Arezzo","iso2":"AR","type":"province","lat":43.5171442,"lng":11.7639282},{"id":1681,"name":"Ascoli Piceno","iso2":"AP","type":"province","lat":42.8546185,"lng":13.5755038},{"id":1780,"name":"Asti","iso2":"AT","type":"province","lat":44.9007652,"lng":8.2064315},{"id":1692,"name":"Avellino","iso2":"AV","type":"province","lat":40.9965446,"lng":15.140569},{"id":5626,"name":"Bari","iso2":"BA","type":"metropolitan city","lat":41.117143,"lng":16.871872},{"id":1686,"name":"Barletta-Andria-Trani","iso2":"BT","type":"province","lat":41.180172,"lng":16.1466408},{"id":1706,"name":"Basilicata","iso2":"77","type":"region","lat":40.500571,"lng":16.081953},{"id":1689,"name":"Belluno","iso2":"BL","type":"province","lat":46.2805407,"lng":12.0789137},{"id":1701,"name":"Benevento","iso2":"BN","type":"province","lat":41.2476307,"lng":14.7057054},{"id":1704,"name":"Bergamo","iso2":"BG","type":"province","lat":45.6982642,"lng":9.6772698},{"id":1778,"name":"Biella","iso2":"BI","type":"province","lat":45.5628176,"lng":8.0582717},{"id":5627,"name":"Bologna","iso2":"BO","type":"metropolitan city","lat":44.494887,"lng":11.342621},{"id":1717,"name":"Brescia","iso2":"BS","type":"province","lat":45.5415526,"lng":10.2118019},{"id":1714,"name":"Brindisi","iso2":"BR","type":"province","lat":40.6358599,"lng":17.6884975},{"id":5628,"name":"Cagliari","iso2":"CA","type":"metropolitan city","lat":39.223804,"lng":9.121667},{"id":1703,"name":"Calabria","iso2":"78","type":"region","lat":39.0565974,"lng":16.5249864},{"id":1718,"name":"Caltanissetta","iso2":"CL","type":"free municipal consortium","lat":37.486013,"lng":14.0614982},{"id":1669,"name":"Campania","iso2":"72","type":"region","lat":40.860672,"lng":14.843984},{"id":1721,"name":"Campobasso","iso2":"CB","type":"province","lat":41.7172648,"lng":14.8262267},{"id":1731,"name":"Caserta","iso2":"CE","type":"province","lat":41.2035192,"lng":14.1168624},{"id":5629,"name":"Catania","iso2":"CT","type":"metropolitan city","lat":37.502878,"lng":15.087042},{"id":1728,"name":"Catanzaro","iso2":"CZ","type":"province","lat":38.8299603,"lng":16.4315569},{"id":1739,"name":"Chieti","iso2":"CH","type":"province","lat":42.1026928,"lng":14.4159053},{"id":1740,"name":"Como","iso2":"CO","type":"province","lat":45.8080416,"lng":9.0851793},{"id":1742,"name":"Cosenza","iso2":"CS","type":"province","lat":39.5966853,"lng":16.3330556},{"id":1751,"name":"Cremona","iso2":"CR","type":"province","lat":45.2208641,"lng":10.037038},{"id":1754,"name":"Crotone","iso2":"KR","type":"province","lat":39.0806223,"lng":17.127196},{"id":1775,"name":"Cuneo","iso2":"CN","type":"province","lat":44.4580703,"lng":7.5581367},{"id":1773,"name":"Emilia-Romagna","iso2":"45","type":"region","lat":44.525696,"lng":11.039437},{"id":1723,"name":"Enna","iso2":"EN","type":"free municipal consortium","lat":37.5676216,"lng":14.2795349},{"id":1744,"name":"Fermo","iso2":"FM","type":"province","lat":43.0922489,"lng":13.6387681},{"id":1746,"name":"Ferrara","iso2":"FE","type":"province","lat":44.7667642,"lng":11.827939},{"id":5630,"name":"Florence","iso2":"FI","type":"metropolitan city","lat":43.769231,"lng":11.255884},{"id":1771,"name":"Foggia","iso2":"FG","type":"province","lat":41.5028105,"lng":15.4528939},{"id":1779,"name":"Forlì-Cesena","iso2":"FC","type":"province","lat":44.0227193,"lng":12.0141036},{"id":1756,"name":"Friuli–Venezia Giulia","iso2":"36","type":"autonomous region","lat":46.151042,"lng":13.055904},{"id":1776,"name":"Frosinone","iso2":"FR","type":"province","lat":41.6285468,"lng":13.5758498},{"id":5631,"name":"Genoa","iso2":"GE","type":"metropolitan city","lat":44.411491,"lng":8.932859},{"id":1777,"name":"Gorizia","iso2":"GO","type":"decentralized regional entity","lat":45.862521,"lng":13.4979259},{"id":1787,"name":"Grosseto","iso2":"GR","type":"province","lat":42.7751102,"lng":11.2878044},{"id":1788,"name":"Imperia","iso2":"IM","type":"province","lat":43.9583753,"lng":7.8667427},{"id":1789,"name":"Isernia","iso2":"IS","type":"province","lat":41.600175,"lng":14.2383017},{"id":1781,"name":"L'Aquila","iso2":"AQ","type":"province","lat":42.1368853,"lng":13.610341},{"id":1791,"name":"La Spezia","iso2":"SP","type":"province","lat":44.238366,"lng":9.6912326},{"id":1674,"name":"Latina","iso2":"LT","type":"province","lat":41.4595261,"lng":13.0125912},{"id":1678,"name":"Lazio","iso2":"62","type":"region","lat":41.9808038,"lng":12.7662312},{"id":1675,"name":"Lecce","iso2":"LE","type":"province","lat":40.1522173,"lng":18.2260628},{"id":1677,"name":"Lecco","iso2":"LC","type":"province","lat":45.9005485,"lng":9.4120248},{"id":1768,"name":"Liguria","iso2":"42","type":"region","lat":44.4777617,"lng":8.7026296},{"id":1745,"name":"Livorno","iso2":"LI","type":"province","lat":42.7902379,"lng":10.3402239},{"id":1747,"name":"Lodi","iso2":"LO","type":"province","lat":45.2613104,"lng":9.4916781},{"id":1705,"name":"Lombardy","iso2":"25","type":"region","lat":45.5703694,"lng":9.7732524},{"id":1749,"name":"Lucca","iso2":"LU","type":"province","lat":43.8376736,"lng":10.495053},{"id":1750,"name":"Macerata","iso2":"MC","type":"province","lat":43.1529781,"lng":13.1508822},{"id":1758,"name":"Mantua","iso2":"MN","type":"province","lat":45.1566683,"lng":10.7917191},{"id":1670,"name":"Marche","iso2":"57","type":"region","lat":43.3458388,"lng":13.1415872},{"id":1759,"name":"Massa and Carrara","iso2":"MS","type":"province","lat":44.0410162,"lng":10.1554922},{"id":1760,"name":"Matera","iso2":"MT","type":"province","lat":40.6663496,"lng":16.6043636},{"id":5632,"name":"Messina","iso2":"ME","type":"metropolitan city","lat":38.19395,"lng":15.552562},{"id":5633,"name":"Milan","iso2":"MI","type":"metropolitan city","lat":45.466794,"lng":9.190072},{"id":1757,"name":"Modena","iso2":"MO","type":"province","lat":44.5384728,"lng":10.9359609},{"id":1695,"name":"Molise","iso2":"67","type":"region","lat":41.630828,"lng":14.492925},{"id":1769,"name":"Monza and Brianza","iso2":"MB","type":"province","lat":45.6395418,"lng":9.2788304},{"id":5634,"name":"Naples","iso2":"NA","type":"metropolitan city","lat":40.851777,"lng":14.268117},{"id":1774,"name":"Novara","iso2":"NO","type":"province","lat":45.58425,"lng":8.545997},{"id":1790,"name":"Nuoro","iso2":"NU","type":"province","lat":40.3210601,"lng":9.3297339},{"id":1786,"name":"Oristano","iso2":"OR","type":"province","lat":40.0265676,"lng":8.6796416},{"id":1665,"name":"Padua","iso2":"PD","type":"province","lat":45.391408,"lng":11.8058487},{"id":1668,"name":"Palermo","iso2":"PA","type":"metropolitan city","lat":38.11569,"lng":13.3614868},{"id":1666,"name":"Parma","iso2":"PR","type":"province","lat":44.8015322,"lng":10.3279354},{"id":1676,"name":"Pavia","iso2":"PV","type":"province","lat":45.1860043,"lng":9.1546375},{"id":1691,"name":"Perugia","iso2":"PG","type":"province","lat":43.1119613,"lng":12.3890104},{"id":1693,"name":"Pesaro and Urbino","iso2":"PU","type":"province","lat":43.6130118,"lng":12.7135121},{"id":1694,"name":"Pescara","iso2":"PE","type":"province","lat":42.3102619,"lng":13.9575901},{"id":1696,"name":"Piacenza","iso2":"PC","type":"province","lat":44.8476352,"lng":9.6665313},{"id":1702,"name":"Piedmont","iso2":"21","type":"region","lat":45.060735,"lng":7.923549},{"id":1685,"name":"Pisa","iso2":"PI","type":"province","lat":43.7228315,"lng":10.4017194},{"id":1687,"name":"Pistoia","iso2":"PT","type":"province","lat":43.9740957,"lng":10.8687081},{"id":1690,"name":"Pordenone","iso2":"PN","type":"decentralized regional entity","lat":46.1017367,"lng":12.7039028},{"id":1697,"name":"Potenza","iso2":"PZ","type":"province","lat":40.5173119,"lng":15.8216088},{"id":1700,"name":"Prato","iso2":"PO","type":"province","lat":43.9357181,"lng":11.0941473},{"id":1729,"name":"Ragusa","iso2":"RG","type":"free municipal consortium","lat":36.9269273,"lng":14.7255129},{"id":1707,"name":"Ravenna","iso2":"RA","type":"province","lat":44.4184443,"lng":12.2035998},{"id":5635,"name":"Reggio Calabria","iso2":"RC","type":"metropolitan city","lat":38.108822,"lng":15.643922},{"id":1708,"name":"Reggio Emilia","iso2":"RE","type":"province","lat":44.6086674,"lng":10.5940667},{"id":1712,"name":"Rieti","iso2":"RI","type":"province","lat":42.4026569,"lng":12.860813},{"id":1713,"name":"Rimini","iso2":"RN","type":"province","lat":44.0678288,"lng":12.5695158},{"id":5636,"name":"Rome","iso2":"RM","type":"metropolitan city","lat":41.89277,"lng":12.48366},{"id":1719,"name":"Rovigo","iso2":"RO","type":"province","lat":45.0698166,"lng":11.78882},{"id":1720,"name":"Salerno","iso2":"SA","type":"province","lat":40.4194416,"lng":15.3106085},{"id":1715,"name":"Sardinia","iso2":"88","type":"autonomous region","lat":40.0912813,"lng":9.0305773},{"id":1722,"name":"Sassari","iso2":"SS","type":"province","lat":40.7234746,"lng":8.5612674},{"id":1732,"name":"Savona","iso2":"SV","type":"province","lat":44.2334238,"lng":8.2525727},{"id":1709,"name":"Sicily","iso2":"82","type":"autonomous region","lat":37.587794,"lng":14.155048},{"id":1734,"name":"Siena","iso2":"SI","type":"province","lat":43.3185536,"lng":11.3316533},{"id":1667,"name":"Siracusa","iso2":"SR","type":"free municipal consortium","lat":37.0656924,"lng":15.2857109},{"id":1741,"name":"Sondrio","iso2":"SO","type":"province","lat":46.1713553,"lng":9.8734274},{"id":1730,"name":"South Sardinia","iso2":"SU","type":"province","lat":39.3893535,"lng":8.9397},{"id":5639,"name":"South Tyrol","iso2":"BZ","type":"autonomous province","lat":46.499335,"lng":11.356622},{"id":1743,"name":"Taranto","iso2":"TA","type":"province","lat":40.4712427,"lng":17.2432278},{"id":1752,"name":"Teramo","iso2":"TE","type":"province","lat":42.6581179,"lng":13.6978746},{"id":1755,"name":"Terni","iso2":"TR","type":"province","lat":42.5641417,"lng":12.6405466},{"id":1733,"name":"Trapani","iso2":"TP","type":"free municipal consortium","lat":38.0183116,"lng":12.5148265},{"id":5640,"name":"Trentino","iso2":"TN","type":"autonomous province","lat":46.067878,"lng":11.121083},{"id":1725,"name":"Trentino-South Tyrol","iso2":"32","type":"autonomous region","lat":46.4995934,"lng":11.3553015},{"id":1762,"name":"Treviso","iso2":"TV","type":"province","lat":45.6668517,"lng":12.2430617},{"id":1763,"name":"Trieste","iso2":"TS","type":"decentralized regional entity","lat":45.6894823,"lng":13.7833072},{"id":5637,"name":"Turin","iso2":"TO","type":"metropolitan city","lat":45.070496,"lng":7.686822},{"id":1664,"name":"Tuscany","iso2":"52","type":"region","lat":43.4586541,"lng":11.1389204},{"id":1764,"name":"Udine","iso2":"UD","type":"decentralized regional entity","lat":46.145948,"lng":13.2974303},{"id":1683,"name":"Umbria","iso2":"55","type":"region","lat":42.965916,"lng":12.490236},{"id":1765,"name":"Varese","iso2":"VA","type":"province","lat":45.8397203,"lng":8.7541338},{"id":1753,"name":"Veneto","iso2":"34","type":"region","lat":45.6476663,"lng":11.8665254},{"id":5638,"name":"Venice","iso2":"VE","type":"metropolitan city","lat":45.434097,"lng":12.338906},{"id":1726,"name":"Verbano-Cusio-Ossola","iso2":"VB","type":"province","lat":46.1155755,"lng":8.3835967},{"id":1785,"name":"Vercelli","iso2":"VC","type":"province","lat":45.3202204,"lng":8.418508},{"id":1736,"name":"Verona","iso2":"VR","type":"province","lat":45.4384958,"lng":10.9924122},{"id":1737,"name":"Vibo Valentia","iso2":"VV","type":"province","lat":38.6266556,"lng":16.0986935},{"id":1738,"name":"Vicenza","iso2":"VI","type":"province","lat":45.6348591,"lng":11.4063543},{"id":1735,"name":"Viterbo","iso2":"VT","type":"province","lat":42.4929522,"lng":11.9488136}]