[{"id":3998,"name":"Chagang","iso2":"04","type":"province","lat":40.7198536,"lng":126.539056},{"id":5719,"name":"Kaesong","iso2":"15","type":"metropolitan city","lat":37.97166667,"lng":126.55277778},{"id":3999,"name":"Kangwon","iso2":"07","type":"province","lat":38.8354349,"lng":127.5146547},{"id":5718,"name":"Nampho","iso2":"14","type":"metropolitan city","lat":38.73555556,"lng":125.40888889},{"id":3995,"name":"North Hamgyong","iso2":"09","type":"province","lat":41.9098723,"lng":129.369056},{"id":4004,"name":"North Hwanghae","iso2":"06","type":"province","lat":38.5709632,"lng":126.2465723},{"id":4002,"name":"North Pyongan","iso2":"03","type":"province","lat":40.0642847,"lng":125.2356222},{"id":4005,"name":"Pyongyang","iso2":"01","type":"capital city","lat":39.0167979,"lng":125.7473609},{"id":4001,"name":"Rason","iso2":"13","type":"special city","lat":42.2497316,"lng":130.3113296},{"id":3996,"name":"Ryanggang","iso2":"10","type":"province","lat":41.0997898,"lng":128.1690346},{"id":4000,"name":"South Hamgyong","iso2":"08","type":"province","lat":40.119918,"lng":127.5990989},{"id":4003,"name":"South Hwanghae","iso2":"05","type":"province","lat":38.2628262,"lng":125.476901},{"id":3997,"name":"South Pyongan","iso2":"02","type":"province","lat":39.5416505,"lng":126.0647645}]