[{"id":2285,"name":"Akkar","iso2":"AK","type":"governorate","lat":34.5555009,"lng":36.2016453},{"id":2283,"name":"Baalbek-Hermel","iso2":"BH","type":"governorate","lat":34.168333,"lng":36.3134617},{"id":2286,"name":"Beirut","iso2":"BA","type":"governorate","lat":33.8886106,"lng":35.4954772},{"id":2287,"name":"Beqaa","iso2":"BI","type":"governorate","lat":33.6746204,"lng":35.8333757},{"id":2282,"name":"Mount Lebanon","iso2":"JL","type":"governorate","lat":34.29,"lng":36.092},{"id":2288,"name":"Nabatieh","iso2":"NA","type":"governorate","lat":33.3771693,"lng":35.4838293},{"id":2284,"name":"North","iso2":"AS","type":"governorate","lat":34.29,"lng":36.092},{"id":2281,"name":"South","iso2":"JA","type":"governorate","lat":34.4115339,"lng":-81.204814}]