[{"id":3030,"name":"Berea","iso2":"D","type":"district","lat":-29.1963971,"lng":27.9175581},{"id":3029,"name":"Butha-Buthe","iso2":"B","type":"district","lat":-28.7653754,"lng":28.2468148},{"id":3026,"name":"Leribe","iso2":"C","type":"district","lat":-28.866891,"lng":28.0579408},{"id":3022,"name":"Mafeteng","iso2":"E","type":"district","lat":-29.7893049,"lng":27.4423193},{"id":3028,"name":"Maseru","iso2":"A","type":"district","lat":-29.5816942,"lng":27.8243208},{"id":3023,"name":"Mohale's Hoek","iso2":"F","type":"district","lat":-30.1516305,"lng":27.4770113},{"id":3024,"name":"Mokhotlong","iso2":"J","type":"district","lat":-29.2190697,"lng":29.0351369},{"id":3025,"name":"Qacha's Nek","iso2":"H","type":"district","lat":-30.1114565,"lng":28.678979},{"id":3027,"name":"Quthing","iso2":"G","type":"district","lat":-30.4015687,"lng":27.7080133},{"id":3031,"name":"Thaba-Tseka","iso2":"K","type":"district","lat":-29.5151832,"lng":28.6036179}]