[{"id":703,"name":"Aerodrom","iso2":"801","type":"municipality","lat":41.9678028,"lng":21.509022},{"id":656,"name":"Aračinovo","iso2":"802","type":"municipality","lat":42.0252965,"lng":21.5577659},{"id":716,"name":"Berovo","iso2":"201","type":"municipality","lat":41.6697382,"lng":22.8173735},{"id":679,"name":"Bitola","iso2":"501","type":"municipality","lat":41.0363302,"lng":21.3321974},{"id":649,"name":"Bogdanci","iso2":"401","type":"municipality","lat":41.1869616,"lng":22.5960268},{"id":721,"name":"Bogovinje","iso2":"601","type":"municipality","lat":41.9236371,"lng":20.9163887},{"id":652,"name":"Bosilovo","iso2":"402","type":"municipality","lat":41.4815119,"lng":22.7753815},{"id":660,"name":"Brvenica","iso2":"602","type":"municipality","lat":41.9681482,"lng":20.9819586},{"id":694,"name":"Butel","iso2":"803","type":"municipality","lat":42.0895068,"lng":21.463361},{"id":704,"name":"Čair","iso2":"815","type":"municipality","lat":42.0106711,"lng":21.4382077},{"id":676,"name":"Čaška","iso2":"109","type":"municipality","lat":41.647438,"lng":21.6914115},{"id":702,"name":"Centar","iso2":"814","type":"municipality","lat":41.9942955,"lng":21.4302494},{"id":720,"name":"Centar Župa","iso2":"313","type":"municipality","lat":41.4652259,"lng":20.5930548},{"id":644,"name":"Češinovo-Obleševo","iso2":"210","type":"municipality","lat":41.8753449,"lng":22.2900045},{"id":715,"name":"Čučer-Sandevo","iso2":"816","type":"municipality","lat":42.0994869,"lng":21.3868611},{"id":5726,"name":"Debar","iso2":"303","type":"municipality","lat":41.5230655,"lng":20.5238389},{"id":645,"name":"Debarca","iso2":"304","type":"municipality","lat":41.9964319,"lng":21.4239442},{"id":695,"name":"Delčevo","iso2":"203","type":"municipality","lat":41.9668344,"lng":22.7767722},{"id":687,"name":"Demir Hisar","iso2":"502","type":"municipality","lat":41.2198967,"lng":21.2020872},{"id":655,"name":"Demir Kapija","iso2":"103","type":"municipality","lat":41.4087136,"lng":22.2418571},{"id":697,"name":"Dojran","iso2":"406","type":"municipality","lat":41.2253118,"lng":22.7040294},{"id":675,"name":"Dolneni","iso2":"503","type":"municipality","lat":41.4818058,"lng":21.4060444},{"id":707,"name":"Gazi Baba","iso2":"804","type":"municipality","lat":41.9984446,"lng":21.4737249},{"id":648,"name":"Gevgelija","iso2":"405","type":"municipality","lat":41.1388664,"lng":22.5033192},{"id":722,"name":"Gjorče Petrov","iso2":"805","type":"municipality","lat":42.0174648,"lng":21.3642753},{"id":693,"name":"Gostivar","iso2":"604","type":"municipality","lat":41.7920222,"lng":20.9081703},{"id":708,"name":"Gradsko","iso2":"102","type":"municipality","lat":41.6133568,"lng":21.886077},{"id":690,"name":"Ilinden","iso2":"807","type":"municipality","lat":41.9957443,"lng":21.5676975},{"id":678,"name":"Jegunovce","iso2":"606","type":"municipality","lat":42.074072,"lng":21.1220478},{"id":674,"name":"Karbinci","iso2":"205","type":"municipality","lat":41.8180159,"lng":22.2324758},{"id":681,"name":"Karpoš","iso2":"808","type":"municipality","lat":42.0062279,"lng":21.3862569},{"id":713,"name":"Kavadarci","iso2":"104","type":"municipality","lat":41.4332802,"lng":22.0122593},{"id":688,"name":"Kičevo","iso2":"307","type":"municipality","lat":41.5129112,"lng":20.9525065},{"id":686,"name":"Kisela Voda","iso2":"809","type":"municipality","lat":41.9794265,"lng":21.4396002},{"id":723,"name":"Kočani","iso2":"206","type":"municipality","lat":41.9211332,"lng":22.4114182},{"id":665,"name":"Konče","iso2":"407","type":"municipality","lat":41.5205634,"lng":22.4036343},{"id":641,"name":"Kratovo","iso2":"701","type":"municipality","lat":42.0962163,"lng":22.1686735},{"id":677,"name":"Kriva Palanka","iso2":"702","type":"municipality","lat":42.2058454,"lng":22.3307965},{"id":647,"name":"Krivogaštani","iso2":"504","type":"municipality","lat":41.3238376,"lng":21.3818519},{"id":714,"name":"Kruševo","iso2":"505","type":"municipality","lat":41.3720324,"lng":21.2484351},{"id":683,"name":"Kumanovo","iso2":"703","type":"municipality","lat":42.135913,"lng":21.7185474},{"id":659,"name":"Lipkovo","iso2":"704","type":"municipality","lat":42.1658209,"lng":21.5843497},{"id":705,"name":"Lozovo","iso2":"105","type":"municipality","lat":41.7818139,"lng":21.9000827},{"id":701,"name":"Makedonska Kamenica","iso2":"207","type":"municipality","lat":42.0219096,"lng":22.588719},{"id":692,"name":"Makedonski Brod","iso2":"308","type":"municipality","lat":41.5133088,"lng":21.2174329},{"id":669,"name":"Mavrovo and Rostuša","iso2":"607","type":"municipality","lat":41.6441167,"lng":20.6590893},{"id":653,"name":"Mogila","iso2":"506","type":"municipality","lat":41.1768776,"lng":21.4078968},{"id":664,"name":"Negotino","iso2":"106","type":"municipality","lat":41.4844229,"lng":22.0905903},{"id":696,"name":"Novaci","iso2":"507","type":"municipality","lat":41.0442661,"lng":21.4588894},{"id":718,"name":"Novo Selo","iso2":"408","type":"municipality","lat":41.4126325,"lng":22.8835556},{"id":699,"name":"Ohrid","iso2":"310","type":"municipality","lat":41.1170203,"lng":20.8017715},{"id":685,"name":"Pehčevo","iso2":"208","type":"municipality","lat":41.7635729,"lng":22.8873017},{"id":698,"name":"Petrovec","iso2":"810","type":"municipality","lat":41.9029897,"lng":21.689921},{"id":670,"name":"Plasnica","iso2":"311","type":"municipality","lat":41.4546349,"lng":21.1056539},{"id":666,"name":"Prilep","iso2":"508","type":"municipality","lat":41.3444984,"lng":21.5527115},{"id":646,"name":"Probištip","iso2":"209","type":"municipality","lat":41.9589146,"lng":22.166867},{"id":709,"name":"Radoviš","iso2":"409","type":"municipality","lat":41.6495531,"lng":22.4768287},{"id":717,"name":"Rankovce","iso2":"705","type":"municipality","lat":42.1686201,"lng":22.1165518},{"id":712,"name":"Resen","iso2":"509","type":"municipality","lat":41.0327674,"lng":20.9917789},{"id":691,"name":"Rosoman","iso2":"107","type":"municipality","lat":41.5002371,"lng":21.9057322},{"id":667,"name":"Saraj","iso2":"811","type":"municipality","lat":41.9999161,"lng":21.328197},{"id":719,"name":"Sopište","iso2":"812","type":"municipality","lat":41.8484973,"lng":21.2971559},{"id":643,"name":"Staro Nagoričane","iso2":"706","type":"municipality","lat":42.1990188,"lng":21.8294161},{"id":661,"name":"Štip","iso2":"211","type":"municipality","lat":41.7374724,"lng":22.1935856},{"id":700,"name":"Struga","iso2":"312","type":"municipality","lat":41.1770278,"lng":20.6790586},{"id":710,"name":"Strumica","iso2":"410","type":"municipality","lat":41.4378004,"lng":22.6427428},{"id":711,"name":"Studeničani","iso2":"813","type":"municipality","lat":41.9225639,"lng":21.5363965},{"id":680,"name":"Šuto Orizari","iso2":"817","type":"municipality","lat":42.0405453,"lng":21.423591},{"id":640,"name":"Sveti Nikole","iso2":"108","type":"municipality","lat":41.8647339,"lng":21.9420506},{"id":654,"name":"Tearce","iso2":"608","type":"municipality","lat":42.0777511,"lng":21.0534923},{"id":663,"name":"Tetovo","iso2":"609","type":"municipality","lat":42.0068297,"lng":20.9728556},{"id":671,"name":"Valandovo","iso2":"403","type":"municipality","lat":41.3373804,"lng":22.5156752},{"id":658,"name":"Vasilevo","iso2":"404","type":"municipality","lat":41.4741699,"lng":22.6422128},{"id":651,"name":"Veles","iso2":"101","type":"municipality","lat":41.718869,"lng":21.7705695},{"id":662,"name":"Vevčani","iso2":"301","type":"municipality","lat":41.2407543,"lng":20.5915649},{"id":672,"name":"Vinica","iso2":"202","type":"municipality","lat":41.8607399,"lng":22.5928454},{"id":689,"name":"Vrapčište","iso2":"603","type":"municipality","lat":41.879116,"lng":20.83145},{"id":706,"name":"Zelenikovo","iso2":"806","type":"municipality","lat":41.8860408,"lng":21.5869671},{"id":668,"name":"Želino","iso2":"605","type":"municipality","lat":41.9262923,"lng":21.1175782},{"id":673,"name":"Zrnovci","iso2":"204","type":"municipality","lat":41.8373714,"lng":22.4287013}]