[{"id":3456,"name":"Aguascalientes","iso2":"AGU","type":"state","lat":21.8852562,"lng":-102.2915677},{"id":3457,"name":"Baja California","iso2":"BCN","type":"state","lat":30.0338923,"lng":-115.1425107},{"id":3460,"name":"Baja California Sur","iso2":"BCS","type":"state","lat":25.5818014,"lng":-111.5706164},{"id":3475,"name":"Campeche","iso2":"CAM","type":"state","lat":19.8381215,"lng":-90.5198253},{"id":3451,"name":"Chiapas","iso2":"CHP","type":"state","lat":16.5000001,"lng":-92.5000001},{"id":3447,"name":"Chihuahua","iso2":"CHH","type":"state","lat":28.6329957,"lng":-106.0691004},{"id":3473,"name":"Ciudad de México","iso2":"CMX","type":"federal district","lat":19.4326077,"lng":-99.133208},{"id":3471,"name":"Coahuila de Zaragoza","iso2":"COA","type":"state","lat":27.3333331,"lng":-102.0000001},{"id":3472,"name":"Colima","iso2":"COL","type":"state","lat":19.2452342,"lng":-103.7240868},{"id":3453,"name":"Durango","iso2":"DUR","type":"state","lat":24.833333,"lng":-104.833333},{"id":3450,"name":"Estado de México","iso2":"MEX","type":"state","lat":19.4839446,"lng":-99.6899716},{"id":3469,"name":"Guanajuato","iso2":"GUA","type":"state","lat":21.0190145,"lng":-101.2573586},{"id":3459,"name":"Guerrero","iso2":"GRO","type":"state","lat":17.666667,"lng":-100.0},{"id":3470,"name":"Hidalgo","iso2":"HID","type":"state","lat":24.1685545,"lng":-99.3873729},{"id":4857,"name":"Jalisco","iso2":"JAL","type":"state","lat":20.3333331,"lng":-103.6666671},{"id":3474,"name":"Michoacán de Ocampo","iso2":"MIC","type":"state","lat":19.207098,"lng":-101.878113},{"id":3465,"name":"Morelos","iso2":"MOR","type":"state","lat":18.75,"lng":-99.0},{"id":3477,"name":"Nayarit","iso2":"NAY","type":"state","lat":22.0000001,"lng":-105.0000001},{"id":3452,"name":"Nuevo León","iso2":"NLE","type":"state","lat":26.2384363,"lng":-99.8873},{"id":3448,"name":"Oaxaca","iso2":"OAX","type":"state","lat":17.0,"lng":-96.5},{"id":3476,"name":"Puebla","iso2":"PUE","type":"state","lat":19.0414398,"lng":-98.2062727},{"id":3455,"name":"Querétaro","iso2":"QUE","type":"state","lat":20.5887932,"lng":-100.3898881},{"id":3467,"name":"Quintana Roo","iso2":"ROO","type":"state","lat":19.6666671,"lng":-88.5000001},{"id":3461,"name":"San Luis Potosí","iso2":"SLP","type":"state","lat":22.1516472,"lng":-100.9763993},{"id":3449,"name":"Sinaloa","iso2":"SIN","type":"state","lat":25.0000001,"lng":-107.5000001},{"id":3468,"name":"Sonora","iso2":"SON","type":"state","lat":29.3333331,"lng":-110.6666671},{"id":3454,"name":"Tabasco","iso2":"TAB","type":"state","lat":17.9999288,"lng":-92.6681659},{"id":3463,"name":"Tamaulipas","iso2":"TAM","type":"state","lat":23.9891553,"lng":-98.7026825},{"id":3458,"name":"Tlaxcala","iso2":"TLA","type":"state","lat":19.318154,"lng":-98.2374954},{"id":3464,"name":"Veracruz de Ignacio de la Llave","iso2":"VER","type":"state","lat":19.333333,"lng":-96.666667},{"id":3466,"name":"Yucatán","iso2":"YUC","type":"state","lat":20.6845957,"lng":-88.8755669},{"id":3462,"name":"Zacatecas","iso2":"ZAC","type":"state","lat":22.7753891,"lng":-102.5722706}]