[{"id":43,"name":"Erongo","iso2":"ER","type":"region","lat":-22.0278147,"lng":15.389358},{"id":38,"name":"Hardap","iso2":"HA","type":"region","lat":-24.4140944,"lng":17.4134051},{"id":45,"name":"Karas","iso2":"KA","type":"region","lat":-26.8752094,"lng":17.7634818},{"id":36,"name":"Kavango East","iso2":"KE","type":"region","lat":-18.3982355,"lng":20.72468},{"id":35,"name":"Kavango West","iso2":"KW","type":"region","lat":-18.256111,"lng":18.970201},{"id":44,"name":"Khomas","iso2":"KH","type":"region","lat":-22.9082553,"lng":17.09198},{"id":34,"name":"Kunene","iso2":"KU","type":"region","lat":-19.6792809,"lng":13.9756564},{"id":40,"name":"Ohangwena","iso2":"OW","type":"region","lat":-17.5877369,"lng":16.7737955},{"id":41,"name":"Omaheke","iso2":"OH","type":"region","lat":-21.9074676,"lng":19.3929661},{"id":39,"name":"Omusati","iso2":"OS","type":"region","lat":-18.2862314,"lng":14.8856679},{"id":37,"name":"Oshana","iso2":"ON","type":"region","lat":-18.4702308,"lng":15.7434419},{"id":42,"name":"Oshikoto","iso2":"OT","type":"region","lat":-18.5464046,"lng":17.1019606},{"id":46,"name":"Otjozondjupa","iso2":"OD","type":"region","lat":-19.9424962,"lng":18.395886},{"id":47,"name":"Zambezi","iso2":"CA","type":"region","lat":-17.6912922,"lng":24.1377371}]