[{"id":303,"name":"Abia","iso2":"AB","type":"state","lat":5.4540953,"lng":7.5153071},{"id":293,"name":"Abuja Federal Capital Territory","iso2":"FC","type":"capital territory","lat":8.8311228,"lng":7.1724673},{"id":320,"name":"Adamawa","iso2":"AD","type":"state","lat":9.5129772,"lng":12.3881887},{"id":304,"name":"Akwa Ibom","iso2":"AK","type":"state","lat":4.9906379,"lng":7.7966205},{"id":315,"name":"Anambra","iso2":"AN","type":"state","lat":6.2183136,"lng":6.9531842},{"id":312,"name":"Bauchi","iso2":"BA","type":"state","lat":10.6228284,"lng":10.0287754},{"id":305,"name":"Bayelsa","iso2":"BY","type":"state","lat":4.7629786,"lng":6.028898},{"id":291,"name":"Benue","iso2":"BE","type":"state","lat":7.3505747,"lng":8.7772877},{"id":307,"name":"Borno","iso2":"BO","type":"state","lat":12.1875392,"lng":13.3080034},{"id":314,"name":"Cross River","iso2":"CR","type":"state","lat":5.8671966,"lng":8.5204774},{"id":316,"name":"Delta","iso2":"DE","type":"state","lat":5.5273061,"lng":6.1784167},{"id":311,"name":"Ebonyi","iso2":"EB","type":"state","lat":6.1996918,"lng":8.0348906},{"id":318,"name":"Edo","iso2":"ED","type":"state","lat":6.6076575,"lng":5.9722713},{"id":309,"name":"Ekiti","iso2":"EK","type":"state","lat":7.736891,"lng":5.2738326},{"id":289,"name":"Enugu","iso2":"EN","type":"state","lat":6.5536094,"lng":7.4143061},{"id":310,"name":"Gombe","iso2":"GO","type":"state","lat":10.4304018,"lng":11.2065408},{"id":308,"name":"Imo","iso2":"IM","type":"state","lat":5.5859456,"lng":7.0669651},{"id":288,"name":"Jigawa","iso2":"JI","type":"state","lat":12.3252362,"lng":9.5103296},{"id":294,"name":"Kaduna","iso2":"KD","type":"state","lat":10.3825318,"lng":7.8533226},{"id":300,"name":"Kano","iso2":"KN","type":"state","lat":11.8948389,"lng":8.5364136},{"id":313,"name":"Katsina","iso2":"KT","type":"state","lat":12.5630825,"lng":7.6207063},{"id":290,"name":"Kebbi","iso2":"KE","type":"state","lat":11.4167574,"lng":4.1074545},{"id":298,"name":"Kogi","iso2":"KO","type":"state","lat":7.7949602,"lng":6.6868669},{"id":295,"name":"Kwara","iso2":"KW","type":"state","lat":8.8367891,"lng":4.6688487},{"id":306,"name":"Lagos","iso2":"LA","type":"state","lat":6.4550575,"lng":3.3941795},{"id":301,"name":"Nasarawa","iso2":"NA","type":"state","lat":8.4387868,"lng":8.2382849},{"id":317,"name":"Niger","iso2":"NI","type":"state","lat":9.9326083,"lng":5.6511088},{"id":323,"name":"Ogun","iso2":"OG","type":"state","lat":6.9788582,"lng":3.4389293},{"id":321,"name":"Ondo","iso2":"ON","type":"state","lat":7.0209686,"lng":5.0567477},{"id":322,"name":"Osun","iso2":"OS","type":"state","lat":7.5484047,"lng":4.4978307},{"id":296,"name":"Oyo","iso2":"OY","type":"state","lat":8.2151249,"lng":3.5642897},{"id":302,"name":"Plateau","iso2":"PL","type":"state","lat":9.0583446,"lng":9.6826289},{"id":4926,"name":"Rivers","iso2":"RI","type":"state","lat":4.8416028,"lng":6.8604088},{"id":292,"name":"Sokoto","iso2":"SO","type":"state","lat":13.0611195,"lng":5.3152203},{"id":319,"name":"Taraba","iso2":"TA","type":"state","lat":8.0141334,"lng":10.7376336},{"id":297,"name":"Yobe","iso2":"YO","type":"state","lat":12.1233242,"lng":11.5065937},{"id":299,"name":"Zamfara","iso2":"ZA","type":"state","lat":12.0078998,"lng":6.4191432}]