[{"id":946,"name":"Boaco","iso2":"BO","type":"department","lat":12.469284,"lng":-85.6614682},{"id":950,"name":"Carazo","iso2":"CA","type":"department","lat":11.6619985,"lng":-86.3125697},{"id":954,"name":"Chinandega","iso2":"CI","type":"department","lat":12.7777962,"lng":-87.269584},{"id":940,"name":"Chontales","iso2":"CO","type":"department","lat":11.9876753,"lng":-85.1860798},{"id":945,"name":"Estelí","iso2":"ES","type":"department","lat":13.0931241,"lng":-86.3554436},{"id":943,"name":"Granada","iso2":"GR","type":"department","lat":11.9344073,"lng":-85.9560005},{"id":955,"name":"Jinotega","iso2":"JI","type":"department","lat":13.0883907,"lng":-85.9993997},{"id":944,"name":"León","iso2":"LE","type":"department","lat":12.5092037,"lng":-86.6611083},{"id":948,"name":"Madriz","iso2":"MD","type":"department","lat":13.4272871,"lng":-86.401622},{"id":941,"name":"Managua","iso2":"MN","type":"department","lat":12.1080585,"lng":-86.3505808},{"id":953,"name":"Masaya","iso2":"MS","type":"department","lat":11.9736474,"lng":-86.0960547},{"id":947,"name":"Matagalpa","iso2":"MT","type":"department","lat":12.940323,"lng":-85.6960942},{"id":951,"name":"North Caribbean Coast","iso2":"AN","type":"autonomous region","lat":14.0557499,"lng":-83.7475765},{"id":4964,"name":"Nueva Segovia","iso2":"NS","type":"department","lat":13.7719023,"lng":-86.0584542},{"id":949,"name":"Río San Juan","iso2":"SJ","type":"department","lat":11.3080026,"lng":-84.7550693},{"id":942,"name":"Rivas","iso2":"RI","type":"department","lat":11.3434687,"lng":-85.7159624},{"id":952,"name":"South Caribbean Coast","iso2":"AS","type":"autonomous region","lat":12.1793275,"lng":-83.7774051}]