[{"id":5435,"name":"Alofi North","iso2":"14","type":"village","lat":-19.0488977,"lng":-169.9190905},{"id":5434,"name":"Alofi South","iso2":"13","type":"village","lat":-19.054836,"lng":-169.9198846},{"id":5432,"name":"Avatele","iso2":"11","type":"village","lat":-19.1237302,"lng":-169.9165678},{"id":5430,"name":"Hakupu","iso2":"09","type":"village","lat":-19.1287275,"lng":-169.8492123},{"id":5425,"name":"Hikutavake","iso2":"04","type":"village","lat":-18.9656326,"lng":-169.880636},{"id":5428,"name":"Lakepa","iso2":"07","type":"village","lat":-19.0096425,"lng":-169.8120046},{"id":5429,"name":"Liku","iso2":"08","type":"village","lat":-19.0536907,"lng":-169.7942591},{"id":5422,"name":"Makefu","iso2":"01","type":"village","lat":-19.0032618,"lng":-169.9204732},{"id":5427,"name":"Mutalau","iso2":"06","type":"village","lat":-18.9639385,"lng":-169.8327863},{"id":5424,"name":"Namukulu","iso2":"03","type":"village","lat":-18.9812275,"lng":-169.9029422},{"id":5433,"name":"Tamakautoga","iso2":"12","type":"village","lat":-19.104524,"lng":-169.917382},{"id":5426,"name":"Toi","iso2":"05","type":"village","lat":-18.97376,"lng":-169.8629774},{"id":5423,"name":"Tuapa","iso2":"02","type":"village","lat":-18.9912507,"lng":-169.9092078},{"id":5431,"name":"Vaiea","iso2":"10","type":"village","lat":-19.1308358,"lng":-169.8938012}]