[{"id":4724,"name":"Alba","iso2":"AB","type":"department","lat":46.0159362,"lng":23.5468497},{"id":4739,"name":"Arad","iso2":"AR","type":"department","lat":46.2913706,"lng":21.8925185},{"id":4722,"name":"Arges","iso2":"AG","type":"department","lat":44.9939764,"lng":24.8488685},{"id":4744,"name":"Bacău","iso2":"BC","type":"department","lat":46.4228703,"lng":26.7163991},{"id":4723,"name":"Bihor","iso2":"BH","type":"department","lat":46.9926899,"lng":22.192752},{"id":4733,"name":"Bistrița-Năsăud","iso2":"BN","type":"department","lat":47.1772548,"lng":24.5411592},{"id":4740,"name":"Botoșani","iso2":"BT","type":"department","lat":47.8528263,"lng":26.759334},{"id":4736,"name":"Braila","iso2":"BR","type":"department","lat":45.2716092,"lng":27.9742932},{"id":4759,"name":"Brașov","iso2":"BV","type":"department","lat":45.7860222,"lng":25.1540732},{"id":4730,"name":"Bucharest","iso2":"B","type":"municipality","lat":44.4361414,"lng":26.1027202},{"id":4756,"name":"Buzău","iso2":"BZ","type":"department","lat":45.2692581,"lng":26.7748173},{"id":4732,"name":"Călărași","iso2":"CL","type":"department","lat":44.3151874,"lng":27.1390156},{"id":4753,"name":"Caraș-Severin","iso2":"CS","type":"department","lat":45.1271344,"lng":22.0771445},{"id":4734,"name":"Cluj","iso2":"CJ","type":"department","lat":46.769379,"lng":23.5899542},{"id":4737,"name":"Constanța","iso2":"CT","type":"department","lat":44.2678591,"lng":28.2920787},{"id":4754,"name":"Covasna","iso2":"CV","type":"department","lat":45.8966793,"lng":26.0101806},{"id":4745,"name":"Dâmbovița","iso2":"DB","type":"department","lat":44.9224565,"lng":25.4819575},{"id":4742,"name":"Dolj","iso2":"DJ","type":"department","lat":44.2150123,"lng":23.669363},{"id":4747,"name":"Galați","iso2":"GL","type":"department","lat":45.7772439,"lng":27.7496575},{"id":4726,"name":"Giurgiu","iso2":"GR","type":"department","lat":43.9037076,"lng":25.9699265},{"id":4750,"name":"Gorj","iso2":"GJ","type":"department","lat":44.9611675,"lng":23.3256799},{"id":4749,"name":"Harghita","iso2":"HR","type":"department","lat":46.6443061,"lng":25.6221919},{"id":4721,"name":"Hunedoara","iso2":"HD","type":"department","lat":45.7954068,"lng":22.945243},{"id":4743,"name":"Ialomița","iso2":"IL","type":"department","lat":44.5960761,"lng":27.2016368},{"id":4735,"name":"Iași","iso2":"IS","type":"department","lat":47.1977372,"lng":27.1970598},{"id":4725,"name":"Ilfov","iso2":"IF","type":"department","lat":44.5017074,"lng":26.2449077},{"id":4760,"name":"Maramureș","iso2":"MM","type":"department","lat":47.6712547,"lng":24.1964613},{"id":4751,"name":"Mehedinți","iso2":"MH","type":"department","lat":44.6034908,"lng":23.0580419},{"id":4915,"name":"Mureș","iso2":"MS","type":"department","lat":45.9386537,"lng":23.2949316},{"id":4731,"name":"Neamț","iso2":"NT","type":"department","lat":46.9910082,"lng":26.5134813},{"id":4738,"name":"Olt","iso2":"OT","type":"department","lat":44.2923205,"lng":24.4663072},{"id":4729,"name":"Prahova","iso2":"PH","type":"department","lat":45.1087546,"lng":26.0378349},{"id":4741,"name":"Sălaj","iso2":"SJ","type":"department","lat":47.1561868,"lng":23.0191923},{"id":4746,"name":"Satu Mare","iso2":"SM","type":"department","lat":47.7891763,"lng":22.8725598},{"id":4755,"name":"Sibiu","iso2":"SB","type":"department","lat":45.888796,"lng":24.237426},{"id":4720,"name":"Suceava","iso2":"SV","type":"department","lat":47.5326534,"lng":25.8345939},{"id":4728,"name":"Teleorman","iso2":"TR","type":"department","lat":44.0684876,"lng":25.191045},{"id":4748,"name":"Timiș","iso2":"TM","type":"department","lat":45.63984,"lng":21.2599292},{"id":4727,"name":"Tulcea","iso2":"TL","type":"department","lat":45.0413769,"lng":28.897329},{"id":4757,"name":"Vâlcea","iso2":"VL","type":"department","lat":45.0404536,"lng":24.1538719},{"id":4752,"name":"Vaslui","iso2":"VS","type":"department","lat":46.496847,"lng":27.8036751},{"id":4758,"name":"Vrancea","iso2":"VN","type":"department","lat":45.7887088,"lng":26.883803}]