[{"id":1852,"name":"Adygea","iso2":"AD","type":"republic","lat":44.6939006,"lng":40.1520421},{"id":1911,"name":"Altai","iso2":"ALT","type":"administrative territory","lat":50.7114101,"lng":86.8572186},{"id":1876,"name":"Altai","iso2":"AL","type":"republic","lat":50.7114101,"lng":86.8572186},{"id":1858,"name":"Amur","iso2":"AMU","type":"administrative region","lat":52.8032368,"lng":128.437295},{"id":1849,"name":"Arkhangelsk","iso2":"ARK","type":"administrative region","lat":64.5458549,"lng":40.5505769},{"id":1866,"name":"Astrakhan","iso2":"AST","type":"administrative region","lat":46.3498308,"lng":48.0326203},{"id":1854,"name":"Bashkortostan","iso2":"BA","type":"republic","lat":54.4747553,"lng":55.9784582},{"id":1903,"name":"Belgorod","iso2":"BEL","type":"administrative region","lat":50.7080119,"lng":37.5837615},{"id":1867,"name":"Bryansk","iso2":"BRY","type":"administrative region","lat":53.2423778,"lng":34.3668288},{"id":1842,"name":"Buryatia","iso2":"BU","type":"republic","lat":52.7182426,"lng":109.492143},{"id":1893,"name":"Chechen","iso2":"CE","type":"republic","lat":43.4,"lng":45.7},{"id":1845,"name":"Chelyabinsk","iso2":"CHE","type":"administrative region","lat":55.1559312,"lng":61.4012726},{"id":1859,"name":"Chukotka","iso2":"CHU","type":"autonomous district","lat":66.0006475,"lng":169.4900869},{"id":1914,"name":"Chuvash","iso2":"CU","type":"republic","lat":55.4259922,"lng":47.0849429},{"id":1850,"name":"Dagestan","iso2":"DA","type":"republic","lat":43.0,"lng":47.0},{"id":1884,"name":"Ingushetia","iso2":"IN","type":"republic","lat":43.1655309,"lng":44.979682},{"id":1880,"name":"Irkutsk","iso2":"IRK","type":"administrative region","lat":52.2854834,"lng":104.2890222},{"id":1864,"name":"Ivanovo","iso2":"IVA","type":"administrative region","lat":56.9956855,"lng":40.9812104},{"id":1835,"name":"Jewish","iso2":"YEV","type":"autonomous region","lat":48.5601613,"lng":132.2775662},{"id":1892,"name":"Kabardino-Balkar","iso2":"KB","type":"republic","lat":43.4428286,"lng":43.4204809},{"id":1902,"name":"Kaliningrad","iso2":"KGD","type":"administrative region","lat":54.7104264,"lng":20.4522144},{"id":1883,"name":"Kalmykia","iso2":"KL","type":"republic","lat":46.9017116,"lng":45.249161},{"id":1844,"name":"Kaluga","iso2":"KLU","type":"administrative region","lat":54.4382773,"lng":35.5272854},{"id":1865,"name":"Kamchatka","iso2":"KAM","type":"administrative territory","lat":57.1914882,"lng":160.0383819},{"id":1869,"name":"Karachay-Cherkess","iso2":"KC","type":"republic","lat":43.7368326,"lng":41.7267991},{"id":1841,"name":"Karelia","iso2":"KR","type":"republic","lat":62.6194031,"lng":33.4920267},{"id":1897,"name":"Kemerovo","iso2":"KEM","type":"administrative region","lat":54.5335781,"lng":87.342861},{"id":1873,"name":"Khabarovsk","iso2":"KHA","type":"administrative territory","lat":51.6312684,"lng":136.121524},{"id":1877,"name":"Khakassia","iso2":"KK","type":"republic","lat":53.4399379,"lng":90.0664303},{"id":1838,"name":"Khanty-Mansi","iso2":"KHM","type":"autonomous district","lat":61.8793428,"lng":68.6418156},{"id":1890,"name":"Kirov","iso2":"KIR","type":"administrative region","lat":58.6035661,"lng":49.6666241},{"id":1899,"name":"Komi","iso2":"KO","type":"republic","lat":63.9881421,"lng":54.3326073},{"id":1910,"name":"Kostroma","iso2":"KOS","type":"administrative region","lat":58.6044327,"lng":41.5889382},{"id":1891,"name":"Krasnodar","iso2":"KDA","type":"administrative territory","lat":45.7684014,"lng":39.0261044},{"id":1840,"name":"Krasnoyarsk","iso2":"KYA","type":"administrative territory","lat":63.3233807,"lng":97.0979974},{"id":1915,"name":"Kurgan","iso2":"KGN","type":"administrative region","lat":55.4409357,"lng":65.3421169},{"id":1855,"name":"Kursk","iso2":"KRS","type":"administrative region","lat":51.7309249,"lng":36.1923123},{"id":1896,"name":"Leningrad","iso2":"LEN","type":"administrative region","lat":60.1853296,"lng":32.3925325},{"id":1889,"name":"Lipetsk","iso2":"LIP","type":"administrative region","lat":52.6935178,"lng":39.1122664},{"id":1839,"name":"Magadan","iso2":"MAG","type":"administrative region","lat":63.5515028,"lng":154.014726},{"id":1870,"name":"Mari El","iso2":"ME","type":"republic","lat":56.5767504,"lng":47.8817512},{"id":1898,"name":"Mordovia","iso2":"MO","type":"republic","lat":54.4419829,"lng":44.4661144},{"id":1882,"name":"Moscow","iso2":"MOS","type":"administrative region","lat":55.625578,"lng":37.6063916},{"id":1901,"name":"Moscow","iso2":"MOW","type":"autonomous city","lat":55.625578,"lng":37.6063916},{"id":1843,"name":"Murmansk","iso2":"MUR","type":"administrative region","lat":68.0000418,"lng":33.9999151},{"id":1836,"name":"Nenets","iso2":"NEN","type":"autonomous city","lat":67.6783253,"lng":57.0626853},{"id":1857,"name":"Nizhny Novgorod","iso2":"NIZ","type":"administrative region","lat":56.2769292,"lng":43.9212981},{"id":1853,"name":"North Ossetia-Alania","iso2":"SE","type":"republic","lat":42.9920711,"lng":44.2636348},{"id":1834,"name":"Novgorod","iso2":"NGR","type":"administrative region","lat":58.5209862,"lng":31.2757862},{"id":1888,"name":"Novosibirsk","iso2":"NVS","type":"administrative region","lat":54.9678144,"lng":82.9515989},{"id":1846,"name":"Omsk","iso2":"OMS","type":"administrative region","lat":54.991375,"lng":73.371529},{"id":1886,"name":"Orenburg","iso2":"ORE","type":"administrative region","lat":52.0269262,"lng":54.7276647},{"id":1908,"name":"Oryol","iso2":"ORL","type":"administrative region","lat":52.8392765,"lng":36.4251709},{"id":1909,"name":"Penza","iso2":"PNZ","type":"administrative region","lat":53.1655415,"lng":44.7879181},{"id":1871,"name":"Perm","iso2":"PER","type":"administrative territory","lat":58.5951603,"lng":56.3159546},{"id":1833,"name":"Primorsky","iso2":"PRI","type":"administrative territory","lat":45.0819456,"lng":134.726645},{"id":1863,"name":"Pskov","iso2":"PSK","type":"administrative region","lat":57.5358729,"lng":28.8586826},{"id":1837,"name":"Rostov","iso2":"ROS","type":"administrative region","lat":47.6222451,"lng":40.7957942},{"id":1905,"name":"Ryazan","iso2":"RYA","type":"administrative region","lat":54.6295687,"lng":39.7425039},{"id":1879,"name":"Saint Petersburg","iso2":"SPE","type":"autonomous city","lat":59.938732,"lng":30.316229},{"id":1848,"name":"Sakha","iso2":"SA","type":"republic","lat":66.941626,"lng":129.642371},{"id":1875,"name":"Sakhalin","iso2":"SAK","type":"administrative region","lat":50.159476,"lng":143.0264412},{"id":1862,"name":"Samara","iso2":"SAM","type":"administrative region","lat":53.1956255,"lng":50.1014927},{"id":1887,"name":"Saratov","iso2":"SAR","type":"administrative region","lat":51.530018,"lng":46.034683},{"id":1885,"name":"Smolensk","iso2":"SMO","type":"administrative region","lat":55.0343496,"lng":33.0192065},{"id":1868,"name":"Stavropol","iso2":"STA","type":"administrative territory","lat":44.8632577,"lng":43.4406913},{"id":1894,"name":"Sverdlovsk","iso2":"SVE","type":"administrative region","lat":56.839104,"lng":60.60825},{"id":1878,"name":"Tambov","iso2":"TAM","type":"administrative region","lat":52.7216164,"lng":41.4523988},{"id":1861,"name":"Tatarstan","iso2":"TA","type":"republic","lat":55.448217,"lng":50.4763591},{"id":1872,"name":"Tomsk","iso2":"TOM","type":"administrative region","lat":58.6124279,"lng":82.0475315},{"id":1895,"name":"Tula","iso2":"TUL","type":"administrative region","lat":54.1930321,"lng":37.61754},{"id":1900,"name":"Tuva","iso2":"TY","type":"republic","lat":51.4017149,"lng":93.8582593},{"id":1860,"name":"Tver","iso2":"TVE","type":"administrative region","lat":57.1134475,"lng":35.1744428},{"id":1907,"name":"Tyumen","iso2":"TYU","type":"administrative region","lat":57.153534,"lng":65.542274},{"id":1913,"name":"Udmurt","iso2":"UD","type":"republic","lat":57.1961165,"lng":52.6959832},{"id":1856,"name":"Ulyanovsk","iso2":"ULY","type":"administrative region","lat":54.1463177,"lng":47.2324921},{"id":1881,"name":"Vladimir","iso2":"VLA","type":"administrative region","lat":56.1288899,"lng":40.4075203},{"id":4916,"name":"Volgograd Oblast","iso2":"VGG","type":"administrative region","lat":49.6048339,"lng":44.2903582},{"id":1874,"name":"Vologda","iso2":"VLG","type":"administrative region","lat":59.2264585,"lng":39.8722391},{"id":1906,"name":"Voronezh","iso2":"VOR","type":"administrative region","lat":51.6605982,"lng":39.2005858},{"id":1847,"name":"Yamalo-Nenets","iso2":"YAN","type":"autonomous district","lat":67.1471631,"lng":74.3415488},{"id":1851,"name":"Yaroslavl","iso2":"YAR","type":"administrative region","lat":57.6508432,"lng":39.8718634},{"id":1904,"name":"Zabaykalsky","iso2":"ZAB","type":"administrative territory","lat":52.248521,"lng":115.956325}]