[{"id":4784,"name":"Central","iso2":"CE","type":"province","lat":-8.9833335,"lng":159.75},{"id":4781,"name":"Choiseul","iso2":"CH","type":"province","lat":-7.0091756,"lng":156.9239532},{"id":4785,"name":"Guadalcanal","iso2":"GU","type":"province","lat":-9.5984209,"lng":160.1485117},{"id":4778,"name":"Honiara","iso2":"CT","type":"capital territory","lat":-9.4377975,"lng":159.9624175},{"id":4780,"name":"Isabel","iso2":"IS","type":"province","lat":-7.9999999,"lng":158.9999999},{"id":4782,"name":"Makira-Ulawa","iso2":"MK","type":"province","lat":-10.2835257,"lng":161.7280731},{"id":4783,"name":"Malaita","iso2":"ML","type":"province","lat":-8.9551687,"lng":160.9514413},{"id":4787,"name":"Rennell and Bellona","iso2":"RB","type":"province","lat":-12.1134266,"lng":160.3170523},{"id":4779,"name":"Temotu","iso2":"TE","type":"province","lat":-10.8891322,"lng":166.231035},{"id":4786,"name":"Western","iso2":"WE","type":"province","lat":-7.8166667,"lng":156.683988}]