[{"id":1537,"name":"Blekinge","iso2":"K","type":"county","lat":56.1240122,"lng":15.4022088},{"id":1534,"name":"Dalarna","iso2":"W","type":"county","lat":61.0603778,"lng":14.2150873},{"id":1533,"name":"Gävleborg","iso2":"X","type":"county","lat":61.2603424,"lng":16.6946985},{"id":1546,"name":"Gotland","iso2":"I","type":"county","lat":57.4998732,"lng":18.4998927},{"id":1548,"name":"Halland","iso2":"N","type":"county","lat":56.9608104,"lng":12.8547066},{"id":5117,"name":"Jämtland","iso2":"Z","type":"county","lat":63.3452222,"lng":14.124986},{"id":1550,"name":"Jönköping","iso2":"F","type":"county","lat":57.7825634,"lng":14.165719},{"id":1544,"name":"Kalmar","iso2":"H","type":"county","lat":56.666667,"lng":16.333056},{"id":1542,"name":"Kronoberg","iso2":"G","type":"county","lat":56.8006781,"lng":14.411161},{"id":1538,"name":"Norrbotten","iso2":"BD","type":"county","lat":66.52825,"lng":22.95302},{"id":1539,"name":"Örebro","iso2":"T","type":"county","lat":59.2747287,"lng":15.2151181},{"id":1536,"name":"Östergötland","iso2":"E","type":"county","lat":58.3650249,"lng":16.0447142},{"id":1541,"name":"Skåne","iso2":"M","type":"county","lat":55.8479416,"lng":13.6337117},{"id":1540,"name":"Södermanland","iso2":"D","type":"county","lat":58.9649214,"lng":16.7294012},{"id":1551,"name":"Stockholm","iso2":"AB","type":"county","lat":59.3336173,"lng":18.0276973},{"id":1545,"name":"Uppsala","iso2":"C","type":"county","lat":59.8661986,"lng":17.5984327},{"id":1535,"name":"Värmland","iso2":"S","type":"county","lat":59.8907624,"lng":13.2947617},{"id":1543,"name":"Västerbotten","iso2":"AC","type":"county","lat":64.728471,"lng":18.5533235},{"id":1552,"name":"Västernorrland","iso2":"Y","type":"county","lat":63.0589693,"lng":18.1013686},{"id":1549,"name":"Västmanland","iso2":"U","type":"county","lat":59.6965639,"lng":16.1846541},{"id":1547,"name":"Västra Götaland","iso2":"O","type":"county","lat":58.2158502,"lng":12.6518208}]