[{"id":4183,"name":"Ajdovščina","iso2":"001","type":"municipality","lat":45.8870776,"lng":13.9042818},{"id":4326,"name":"Ankaran","iso2":"213","type":"municipality","lat":45.578451,"lng":13.7369174},{"id":4318,"name":"Apače","iso2":"195","type":"municipality","lat":46.6974679,"lng":15.9102534},{"id":4301,"name":"Beltinci","iso2":"002","type":"municipality","lat":46.6079153,"lng":16.2365127},{"id":4166,"name":"Benedikt","iso2":"148","type":"municipality","lat":46.6155841,"lng":15.8957281},{"id":4179,"name":"Bistrica ob Sotli","iso2":"149","type":"municipality","lat":46.0565579,"lng":15.6625947},{"id":4202,"name":"Bled","iso2":"003","type":"municipality","lat":46.3683266,"lng":14.1145798},{"id":4278,"name":"Bloke","iso2":"150","type":"municipality","lat":45.7728141,"lng":14.5063459},{"id":4282,"name":"Bohinj","iso2":"004","type":"municipality","lat":46.3020336,"lng":13.9090155},{"id":4200,"name":"Borovnica","iso2":"005","type":"municipality","lat":45.9044525,"lng":14.3824189},{"id":4181,"name":"Bovec","iso2":"006","type":"municipality","lat":46.3380495,"lng":13.5524174},{"id":4141,"name":"Braslovče","iso2":"151","type":"municipality","lat":46.2836192,"lng":15.041832},{"id":4240,"name":"Brda","iso2":"007","type":"municipality","lat":46.0162019,"lng":13.5489102},{"id":4215,"name":"Brežice","iso2":"009","type":"municipality","lat":45.9041096,"lng":15.5943639},{"id":4165,"name":"Brezovica","iso2":"008","type":"municipality","lat":45.9480324,"lng":14.4180336},{"id":4147,"name":"Cankova","iso2":"152","type":"municipality","lat":46.718237,"lng":16.0197222},{"id":4191,"name":"Celje","iso2":"011","type":"urban municipality","lat":46.2293889,"lng":15.2616828},{"id":4310,"name":"Cerklje na Gorenjskem","iso2":"012","type":"municipality","lat":46.2517054,"lng":14.4857979},{"id":4162,"name":"Cerknica","iso2":"013","type":"municipality","lat":45.7936578,"lng":14.361883},{"id":4178,"name":"Cerkno","iso2":"014","type":"municipality","lat":46.1288414,"lng":13.9894027},{"id":4176,"name":"Cerkvenjak","iso2":"153","type":"municipality","lat":46.5670711,"lng":15.9429753},{"id":4309,"name":"Cirkulane","iso2":"196","type":"municipality","lat":46.3438075,"lng":15.9944724},{"id":4151,"name":"Črenšovci","iso2":"015","type":"municipality","lat":46.5720029,"lng":16.2877346},{"id":4232,"name":"Črna na Koroškem","iso2":"016","type":"municipality","lat":46.4704529,"lng":14.8499998},{"id":4291,"name":"Črnomelj","iso2":"017","type":"municipality","lat":45.5700965,"lng":15.1923324},{"id":4304,"name":"Destrnik","iso2":"018","type":"municipality","lat":46.4922368,"lng":15.8777956},{"id":4167,"name":"Divača","iso2":"019","type":"municipality","lat":45.6806069,"lng":13.9720312},{"id":4295,"name":"Dobje","iso2":"154","type":"municipality","lat":46.1370037,"lng":15.394129},{"id":4216,"name":"Dobrepolje","iso2":"020","type":"municipality","lat":45.8097528,"lng":14.7425657},{"id":4252,"name":"Dobrna","iso2":"155","type":"municipality","lat":46.3356141,"lng":15.2259732},{"id":4308,"name":"Dobrova–Polhov Gradec","iso2":"021","type":"municipality","lat":46.0648896,"lng":14.3168195},{"id":4189,"name":"Dobrovnik","iso2":"156","type":"municipality","lat":46.6538662,"lng":16.3506594},{"id":4173,"name":"Dol pri Ljubljani","iso2":"022","type":"municipality","lat":46.0884386,"lng":14.6424792},{"id":4281,"name":"Dolenjske Toplice","iso2":"157","type":"municipality","lat":45.7572692,"lng":15.0583791},{"id":4159,"name":"Domžale","iso2":"023","type":"municipality","lat":46.1394296,"lng":14.5944553},{"id":4290,"name":"Dornava","iso2":"024","type":"municipality","lat":46.4351913,"lng":15.9552014},{"id":4345,"name":"Dravograd","iso2":"025","type":"municipality","lat":46.589219,"lng":15.0246021},{"id":4213,"name":"Duplek","iso2":"026","type":"municipality","lat":46.5091395,"lng":15.762657},{"id":4293,"name":"Gorenja Vas–Poljane","iso2":"027","type":"municipality","lat":46.1116582,"lng":14.1149348},{"id":4210,"name":"Gorišnica","iso2":"028","type":"municipality","lat":46.4120271,"lng":16.0133089},{"id":4284,"name":"Gorje","iso2":"207","type":"municipality","lat":46.3944847,"lng":13.9912881},{"id":4343,"name":"Gornja Radgona","iso2":"029","type":"municipality","lat":46.6767099,"lng":15.9910847},{"id":4339,"name":"Gornji Grad","iso2":"030","type":"municipality","lat":46.2961712,"lng":14.8062347},{"id":4271,"name":"Gornji Petrovci","iso2":"031","type":"municipality","lat":46.8037128,"lng":16.2191379},{"id":4217,"name":"Grad","iso2":"158","type":"municipality","lat":46.801894,"lng":16.0919216},{"id":4336,"name":"Grosuplje","iso2":"032","type":"municipality","lat":45.9557645,"lng":14.658899},{"id":4145,"name":"Hajdina","iso2":"159","type":"municipality","lat":46.4185014,"lng":15.8244722},{"id":4175,"name":"Hoče–Slivnica","iso2":"160","type":"municipality","lat":46.4898775,"lng":15.6106205},{"id":4327,"name":"Hodoš","iso2":"161","type":"municipality","lat":46.8314134,"lng":16.321068},{"id":4193,"name":"Horjul","iso2":"162","type":"municipality","lat":46.0225378,"lng":14.2986269},{"id":4341,"name":"Hrastnik","iso2":"034","type":"municipality","lat":46.1417288,"lng":15.0844894},{"id":4321,"name":"Hrpelje–Kozina","iso2":"035","type":"municipality","lat":45.5623318,"lng":14.0125663},{"id":4152,"name":"Idrija","iso2":"036","type":"municipality","lat":46.0023983,"lng":14.0273014},{"id":4286,"name":"Ig","iso2":"037","type":"municipality","lat":45.9588868,"lng":14.5270528},{"id":4344,"name":"Ilirska Bistrica","iso2":"038","type":"municipality","lat":45.5636618,"lng":14.2453318},{"id":4305,"name":"Ivančna Gorica","iso2":"039","type":"municipality","lat":45.9395841,"lng":14.8047626},{"id":4322,"name":"Izola","iso2":"040","type":"municipality","lat":45.5398936,"lng":13.65939},{"id":4337,"name":"Jesenice","iso2":"041","type":"municipality","lat":46.4367047,"lng":14.0526057},{"id":4203,"name":"Jezersko","iso2":"163","type":"municipality","lat":46.3942794,"lng":14.4985559},{"id":4266,"name":"Juršinci","iso2":"042","type":"municipality","lat":46.4859302,"lng":15.9681926},{"id":4180,"name":"Kamnik","iso2":"043","type":"municipality","lat":46.2221666,"lng":14.6070727},{"id":4227,"name":"Kanal ob Soči","iso2":"044","type":"municipality","lat":46.0858687,"lng":13.6339298},{"id":4150,"name":"Kidričevo","iso2":"045","type":"municipality","lat":46.4043948,"lng":15.7965329},{"id":4243,"name":"Kobarid","iso2":"046","type":"municipality","lat":46.2456971,"lng":13.5786949},{"id":4325,"name":"Kobilje","iso2":"047","type":"municipality","lat":46.68518,"lng":16.3936719},{"id":4335,"name":"Kočevje","iso2":"048","type":"municipality","lat":45.6428,"lng":14.8615838},{"id":4315,"name":"Komen","iso2":"049","type":"municipality","lat":45.8175235,"lng":13.7482711},{"id":4283,"name":"Komenda","iso2":"164","type":"municipality","lat":46.206488,"lng":14.5382499},{"id":4319,"name":"Koper","iso2":"050","type":"urban municipality","lat":45.548059,"lng":13.7301877},{"id":4254,"name":"Kostanjevica na Krki","iso2":"197","type":"municipality","lat":45.8456674,"lng":15.4202287},{"id":4331,"name":"Kostel","iso2":"165","type":"municipality","lat":45.5081362,"lng":14.9104871},{"id":4186,"name":"Kozje","iso2":"051","type":"municipality","lat":46.0733211,"lng":15.5596719},{"id":4287,"name":"Kranj","iso2":"052","type":"urban municipality","lat":46.2432913,"lng":14.3549353},{"id":4340,"name":"Kranjska Gora","iso2":"053","type":"municipality","lat":46.4845293,"lng":13.7857145},{"id":4238,"name":"Križevci","iso2":"166","type":"municipality","lat":46.5701821,"lng":16.1092653},{"id":4314,"name":"Krško","iso2":"054","type":"urban municipality","lat":45.9589609,"lng":15.4923555},{"id":4197,"name":"Kungota","iso2":"055","type":"municipality","lat":46.6418793,"lng":15.6036288},{"id":4211,"name":"Kuzma","iso2":"056","type":"municipality","lat":46.8351038,"lng":16.08071},{"id":4338,"name":"Laško","iso2":"057","type":"municipality","lat":46.1542236,"lng":15.2361491},{"id":4142,"name":"Lenart","iso2":"058","type":"municipality","lat":46.5834424,"lng":15.8262125},{"id":4225,"name":"Lendava","iso2":"059","type":"municipality","lat":46.5639639,"lng":16.4526468},{"id":4347,"name":"Litija","iso2":"060","type":"municipality","lat":46.0573226,"lng":14.8309636},{"id":4270,"name":"Ljubljana","iso2":"061","type":"urban municipality","lat":46.0569465,"lng":14.5057515},{"id":4294,"name":"Ljubno","iso2":"062","type":"municipality","lat":46.366441,"lng":14.8397651},{"id":4351,"name":"Ljutomer","iso2":"063","type":"municipality","lat":46.5190848,"lng":16.1893216},{"id":4306,"name":"Log–Dragomer","iso2":"208","type":"municipality","lat":46.0178747,"lng":14.3687767},{"id":4350,"name":"Logatec","iso2":"064","type":"municipality","lat":45.917611,"lng":14.2351451},{"id":4174,"name":"Loška Dolina","iso2":"065","type":"municipality","lat":45.6645172,"lng":14.4997081},{"id":4158,"name":"Loški Potok","iso2":"066","type":"municipality","lat":45.6625246,"lng":14.6699654},{"id":4156,"name":"Lovrenc na Pohorju","iso2":"167","type":"municipality","lat":46.5419638,"lng":15.4000443},{"id":4219,"name":"Luče","iso2":"067","type":"municipality","lat":46.3544925,"lng":14.7471504},{"id":4302,"name":"Lukovica","iso2":"068","type":"municipality","lat":46.1696293,"lng":14.6907259},{"id":4157,"name":"Majšperk","iso2":"069","type":"municipality","lat":46.3503019,"lng":15.7340595},{"id":4224,"name":"Makole","iso2":"198","type":"municipality","lat":46.3168697,"lng":15.6664126},{"id":4242,"name":"Maribor","iso2":"070","type":"urban municipality","lat":46.5576439,"lng":15.6455854},{"id":4244,"name":"Markovci","iso2":"168","type":"municipality","lat":46.3947708,"lng":15.9298496},{"id":4349,"name":"Medvode","iso2":"071","type":"municipality","lat":46.141908,"lng":14.4032596},{"id":4348,"name":"Mengeš","iso2":"072","type":"municipality","lat":46.1659122,"lng":14.5719694},{"id":4323,"name":"Metlika","iso2":"073","type":"municipality","lat":45.6480715,"lng":15.3177838},{"id":4265,"name":"Mežica","iso2":"074","type":"municipality","lat":46.5215027,"lng":14.852134},{"id":4223,"name":"Miklavž na Dravskem Polju","iso2":"169","type":"municipality","lat":46.5082628,"lng":15.6952065},{"id":4220,"name":"Miren–Kostanjevica","iso2":"075","type":"municipality","lat":45.8598141,"lng":13.649854},{"id":4298,"name":"Mirna","iso2":"212","type":"municipality","lat":45.9515647,"lng":15.0620977},{"id":4237,"name":"Mirna Peč","iso2":"170","type":"municipality","lat":45.8602716,"lng":15.0818996},{"id":4212,"name":"Mislinja","iso2":"076","type":"municipality","lat":46.4429403,"lng":15.1987678},{"id":4297,"name":"Mokronog–Trebelno","iso2":"199","type":"municipality","lat":45.9236748,"lng":15.1679393},{"id":4168,"name":"Moravče","iso2":"077","type":"municipality","lat":46.1362781,"lng":14.746001},{"id":4218,"name":"Moravske Toplice","iso2":"078","type":"municipality","lat":46.6856932,"lng":16.2224582},{"id":4190,"name":"Mozirje","iso2":"079","type":"municipality","lat":46.339435,"lng":14.9602413},{"id":4313,"name":"Murska Sobota","iso2":"080","type":"urban municipality","lat":46.6624644,"lng":16.1655256},{"id":4208,"name":"Muta","iso2":"081","type":"municipality","lat":46.6097366,"lng":15.1629995},{"id":4177,"name":"Naklo","iso2":"082","type":"municipality","lat":46.2718663,"lng":14.3156932},{"id":4329,"name":"Nazarje","iso2":"083","type":"municipality","lat":46.3205865,"lng":14.9487121},{"id":4205,"name":"Nova Gorica","iso2":"084","type":"urban municipality","lat":45.976276,"lng":13.7308881},{"id":4236,"name":"Novo Mesto","iso2":"085","type":"urban municipality","lat":45.8010824,"lng":15.1710089},{"id":4320,"name":"Odranci","iso2":"086","type":"municipality","lat":46.5901017,"lng":16.2788165},{"id":4143,"name":"Oplotnica","iso2":"171","type":"municipality","lat":46.387163,"lng":15.4458131},{"id":4221,"name":"Ormož","iso2":"087","type":"municipality","lat":46.4072383,"lng":16.1489255},{"id":4199,"name":"Osilnica","iso2":"088","type":"municipality","lat":45.5292418,"lng":14.6988672},{"id":4172,"name":"Pesnica","iso2":"089","type":"municipality","lat":46.6182053,"lng":15.706151},{"id":4201,"name":"Piran","iso2":"090","type":"municipality","lat":45.5288856,"lng":13.5680735},{"id":4184,"name":"Pivka","iso2":"091","type":"municipality","lat":45.6825064,"lng":14.1953518},{"id":4146,"name":"Podčetrtek","iso2":"092","type":"municipality","lat":46.1518082,"lng":15.597496},{"id":4161,"name":"Podlehnik","iso2":"172","type":"municipality","lat":46.3310782,"lng":15.8785836},{"id":4234,"name":"Podvelka","iso2":"093","type":"municipality","lat":46.5889858,"lng":15.3280675},{"id":4239,"name":"Poljčane","iso2":"200","type":"municipality","lat":46.3139853,"lng":15.5784791},{"id":4272,"name":"Polzela","iso2":"173","type":"municipality","lat":46.280897,"lng":15.0737321},{"id":4330,"name":"Postojna","iso2":"094","type":"municipality","lat":45.774939,"lng":14.2134263},{"id":4188,"name":"Prebold","iso2":"174","type":"municipality","lat":46.2359136,"lng":15.0936912},{"id":4303,"name":"Preddvor","iso2":"095","type":"municipality","lat":46.3017139,"lng":14.4218165},{"id":4274,"name":"Prevalje","iso2":"175","type":"municipality","lat":46.5460617,"lng":14.9169796},{"id":4228,"name":"Ptuj","iso2":"096","type":"urban municipality","lat":46.4199535,"lng":15.8696884},{"id":4288,"name":"Puconci","iso2":"097","type":"municipality","lat":46.7043348,"lng":16.1550852},{"id":4204,"name":"Rače–Fram","iso2":"098","type":"municipality","lat":46.4542083,"lng":15.6329467},{"id":4195,"name":"Radeče","iso2":"099","type":"municipality","lat":46.0666954,"lng":15.1820438},{"id":4292,"name":"Radenci","iso2":"100","type":"municipality","lat":46.6409028,"lng":16.0399848},{"id":4275,"name":"Radlje ob Dravi","iso2":"101","type":"municipality","lat":46.6135732,"lng":15.2354438},{"id":4231,"name":"Radovljica","iso2":"102","type":"municipality","lat":46.343509,"lng":14.1720227},{"id":4155,"name":"Ravne na Koroškem","iso2":"103","type":"municipality","lat":46.5521194,"lng":14.9599084},{"id":4206,"name":"Razkrižje","iso2":"176","type":"municipality","lat":46.5226339,"lng":16.2668638},{"id":4160,"name":"Rečica ob Savinji","iso2":"209","type":"municipality","lat":46.323379,"lng":14.922367},{"id":4253,"name":"Renče–Vogrsko","iso2":"201","type":"municipality","lat":45.8954617,"lng":13.6785673},{"id":4235,"name":"Ribnica","iso2":"104","type":"municipality","lat":45.7400303,"lng":14.7265782},{"id":4207,"name":"Ribnica na Pohorju","iso2":"177","type":"municipality","lat":46.5356145,"lng":15.2674538},{"id":4233,"name":"Rogaška Slatina","iso2":"106","type":"municipality","lat":46.2329898,"lng":15.6384369},{"id":4264,"name":"Rogašovci","iso2":"105","type":"municipality","lat":46.8055785,"lng":16.0345237},{"id":4209,"name":"Rogatec","iso2":"107","type":"municipality","lat":46.2286626,"lng":15.6991338},{"id":4280,"name":"Ruše","iso2":"108","type":"municipality","lat":46.5386688,"lng":15.5139415},{"id":4222,"name":"Šalovci","iso2":"033","type":"municipality","lat":46.8244271,"lng":16.285766},{"id":4230,"name":"Selnica ob Dravi","iso2":"178","type":"municipality","lat":46.5513918,"lng":15.492941},{"id":4346,"name":"Semič","iso2":"109","type":"municipality","lat":45.6520534,"lng":15.1820701},{"id":4317,"name":"Šempeter–Vrtojba","iso2":"183","type":"municipality","lat":45.9178093,"lng":13.6517004},{"id":4299,"name":"Šenčur","iso2":"117","type":"municipality","lat":46.2433699,"lng":14.4192223},{"id":4324,"name":"Šentilj","iso2":"118","type":"municipality","lat":46.6696034,"lng":15.7688306},{"id":4241,"name":"Šentjernej","iso2":"119","type":"municipality","lat":45.843413,"lng":15.3378312},{"id":4171,"name":"Šentjur","iso2":"120","type":"municipality","lat":46.2168375,"lng":15.3937905},{"id":4311,"name":"Šentrupert","iso2":"211","type":"municipality","lat":45.9771289,"lng":15.0914051},{"id":4268,"name":"Sevnica","iso2":"110","type":"municipality","lat":46.0070317,"lng":15.3045679},{"id":4149,"name":"Sežana","iso2":"111","type":"municipality","lat":45.7091799,"lng":13.8730989},{"id":4170,"name":"Škocjan","iso2":"121","type":"municipality","lat":45.907782,"lng":15.2906185},{"id":4316,"name":"Škofja Loka","iso2":"122","type":"municipality","lat":46.165274,"lng":14.3067474},{"id":4187,"name":"Škofljica","iso2":"123","type":"municipality","lat":45.9840962,"lng":14.5746626},{"id":4169,"name":"Slovenj Gradec","iso2":"112","type":"urban municipality","lat":46.509144,"lng":15.0790677},{"id":4332,"name":"Slovenska Bistrica","iso2":"113","type":"municipality","lat":46.3919813,"lng":15.5727869},{"id":4198,"name":"Slovenske Konjice","iso2":"114","type":"municipality","lat":46.3369191,"lng":15.4214708},{"id":4285,"name":"Šmarje pri Jelšah","iso2":"124","type":"municipality","lat":46.2287025,"lng":15.5190353},{"id":4289,"name":"Šmarješke Toplice","iso2":"206","type":"municipality","lat":45.8680377,"lng":15.2347422},{"id":4296,"name":"Šmartno ob Paki","iso2":"125","type":"municipality","lat":46.3290372,"lng":15.0333937},{"id":4279,"name":"Šmartno pri Litiji","iso2":"194","type":"municipality","lat":46.0454971,"lng":14.8410133},{"id":4277,"name":"Sodražica","iso2":"179","type":"municipality","lat":45.7616565,"lng":14.6352853},{"id":4261,"name":"Solčava","iso2":"180","type":"municipality","lat":46.4195569,"lng":14.6920242},{"id":4248,"name":"Šoštanj","iso2":"126","type":"municipality","lat":46.3782836,"lng":15.0461378},{"id":4263,"name":"Središče ob Dravi","iso2":"202","type":"municipality","lat":46.3959282,"lng":16.2704915},{"id":4259,"name":"Starše","iso2":"115","type":"municipality","lat":46.4674331,"lng":15.7640546},{"id":4185,"name":"Štore","iso2":"127","type":"municipality","lat":46.2222514,"lng":15.3126116},{"id":4333,"name":"Straža","iso2":"203","type":"municipality","lat":45.7836855,"lng":15.0730399},{"id":4164,"name":"Sveta Ana","iso2":"181","type":"municipality","lat":46.65,"lng":15.845278},{"id":4260,"name":"Sveta Trojica v Slovenskih Goricah","iso2":"204","type":"municipality","lat":46.5680809,"lng":15.8823064},{"id":4229,"name":"Sveti Andraž v Slovenskih Goricah","iso2":"182","type":"municipality","lat":46.5189747,"lng":15.9498262},{"id":4255,"name":"Sveti Jurij ob Ščavnici","iso2":"116","type":"municipality","lat":46.5687452,"lng":16.0222528},{"id":4328,"name":"Sveti Jurij v Slovenskih Goricah","iso2":"210","type":"municipality","lat":46.6133355,"lng":15.7974141},{"id":4273,"name":"Sveti Tomaž","iso2":"205","type":"municipality","lat":46.4835283,"lng":16.079442},{"id":4194,"name":"Tabor","iso2":"184","type":"municipality","lat":46.235054,"lng":15.0153081},{"id":4312,"name":"Tišina","iso2":"010","type":"municipality","lat":46.6541884,"lng":16.0754781},{"id":4247,"name":"Tolmin","iso2":"128","type":"municipality","lat":46.1857188,"lng":13.7319838},{"id":4246,"name":"Trbovlje","iso2":"129","type":"municipality","lat":46.1503563,"lng":15.0453137},{"id":4214,"name":"Trebnje","iso2":"130","type":"municipality","lat":45.9080163,"lng":15.0131905},{"id":4153,"name":"Trnovska Vas","iso2":"185","type":"municipality","lat":46.5196833,"lng":15.8867884},{"id":4250,"name":"Tržič","iso2":"131","type":"municipality","lat":46.3593514,"lng":14.3006623},{"id":4334,"name":"Trzin","iso2":"186","type":"municipality","lat":46.1298241,"lng":14.5577637},{"id":4251,"name":"Turnišče","iso2":"132","type":"municipality","lat":46.6248885,"lng":16.3165187},{"id":5698,"name":"Velenje","iso2":"133","type":"urban municipality","lat":46.36666667,"lng":15.13333333},{"id":4267,"name":"Velika Polana","iso2":"187","type":"municipality","lat":46.5731715,"lng":16.3444126},{"id":4144,"name":"Velike Lašče","iso2":"134","type":"municipality","lat":45.8336591,"lng":14.6362363},{"id":4257,"name":"Veržej","iso2":"188","type":"municipality","lat":46.5841135,"lng":16.16208},{"id":4300,"name":"Videm","iso2":"135","type":"municipality","lat":46.3429502,"lng":15.9322379},{"id":4196,"name":"Vipava","iso2":"136","type":"municipality","lat":45.8412674,"lng":13.9609613},{"id":4148,"name":"Vitanje","iso2":"137","type":"municipality","lat":46.3815323,"lng":15.2950687},{"id":4154,"name":"Vodice","iso2":"138","type":"municipality","lat":46.1896643,"lng":14.4938539},{"id":4245,"name":"Vojnik","iso2":"139","type":"municipality","lat":46.2920581,"lng":15.302058},{"id":4163,"name":"Vransko","iso2":"189","type":"municipality","lat":46.239006,"lng":14.9527249},{"id":4262,"name":"Vrhnika","iso2":"140","type":"municipality","lat":45.9663607,"lng":14.2980772},{"id":4226,"name":"Vuzenica","iso2":"141","type":"municipality","lat":46.5980836,"lng":15.1657237},{"id":4269,"name":"Zagorje ob Savi","iso2":"142","type":"municipality","lat":46.1345202,"lng":14.9964384},{"id":4258,"name":"Žalec","iso2":"190","type":"municipality","lat":46.2519712,"lng":15.1650072},{"id":4182,"name":"Zavrč","iso2":"143","type":"municipality","lat":46.3860221,"lng":16.0459879},{"id":4256,"name":"Železniki","iso2":"146","type":"municipality","lat":46.2256377,"lng":14.1693617},{"id":4249,"name":"Žetale","iso2":"191","type":"municipality","lat":46.2742833,"lng":15.7913359},{"id":4192,"name":"Žiri","iso2":"147","type":"municipality","lat":46.0472499,"lng":14.1098451},{"id":4276,"name":"Žirovnica","iso2":"192","type":"municipality","lat":46.4046083,"lng":14.1353229},{"id":4342,"name":"Zreče","iso2":"144","type":"municipality","lat":46.3716354,"lng":15.3900185},{"id":4307,"name":"Žužemberk","iso2":"193","type":"municipality","lat":45.8316083,"lng":14.9295491}]