[{"id":473,"name":"Dakar","iso2":"DK","type":"region","lat":14.693425,"lng":-17.447938},{"id":480,"name":"Diourbel Region","iso2":"DB","type":"region","lat":14.7844539,"lng":-16.0316451},{"id":479,"name":"Fatick","iso2":"FK","type":"region","lat":14.3390167,"lng":-16.4111425},{"id":475,"name":"Kaffrine","iso2":"KA","type":"region","lat":14.105202,"lng":-15.5415755},{"id":483,"name":"Kaolack","iso2":"KL","type":"region","lat":14.138815,"lng":-16.076391},{"id":481,"name":"Kédougou","iso2":"KE","type":"region","lat":12.5570752,"lng":-12.1855655},{"id":474,"name":"Kolda","iso2":"KD","type":"region","lat":12.8921154,"lng":-14.9400971},{"id":485,"name":"Louga","iso2":"LG","type":"region","lat":15.6141768,"lng":-16.22868},{"id":476,"name":"Matam","iso2":"MT","type":"region","lat":15.6600225,"lng":-13.2576906},{"id":477,"name":"Saint-Louis","iso2":"SL","type":"region","lat":16.0280445,"lng":-16.5048686},{"id":482,"name":"Sédhiou","iso2":"SE","type":"region","lat":12.704604,"lng":-15.5562304},{"id":486,"name":"Tambacounda Region","iso2":"TC","type":"region","lat":13.8686324,"lng":-13.3190328},{"id":484,"name":"Thiès Region","iso2":"TH","type":"region","lat":14.7538661,"lng":-16.8637823},{"id":478,"name":"Ziguinchor","iso2":"ZG","type":"region","lat":12.5641479,"lng":-16.2639825}]