[{"id":2092,"name":"Central Equatoria","iso2":"EC","type":"state","lat":5.0,"lng":31.5},{"id":2093,"name":"Eastern Equatoria","iso2":"EE","type":"state","lat":5.283932,"lng":33.5912329},{"id":2094,"name":"Jonglei State","iso2":"JG","type":"state","lat":8.0,"lng":32.0},{"id":2090,"name":"Lakes","iso2":"LK","type":"state","lat":6.7526716,"lng":30.0948429},{"id":2088,"name":"Northern Bahr el Ghazal","iso2":"BN","type":"state","lat":9.0,"lng":27.0},{"id":2085,"name":"Unity","iso2":"UY","type":"state","lat":8.4582525,"lng":29.9560547},{"id":2086,"name":"Upper Nile","iso2":"NU","type":"state","lat":9.0,"lng":33.0},{"id":2087,"name":"Warrap","iso2":"WR","type":"state","lat":7.9132688,"lng":28.9588141},{"id":2091,"name":"Western Bahr el Ghazal","iso2":"BW","type":"state","lat":8.5455555,"lng":25.2224504},{"id":2089,"name":"Western Equatoria","iso2":"EW","type":"state","lat":5.5381215,"lng":29.1495118}]