[{"id":4139,"name":"Ahuachapán","iso2":"AH","type":"department","lat":13.8634993,"lng":-89.9273861},{"id":4132,"name":"Cabañas","iso2":"CA","type":"department","lat":13.8832914,"lng":-88.7383096},{"id":4131,"name":"Chalatenango","iso2":"CH","type":"department","lat":14.1765311,"lng":-89.0932963},{"id":4137,"name":"Cuscatlán","iso2":"CU","type":"department","lat":13.8586903,"lng":-89.0632592},{"id":4134,"name":"La Libertad","iso2":"LI","type":"department","lat":13.7449622,"lng":-89.3610819},{"id":4136,"name":"La Paz","iso2":"PA","type":"department","lat":13.4669766,"lng":-88.9850622},{"id":4138,"name":"La Unión ","iso2":"UN","type":"department","lat":13.5326318,"lng":-87.902582},{"id":4130,"name":"Morazán","iso2":"MO","type":"department","lat":13.7726176,"lng":-88.0951973},{"id":4135,"name":"San Miguel","iso2":"SM","type":"department","lat":13.4320224,"lng":-88.271737},{"id":4133,"name":"San Salvador","iso2":"SS","type":"department","lat":13.735588,"lng":-89.2005546},{"id":4127,"name":"San Vicente","iso2":"SV","type":"department","lat":13.5274935,"lng":-88.7396986},{"id":4128,"name":"Santa Ana","iso2":"SA","type":"department","lat":14.1145585,"lng":-89.5678141},{"id":4140,"name":"Sonsonate","iso2":"SO","type":"department","lat":13.7115105,"lng":-89.6605842},{"id":4129,"name":"Usulután","iso2":"US","type":"department","lat":13.4324702,"lng":-88.5398358}]