[{"id":2941,"name":"Al-Hasakah","iso2":"HA","type":"province","lat":36.4364544,"lng":40.5793816},{"id":2944,"name":"Al-Raqqah","iso2":"RA","type":"province","lat":35.949678,"lng":39.0089212},{"id":2946,"name":"Aleppo","iso2":"HL","type":"province","lat":36.1517479,"lng":37.3935},{"id":2936,"name":"As-Suwayda","iso2":"SU","type":"province","lat":32.77055,"lng":36.8776335},{"id":2939,"name":"Damascus","iso2":"DI","type":"province","lat":33.5130695,"lng":36.3095814},{"id":2945,"name":"Daraa","iso2":"DR","type":"province","lat":32.8284685,"lng":36.1055602},{"id":2937,"name":"Deir ez-Zor","iso2":"DY","type":"province","lat":35.2693236,"lng":40.2401172},{"id":2934,"name":"Hama","iso2":"HM","type":"province","lat":35.309489,"lng":37.2704222},{"id":2942,"name":"Homs","iso2":"HI","type":"province","lat":34.4709821,"lng":38.1502622},{"id":2940,"name":"Idlib","iso2":"ID","type":"province","lat":35.8595974,"lng":36.5713701},{"id":2938,"name":"Latakia","iso2":"LA","type":"province","lat":35.5786198,"lng":35.9814691},{"id":2943,"name":"Quneitra","iso2":"QU","type":"province","lat":33.0537759,"lng":35.9047094},{"id":2935,"name":"Rif Dimashq","iso2":"RD","type":"province","lat":33.4708234,"lng":37.647632},{"id":2947,"name":"Tartus","iso2":"TA","type":"province","lat":34.9452553,"lng":36.0753261}]