[{"id":3374,"name":"Ahal","iso2":"A","type":"region","lat":38.8395548,"lng":58.8610186},{"id":3371,"name":"Ashgabat","iso2":"S","type":"city","lat":37.9404648,"lng":58.3823487},{"id":3372,"name":"Balkan","iso2":"B","type":"region","lat":39.9353714,"lng":54.9120055},{"id":3373,"name":"Daşoguz","iso2":"D","type":"region","lat":41.8368737,"lng":59.9651904},{"id":3370,"name":"Lebap","iso2":"L","type":"region","lat":38.8131139,"lng":63.0513218},{"id":3369,"name":"Mary","iso2":"M","type":"region","lat":37.1302916,"lng":62.4019513}]