[{"id":2550,"name":"Ariana","iso2":"12","type":"governorate","lat":36.9685735,"lng":10.1219855},{"id":2572,"name":"Béja","iso2":"31","type":"governorate","lat":36.7236755,"lng":9.185382},{"id":2566,"name":"Ben Arous","iso2":"13","type":"governorate","lat":36.6306483,"lng":10.2100827},{"id":2551,"name":"Bizerte","iso2":"23","type":"governorate","lat":37.0354339,"lng":9.6393259},{"id":2558,"name":"Gabès","iso2":"81","type":"governorate","lat":33.7765032,"lng":9.793063},{"id":2556,"name":"Gafsa","iso2":"71","type":"governorate","lat":34.4224374,"lng":8.7843862},{"id":2552,"name":"Jendouba","iso2":"32","type":"governorate","lat":36.6779725,"lng":8.752647},{"id":2564,"name":"Kairouan","iso2":"41","type":"governorate","lat":35.6711663,"lng":10.1005469},{"id":2570,"name":"Kasserine","iso2":"42","type":"governorate","lat":35.1687646,"lng":8.8365654},{"id":2562,"name":"Kebili","iso2":"73","type":"governorate","lat":33.7071551,"lng":8.9714623},{"id":2561,"name":"Kef","iso2":"33","type":"governorate","lat":36.0357642,"lng":8.7249381},{"id":2568,"name":"Mahdia","iso2":"53","type":"governorate","lat":35.4877893,"lng":10.9622433},{"id":2555,"name":"Manouba","iso2":"14","type":"governorate","lat":36.7624363,"lng":9.8336191},{"id":2560,"name":"Medenine","iso2":"82","type":"governorate","lat":33.3434014,"lng":10.4910703},{"id":2553,"name":"Monastir","iso2":"52","type":"governorate","lat":35.7707582,"lng":10.8280511},{"id":5116,"name":"Nabeul","iso2":"21","type":"governorate","lat":36.4823676,"lng":10.6707197},{"id":2557,"name":"Sfax","iso2":"61","type":"governorate","lat":34.7232387,"lng":10.3358474},{"id":2567,"name":"Sidi Bouzid","iso2":"43","type":"governorate","lat":35.0354386,"lng":9.4839392},{"id":2563,"name":"Siliana","iso2":"34","type":"governorate","lat":36.0887208,"lng":9.3645335},{"id":2571,"name":"Sousse","iso2":"51","type":"governorate","lat":35.8939852,"lng":10.3977704},{"id":2559,"name":"Tataouine","iso2":"83","type":"governorate","lat":31.7317009,"lng":9.7702197},{"id":2569,"name":"Tozeur","iso2":"72","type":"governorate","lat":33.9844105,"lng":8.0711309},{"id":2554,"name":"Tunis","iso2":"11","type":"governorate","lat":36.81791,"lng":10.2127219},{"id":2565,"name":"Zaghouan","iso2":"22","type":"governorate","lat":36.3994751,"lng":10.1446349}]