[{"id":2212,"name":"Adana","iso2":"01","type":"province","lat":37.1438001,"lng":35.4984094},{"id":2155,"name":"Adıyaman","iso2":"02","type":"province","lat":37.78936,"lng":38.3141101},{"id":2179,"name":"Afyonkarahisar","iso2":"03","type":"province","lat":38.6852729,"lng":30.6427411},{"id":2193,"name":"Ağrı","iso2":"04","type":"province","lat":39.719125,"lng":43.0504894},{"id":2210,"name":"Aksaray","iso2":"68","type":"province","lat":38.3705416,"lng":34.026907},{"id":2161,"name":"Amasya","iso2":"05","type":"province","lat":40.6503248,"lng":35.8329148},{"id":2217,"name":"Ankara","iso2":"06","type":"province","lat":39.7160422,"lng":32.7059159},{"id":2169,"name":"Antalya","iso2":"07","type":"province","lat":36.9279654,"lng":30.7276865},{"id":2185,"name":"Ardahan","iso2":"75","type":"province","lat":41.1102966,"lng":42.7035585},{"id":2191,"name":"Artvin","iso2":"08","type":"province","lat":41.160506,"lng":41.8398627},{"id":2187,"name":"Aydın","iso2":"09","type":"province","lat":37.7405798,"lng":28.0676404},{"id":2175,"name":"Balıkesir","iso2":"10","type":"province","lat":39.6473917,"lng":27.8879787},{"id":2148,"name":"Bartın","iso2":"74","type":"province","lat":41.4947715,"lng":32.4354255},{"id":2194,"name":"Batman","iso2":"72","type":"province","lat":37.7874104,"lng":41.2573924},{"id":2177,"name":"Bayburt","iso2":"69","type":"province","lat":40.26032,"lng":40.228048},{"id":2221,"name":"Bilecik","iso2":"11","type":"province","lat":40.1435101,"lng":29.9752911},{"id":2153,"name":"Bingöl","iso2":"12","type":"province","lat":39.073803,"lng":40.7296181},{"id":2215,"name":"Bitlis","iso2":"13","type":"province","lat":38.4950867,"lng":42.1678372},{"id":2172,"name":"Bolu","iso2":"14","type":"province","lat":40.6212099,"lng":31.6460259},{"id":2209,"name":"Burdur","iso2":"15","type":"province","lat":37.5183407,"lng":30.1691254},{"id":2163,"name":"Bursa","iso2":"16","type":"province","lat":40.1825734,"lng":29.0675039},{"id":2216,"name":"Çanakkale","iso2":"17","type":"province","lat":40.0549886,"lng":26.9278292},{"id":2168,"name":"Çankırı","iso2":"18","type":"province","lat":40.5971947,"lng":33.6212704},{"id":2173,"name":"Çorum","iso2":"19","type":"province","lat":40.5698389,"lng":34.7269292},{"id":2157,"name":"Denizli","iso2":"20","type":"province","lat":37.7827875,"lng":29.0966476},{"id":2226,"name":"Diyarbakır","iso2":"21","type":"province","lat":38.0814716,"lng":40.4297767},{"id":2202,"name":"Düzce","iso2":"81","type":"province","lat":40.8774545,"lng":31.2009618},{"id":2151,"name":"Edirne","iso2":"22","type":"province","lat":41.1804499,"lng":26.6222442},{"id":2159,"name":"Elazığ","iso2":"23","type":"province","lat":38.5824771,"lng":39.396179},{"id":2160,"name":"Erzincan","iso2":"24","type":"province","lat":39.6073429,"lng":39.2013209},{"id":2165,"name":"Erzurum","iso2":"25","type":"province","lat":39.90632,"lng":41.2727715},{"id":2164,"name":"Eskişehir","iso2":"26","type":"province","lat":39.6821156,"lng":31.0723476},{"id":2203,"name":"Gaziantep","iso2":"27","type":"province","lat":37.0628317,"lng":37.3792617},{"id":2186,"name":"Giresun","iso2":"28","type":"province","lat":40.6531617,"lng":38.5172032},{"id":2204,"name":"Gümüşhane","iso2":"29","type":"province","lat":40.2533219,"lng":39.384968},{"id":2190,"name":"Hakkâri","iso2":"30","type":"province","lat":37.5766959,"lng":43.7377862},{"id":2211,"name":"Hatay","iso2":"31","type":"province","lat":36.3451332,"lng":36.0748022},{"id":2166,"name":"Iğdır","iso2":"76","type":"province","lat":39.9218784,"lng":44.0467957},{"id":2222,"name":"Isparta","iso2":"32","type":"province","lat":37.9465412,"lng":30.9602093},{"id":2170,"name":"İstanbul","iso2":"34","type":"province","lat":41.006381,"lng":28.9758715},{"id":2205,"name":"İzmir","iso2":"35","type":"province","lat":38.4192537,"lng":27.128469},{"id":2227,"name":"Kahramanmaraş","iso2":"46","type":"province","lat":37.7830345,"lng":36.830655},{"id":2223,"name":"Karabük","iso2":"78","type":"province","lat":41.1955402,"lng":32.6231154},{"id":2184,"name":"Karaman","iso2":"70","type":"province","lat":37.1796848,"lng":33.3383665},{"id":2208,"name":"Kars","iso2":"36","type":"province","lat":40.4558435,"lng":42.9979531},{"id":2197,"name":"Kastamonu","iso2":"37","type":"province","lat":41.3680217,"lng":33.7619177},{"id":2200,"name":"Kayseri","iso2":"38","type":"province","lat":38.6582232,"lng":35.5546374},{"id":2154,"name":"Kilis","iso2":"79","type":"province","lat":36.7797231,"lng":37.1416892},{"id":2178,"name":"Kırıkkale","iso2":"71","type":"province","lat":39.8860105,"lng":33.8278992},{"id":2176,"name":"Kırklareli","iso2":"39","type":"province","lat":41.7078046,"lng":27.6051334},{"id":2180,"name":"Kırşehir","iso2":"40","type":"province","lat":39.3303066,"lng":34.1265884},{"id":2195,"name":"Kocaeli","iso2":"41","type":"province","lat":40.8216536,"lng":29.9507184},{"id":2171,"name":"Konya","iso2":"42","type":"province","lat":38.0211951,"lng":32.5224943},{"id":2149,"name":"Kütahya","iso2":"43","type":"province","lat":39.2522508,"lng":29.4937732},{"id":2158,"name":"Malatya","iso2":"44","type":"province","lat":38.4820156,"lng":38.1035355},{"id":2198,"name":"Manisa","iso2":"45","type":"province","lat":38.8574402,"lng":28.0565711},{"id":2224,"name":"Mardin","iso2":"47","type":"province","lat":37.3209802,"lng":40.7251295},{"id":2156,"name":"Mersin","iso2":"33","type":"province","lat":36.7978381,"lng":34.6298391},{"id":2182,"name":"Muğla","iso2":"48","type":"province","lat":37.2151784,"lng":28.363733},{"id":2162,"name":"Muş","iso2":"49","type":"province","lat":38.9740786,"lng":41.9590433},{"id":2196,"name":"Nevşehir","iso2":"50","type":"province","lat":38.7235072,"lng":34.7194168},{"id":2189,"name":"Niğde","iso2":"51","type":"province","lat":38.0664691,"lng":34.7051438},{"id":2174,"name":"Ordu","iso2":"52","type":"province","lat":40.8292569,"lng":37.4082764},{"id":2214,"name":"Osmaniye","iso2":"80","type":"province","lat":37.2517882,"lng":36.2993502},{"id":2219,"name":"Rize","iso2":"53","type":"province","lat":40.9569617,"lng":40.884428},{"id":2150,"name":"Sakarya","iso2":"54","type":"province","lat":40.7755188,"lng":30.4020898},{"id":2220,"name":"Samsun","iso2":"55","type":"province","lat":41.2303557,"lng":35.9683338},{"id":2183,"name":"Şanlıurfa","iso2":"63","type":"province","lat":37.2595198,"lng":39.0408174},{"id":2207,"name":"Siirt","iso2":"56","type":"province","lat":37.8646916,"lng":42.0510294},{"id":4854,"name":"Sinop","iso2":"57","type":"province","lat":41.6476377,"lng":34.9560137},{"id":2181,"name":"Sivas","iso2":"58","type":"province","lat":39.4191717,"lng":37.1012388},{"id":2225,"name":"Şırnak","iso2":"73","type":"province","lat":37.455253,"lng":42.5212049},{"id":2167,"name":"Tekirdağ","iso2":"59","type":"province","lat":41.0731403,"lng":27.4102013},{"id":2199,"name":"Tokat","iso2":"60","type":"province","lat":40.3902713,"lng":36.6251863},{"id":2206,"name":"Trabzon","iso2":"61","type":"province","lat":40.8526439,"lng":39.7849273},{"id":2192,"name":"Tunceli","iso2":"62","type":"province","lat":39.2197553,"lng":39.4139674},{"id":2201,"name":"Uşak","iso2":"64","type":"province","lat":38.5768902,"lng":29.3729779},{"id":2152,"name":"Van","iso2":"65","type":"province","lat":38.3249599,"lng":43.6589825},{"id":2218,"name":"Yalova","iso2":"77","type":"province","lat":40.5795422,"lng":29.1687005},{"id":2188,"name":"Yozgat","iso2":"66","type":"province","lat":39.7152422,"lng":35.170998},{"id":2213,"name":"Zonguldak","iso2":"67","type":"province","lat":41.250324,"lng":31.8389738}]