[{"id":2540,"name":"Andijan","iso2":"AN","type":"region","lat":40.7727796,"lng":72.341966},{"id":2541,"name":"Bukhara","iso2":"BU","type":"region","lat":40.229366,"lng":63.5470584},{"id":2538,"name":"Fergana","iso2":"FA","type":"region","lat":40.5,"lng":71.25},{"id":2545,"name":"Jizzakh","iso2":"JI","type":"region","lat":40.3319095,"lng":67.4551198},{"id":2548,"name":"Karakalpakstan","iso2":"QR","type":"republic","lat":43.7738841,"lng":57.6234617},{"id":2537,"name":"Namangan","iso2":"NG","type":"region","lat":40.9555061,"lng":71.1097749},{"id":2542,"name":"Navoiy","iso2":"NW","type":"region","lat":42.0,"lng":64.0},{"id":2543,"name":"Qashqadaryo","iso2":"QA","type":"region","lat":39.0424974,"lng":66.5775276},{"id":2544,"name":"Samarqand","iso2":"SA","type":"region","lat":39.6550017,"lng":66.9756954},{"id":2547,"name":"Sirdaryo","iso2":"SI","type":"region","lat":40.8029326,"lng":68.8242841},{"id":2546,"name":"Surxondaryo","iso2":"SU","type":"region","lat":37.9520843,"lng":67.1265996},{"id":2536,"name":"Tashkent","iso2":"TK","type":"city","lat":41.3123363,"lng":69.2787079},{"id":2549,"name":"Tashkent","iso2":"TO","type":"region","lat":41.3123363,"lng":69.2787079},{"id":2539,"name":"Xorazm","iso2":"XO","type":"region","lat":41.2902835,"lng":60.5428537}]