[{"id":2044,"name":"Amazonas","iso2":"Z","type":"state","lat":3.422575,"lng":-65.723231},{"id":2050,"name":"Anzoátegui","iso2":"B","type":"state","lat":9.0197925,"lng":-64.2168001},{"id":4856,"name":"Apure","iso2":"C","type":"state","lat":7.0735781,"lng":-68.8202025},{"id":2047,"name":"Aragua","iso2":"D","type":"state","lat":9.9897564,"lng":-67.0839257},{"id":2049,"name":"Barinas","iso2":"E","type":"state","lat":8.6182737,"lng":-70.2274065},{"id":2039,"name":"Bolívar","iso2":"F","type":"state","lat":8.0018709,"lng":-66.1109318},{"id":2040,"name":"Carabobo","iso2":"G","type":"state","lat":10.2137258,"lng":-68.0396345},{"id":2034,"name":"Cojedes","iso2":"H","type":"state","lat":9.3094457,"lng":-68.3590546},{"id":2051,"name":"Delta Amacuro","iso2":"Y","type":"state","lat":8.9414599,"lng":-61.3403273},{"id":4855,"name":"Distrito Capital","iso2":"A","type":"capital district","lat":10.4749543,"lng":-66.9708041},{"id":2035,"name":"Falcón","iso2":"I","type":"state","lat":11.273946,"lng":-69.5834205},{"id":2045,"name":"Guárico","iso2":"J","type":"state","lat":8.8378585,"lng":-66.3821},{"id":2055,"name":"La Guaira","iso2":"X","type":"state","lat":10.6000384,"lng":-66.9296405},{"id":2038,"name":"Lara","iso2":"K","type":"state","lat":10.0714266,"lng":-70.0163241},{"id":2053,"name":"Mérida","iso2":"L","type":"state","lat":8.4911705,"lng":-71.3043439},{"id":2037,"name":"Miranda","iso2":"M","type":"state","lat":10.323351,"lng":-66.4842121},{"id":2054,"name":"Monagas","iso2":"N","type":"state","lat":9.3437846,"lng":-63.1589318},{"id":2052,"name":"Nueva Esparta","iso2":"O","type":"state","lat":10.9645415,"lng":-64.0975447},{"id":2036,"name":"Portuguesa","iso2":"P","type":"state","lat":8.9674808,"lng":-69.3915205},{"id":2056,"name":"Sucre","iso2":"R","type":"state","lat":10.429015,"lng":-63.5649999},{"id":2048,"name":"Táchira","iso2":"S","type":"state","lat":8.0219748,"lng":-72.0205763},{"id":2043,"name":"Trujillo","iso2":"T","type":"state","lat":9.4958129,"lng":-70.7688907},{"id":2046,"name":"Venezuela","iso2":"W","type":"federal dependency","lat":8.0018709,"lng":-66.1109318},{"id":2041,"name":"Yaracuy","iso2":"U","type":"state","lat":10.3040312,"lng":-68.7014018},{"id":2042,"name":"Zulia","iso2":"V","type":"state","lat":10.1065099,"lng":-71.8641307}]