[{"id":4763,"name":"A'ana","iso2":"AA","type":"district","lat":-13.8371757,"lng":-171.9950869},{"id":4761,"name":"Aiga-i-le-Tai","iso2":"AL","type":"district","lat":-13.862031,"lng":-172.0328371},{"id":4765,"name":"Atua","iso2":"AT","type":"district","lat":-13.954878,"lng":-171.6512455},{"id":4764,"name":"Fa'asaleleaga","iso2":"FA","type":"district","lat":-13.6307638,"lng":-172.2365981},{"id":4769,"name":"Gaga'emauga","iso2":"GE","type":"district","lat":-13.5428666,"lng":-172.366887},{"id":4771,"name":"Gaga'ifomauga","iso2":"GI","type":"district","lat":-13.5468007,"lng":-172.4969331},{"id":4767,"name":"Palauli","iso2":"PA","type":"district","lat":-13.7063577,"lng":-172.4839701},{"id":4762,"name":"Satupa'itea","iso2":"SA","type":"district","lat":-13.7414328,"lng":-172.3406683},{"id":4770,"name":"Tuamasaga","iso2":"TU","type":"district","lat":-13.9218804,"lng":-171.8007196},{"id":4768,"name":"Va'a-o-Fonoti","iso2":"VF","type":"district","lat":-13.9470903,"lng":-171.5431872},{"id":4766,"name":"Vaisigano","iso2":"VS","type":"district","lat":-13.5595656,"lng":-172.6593798}]